src_id,src_id_alt,sources,name,name_thai,name_en,category_raw,subcategory,is_food,lat,lng,zipcode,address,phone,website,email,wongnai_categories,osm_subcategory,fb_ad_count,fb_check_status,fb_search_url,review_count,is_tourism,lead_raw,lead_quality,score_factors,detail_url
osm:183712146,,osm,Rashmi Plaza Hotel,,Rashmi Plaza Hotel,hotel,hotel,False,,,,,+85621315088,http://www.rashmisplazahotel.com,info@rashmishotel.com,,hotel,,,,,1,8,6,+3 real website ; +2 tourism category ; +2 phone ; +1 email,
osm:3476700774,,osm,KFC,เค เอฟ ซี,KFC,fast_food,fast_food,True,17.8716401,102.742789,,,1150,https://www.kfc.co.th/,,,fast_food,,,,,1,7,5,+3 real website ; +2 tourism category ; +2 phone,
osm:3476700778,,osm,MK Restaurants,,MK Restaurants,restaurant,restaurant,True,17.8717775,102.742734,,,1642,https://www.mkrestaurant.com/,,,restaurant,,,,,1,7,5,+3 real website ; +2 tourism category ; +2 phone,
osm:3617256470,,osm,Mojo Hero,,,restaurant,restaurant,True,17.9421364,102.6267863,,,+856 20 97298200,https://powerar.wix.com/mojobar,,,restaurant,,,,,1,7,5,+3 real website ; +2 tourism category ; +2 phone,
osm:4332017361,,osm,Le Patitoh,,,restaurant,restaurant,True,17.9276496,102.6253472,,,+856 30 5082428,http://www.le-patitoh.com/,,,restaurant,,,,,1,7,5,+3 real website ; +2 tourism category ; +2 phone,
osm:4529353658,,osm,Flavours & Spices,,,restaurant,restaurant,True,17.9464344,102.6236884,,,+856 20 55588339,https://www.flavorsandspices.com/,,,restaurant,,,,,1,7,5,+3 real website ; +2 tourism category ; +2 phone,
osm:6220885041,,osm,นกฮูกเฮ้าส์ ริมโขง หนองคาย,,Nokhuuk's House @Rimkhong,guest_house,guest_house,False,17.8157572,102.639092,,"222, แก้ววรวุฒิ, โพนสา, ท่าบ่อ, หนองคาย, 43110",+66 924644222,https://book-directonline.com/properties/nokhuukshouserimkhongdirect?locale=th&items[0][adults]=2&items[0][children]=0&items[0][infants]=0&currency=THB&checkInDate=2025-04-19&checkOutDate=2025-04-20&trackPage=yes,,,guest_house,,,,,1,7,5,+3 real website ; +2 tourism category ; +2 phone,
osm:11271167669,,osm,,,Basn Thuad Cafe,cafe,cafe,True,17.8849638,102.7498254,,,091 492 6969,https://baanthuadcafe.business.site/,,,cafe,,,,,1,7,5,+3 real website ; +2 tourism category ; +2 phone,
osm:476203325,,osm,สุพัตรา อพาร์ทเม้นต์,,Suphattra Apartment,motel,motel,False,,,,,+66 88 5607894,http://www.suphattraapartment.com,,,motel,,,,,1,7,5,+3 real website ; +2 tourism category ; +2 phone,
osm:557853046,,osm,The Pizza Company,เดอะ พิซซ่า คอมปะนี,The Pizza Company,fast_food,fast_food,True,,,,Thadeua Road,+856 1112,https://www.1112.com/,,,fast_food,,,,,1,7,5,+3 real website ; +2 tourism category ; +2 phone,
osm:1682181237,,osm,Mut Mee Guesthouse,,,guest_house,guest_house,False,17.8834229,102.7418975,,"Nai Mueang, Mueang Nong Khai, Nong Khai, 43000",,https://www.mutmee.com,,,guest_house,,,,,1,5,4,+3 real website ; +2 tourism category,
osm:2397815386,,osm,แดงแหนมเนือง หนองคาย,,Daeng Namnueang Nong Khai,restaurant,restaurant,True,17.8847476,102.7456389,,"526-527, ถนนริมโขง, Nai Mueang, เมืองหนองคาย, Nong Khai, 43000",,https://daengnamnuang.net/,,,restaurant,,,,,1,5,4,+3 real website ; +2 tourism category,
osm:3326552493,,osm,Hop Inn Nong Khai,,,hotel,hotel,False,17.8778364,102.744037,,,,https://hopinnhotel.com/,,,hotel,,,,,1,5,4,+3 real website ; +2 tourism category,
osm:3888924284,,osm,,,,apartment,apartment,False,17.9193857,102.6211423,,,+856 21 315052,,laoasset@yahoo.com,,apartment,,,,,1,5,4,+2 tourism category ; +2 phone ; +1 email,
osm:4535170290,,osm,ธนภรแหนมเนือง หนองคาย,,Thanapornnamneung Nongkhai,restaurant,restaurant,True,17.879748,102.7485961,,"1152/2, Prajak Sillapakhom, 43000",042412241,https://m.facebook.com/Thanapornnamneungnongkhai/,sin_home@hotmail.com,,restaurant,,,,,1,5,4,+2 tourism category ; +2 phone ; +1 email,
osm:4677161589,,osm,Memory,,,cafe,cafe,True,17.9317911,102.6165776,,"056, ທະຫນົນທ່າເດື່ອ",+856 20 29805559,,nongmoui.ars@gmail.com,,cafe,,,,,1,5,4,+2 tourism category ; +2 phone ; +1 email,
osm:4815762222,,osm,,,Ban Donefaiy,bar,bar,True,17.8588274,102.6628882,,085,+856 30 5178302,,bounmyinthavong@gmail.com,,bar,,,,,1,5,4,+2 tourism category ; +2 phone ; +1 email,
osm:6127275756,,osm,Ray's Grille,,,fast_food,fast_food,True,17.9426563,102.6267916,,,,https://www.fb.com/raysgrillelaopdr,,,fast_food,,,,,1,5,4,+3 real website ; +2 tourism category,
osm:6430015885,,osm,วนิลา​ คาเฟ่,,Vanilla Cafe,cafe,cafe,True,17.8834724,102.7450481,,"1145, ถนนมีชัย, 43000",0910042446,,hongmaleela@gmail.com,,cafe,,,,,1,5,4,+2 tourism category ; +2 phone ; +1 email,
osm:7095327586,,osm,านกลางสวน,,Ban klangsuan guesthouse,guest_house,guest_house,False,17.8287665,102.7617109,,"109/1, ถนนมิตรภาพ, 43000",080-7664113,,pari.tubtimtong@gmail.com,,guest_house,,,,,1,5,4,+2 tourism category ; +2 phone ; +1 email,
osm:13423984903,,osm,Mut Mee Restaurant,,,restaurant,restaurant,True,17.8835496,102.7420329,,"1111 4, ถนน ซอย แก้ววรวุฒิ, Nai Mueang, Mueang Nong Khai, Nong Khai, 43000",,https://www.mutmee.com,,,restaurant,,,,,1,5,4,+3 real website ; +2 tourism category,
osm:145946007,,osm,Vientiane Restaurant Nong Khai,,,restaurant,restaurant,True,,,,,+66 42 438 438,http://www.facebook.com/pages/Vientiane-Restaurant-Nongkhai/163507667045139,vientianerestnk@gmail.com,,restaurant,,,,,1,5,4,+2 tourism category ; +2 phone ; +1 email,
osm:1257869833,,osm,Park & Pool Resort***,,,hotel,hotel,False,,,,"163/1-3 Moo.3, Soi Dondaeng 3 Sadej Rd T.Meechai A. Muang, Nong Khai, 43000",,https://parkpoolresort.th-thailand.com/fr/,,,hotel,,,,,1,5,4,+3 real website ; +2 tourism category,
osm:512440209,,osm,Eat Me Cafe,,,cafe,cafe,True,17.9446493,102.6192407,,,+856 20 55851115,,,,cafe,,,,,1,4,3,+2 tourism category ; +2 phone,
osm:512440213,,osm,Monkey House,,Monkey House,restaurant,restaurant,True,17.9410655,102.6180913,,,+856 21 312930,,,,restaurant,,,,,1,4,3,+2 tourism category ; +2 phone,
osm:647814040,,osm,Arounsavath Guesthouse,,Arounsavath Guesthouse,guest_house,guest_house,False,17.9225315,102.6163673,,,+856 21 313 442,,,,guest_house,,,,,1,4,3,+2 tourism category ; +2 phone,
osm:2263758603,,osm,ร้านอาหารเจหนานผิงซัน,,Janan Pingshan Restaurant,restaurant,restaurant,True,17.8836399,102.7475408,,,+66 63 795 7517,,,,restaurant,,,,,1,4,3,+2 tourism category ; +2 phone,
osm:2397809661,,osm,แพนเกสเฮาส์,แพนเกสเฮาส์,Pan Guest House,guest_house,guest_house,False,17.8856076,102.7481343,,,+6642420421,,,,guest_house,,,,,1,4,3,+2 tourism category ; +2 phone,
osm:2397815387,,osm,GoodFood,,,restaurant,restaurant,True,17.8849215,102.7460276,,,+6642460689,,,,restaurant,,,,,1,4,3,+2 tourism category ; +2 phone,
osm:2608700259,,osm,ໄກ່ອຳພອນ,,Kaiamphone Guesthouse,guest_house,guest_house,False,17.9340104,102.6169132,,,+856 21 314 121,,,,guest_house,,,,,1,4,3,+2 tourism category ; +2 phone,
osm:2608747752,,osm,,,Souksomvang,guest_house,guest_house,False,17.8979125,102.6388713,,,+856 21 316309,,,,guest_house,,,,,1,4,3,+2 tourism category ; +2 phone,
osm:2624817088,,osm,Joommalee Guest House,,,guest_house,guest_house,False,17.8861319,102.7509584,,,085-0102540,,,,guest_house,,,,,1,4,3,+2 tourism category ; +2 phone,
osm:2624817093,,osm,Jing Joe Restaurant & GuestHouse,,,restaurant,restaurant,True,17.8841686,102.7447662,,"537, Soi Rim Khong",66 090 848 7748,,,,restaurant,,,,,1,4,3,+2 tourism category ; +2 phone,
osm:3589034450,,osm,Victory,,Victory,restaurant,restaurant,True,17.9311625,102.6175209,,,+856 20 22493443,,,,restaurant,,,,,1,4,3,+2 tourism category ; +2 phone,
osm:3612516531,,osm,Café Fiore,,Café Fiore,restaurant,restaurant,True,17.9475456,102.624406,,,+856 20 58893500,,,,restaurant,,,,,1,4,3,+2 tourism category ; +2 phone,
osm:3634736887,,osm,ຊົມຂອງ,,Xomkong Sindard,fast_food,fast_food,True,17.8325022,102.6414097,,,+856 20 55404454,,,,fast_food,,,,,1,4,3,+2 tourism category ; +2 phone,
osm:3635571813,,osm,Kanlaya Apartment,,Kanlaya Apartment,hotel,hotel,False,17.8871964,102.7267783,,,+856 21 832214,,,,hotel,,,,,1,4,3,+2 tourism category ; +2 phone,
osm:3645511715,,osm,Vongphone Grilled,,Vongphone Grilled,restaurant,restaurant,True,17.8877778,102.7324337,,,+856 20 99226330,,,,restaurant,,,,,1,4,3,+2 tourism category ; +2 phone,
osm:3673445928,,osm,Lucky,,,restaurant,restaurant,True,17.932388,102.6248151,,,+856 20 77504393,,,,restaurant,,,,,1,4,3,+2 tourism category ; +2 phone,
osm:3687727401,,osm,Bihiryalai,,,restaurant,restaurant,True,17.9301905,102.6167979,,,+856 21 316478,,,,restaurant,,,,,1,4,3,+2 tourism category ; +2 phone,
osm:3714948888,,osm,Delight Coffee,,,cafe,cafe,True,17.9426317,102.629486,,,+856 30 9003781,,,,cafe,,,,,1,4,3,+2 tourism category ; +2 phone,
osm:3748716588,,osm,Rapina Haisok,,,apartment,apartment,False,17.9155432,102.6209627,,,+856 20 22228496,,,,apartment,,,,,1,4,3,+2 tourism category ; +2 phone,
osm:3854007057,,osm,The Garden House 111 (ບ້ານສວນ111),,,restaurant,restaurant,True,17.9367816,102.6288708,,,+856 20 55161619,,,,restaurant,,,,,1,4,3,+2 tourism category ; +2 phone,
osm:3858698040,,osm,ຕາ ວັນວຸ້ງ,,,restaurant,restaurant,True,17.9383276,102.6361637,,,+856 20 3055990,,,,restaurant,,,,,1,4,3,+2 tourism category ; +2 phone,
osm:3860005617,,osm,ອູໄລເພັດ,,Oulayphet,hotel,hotel,False,17.9351659,102.6183456,,,+856 21 313260,,,,hotel,,,,,1,4,3,+2 tourism category ; +2 phone,
osm:3885994260,,osm,Fon's Pizza,,Fon's Pizza,restaurant,restaurant,True,17.9435282,102.6268242,,,+856 21 485052,,,,restaurant,,,,,1,4,3,+2 tourism category ; +2 phone,
osm:3945140398,,osm,ວັນມະນີ,,Vanhmany,apartment,apartment,False,17.9397129,102.6206976,,,+856 20 22229831,,,,apartment,,,,,1,4,3,+2 tourism category ; +2 phone,
osm:3945140399,,osm,MK restaurant,,,restaurant,restaurant,True,17.9396434,102.6189568,,Lao-Thai Road,+856 30 5963001,https://www.facebook.com/mkrestaurantlaos/,,,restaurant,,,,,1,4,3,+2 tourism category ; +2 phone,
osm:4002077006,,osm,Pizza Freddo,,,restaurant,restaurant,True,17.9494103,102.6196452,,,+856 20 52204914,,,,restaurant,,,,,1,4,3,+2 tourism category ; +2 phone,
osm:4002077286,,osm,Pho Phnom,,,fast_food,fast_food,True,17.9494637,102.6196721,,,+856 20 52204914,,,,fast_food,,,,,1,4,3,+2 tourism category ; +2 phone,
osm:4022194629,,osm,Les Frenchy,,,restaurant,restaurant,True,17.9092348,102.6218347,,"6, Thadeua Road",+856 30 5465178;+856 20 56571828,,,,restaurant,,,,,1,4,3,+2 tourism category ; +2 phone,
osm:4039336114,,osm,T.B. Apartment,,,apartment,apartment,False,17.9418371,102.6187613,,,+856 20 55514099,,,,apartment,,,,,1,4,3,+2 tourism category ; +2 phone,
osm:4223013751,,osm,,,Soysulinthone,guest_house,guest_house,False,17.9023218,102.6272586,,,+856 21 313455,,,,guest_house,,,,,1,4,3,+2 tourism category ; +2 phone,
osm:4346671178,,osm,A.S.K.,,,cafe,cafe,True,17.9138544,102.619899,,,+856 20 55506087,,,,cafe,,,,,1,4,3,+2 tourism category ; +2 phone,
osm:4364787989,,osm,อรรถรส,อรรถรส,Aut tha rod,cafe,cafe,True,17.8949027,102.7647461,,,0835610403,,,,cafe,,,,,1,4,3,+2 tourism category ; +2 phone,
osm:4379964234,,osm,V Apartment,,,apartment,apartment,False,17.9241219,102.6205944,,,+856 20 52225988,,,,apartment,,,,,1,4,3,+2 tourism category ; +2 phone,
osm:4402072496,,osm,ອິກເລກ,,In Lane,restaurant,restaurant,True,17.9446135,102.6251831,,,+856 30 5047886,,,,restaurant,,,,,1,4,3,+2 tourism category ; +2 phone,
osm:4411512438,,osm,ນ້ຳຟົນ,,Namfon,bar,bar,True,17.9446582,102.6308183,,,+856 20 59595937,,,,bar,,,,,1,4,3,+2 tourism category ; +2 phone,
osm:4525766090,,osm,,,Big Bell,guest_house,guest_house,False,17.9088607,102.7780103,,,081-369-9991,,,,guest_house,,,,,1,4,3,+2 tourism category ; +2 phone,
osm:4596002189,,osm,ໃບພູຟາມ,,BaiPooh Farm,restaurant,restaurant,True,17.8996667,102.7397254,,"ທ່າເດືອ, Vientiane, +8562",0305492999,,,,restaurant,,,,,1,4,3,+2 tourism category ; +2 phone,
osm:4658636766,,osm,May Coffee,,,cafe,cafe,True,17.9001567,102.6339548,,,+856 20 55940102,,,,cafe,,,,,1,4,3,+2 tourism category ; +2 phone,
osm:4666663376,,osm,ມິໂລ້ເບເກີຣີຟຣັ່ງ,,"Milo French Bakery, boulangerie - pâtisserie",restaurant,restaurant,True,17.9361071,102.6258236,,,+856 20 22 266 204,https://www.facebook.com/profile.php?id=100085147751396,,,restaurant,,,,,1,4,3,+2 tourism category ; +2 phone,
osm:4670732289,,osm,,ร้านเข้าเปียกเจ้ตัอก,Kao piek J Tock,restaurant,restaurant,True,17.9491437,102.6192499,,ທະຫນົນທ່າເດື່ອ,+856 20 58 552 424;+856 20 77 446 099,,,,restaurant,,,,,1,4,3,+2 tourism category ; +2 phone,
osm:4815510121,,osm,,,BC Apartments,apartment,apartment,False,17.8988785,102.7800263,,"115/2, Soi Panyasawat",+66 8 58667853,,,,apartment,,,,,1,4,3,+2 tourism category ; +2 phone,
osm:5005111268,,osm,Chao Pha-Ya,,,cafe,cafe,True,17.8703577,102.7300272,,,+66 98 6097556,,,,cafe,,,,,1,4,3,+2 tourism category ; +2 phone,
osm:5009166550,,osm,Privet,,,restaurant,restaurant,True,17.9255223,102.6247247,,,+856 20 78097784,,,,restaurant,,,,,1,4,3,+2 tourism category ; +2 phone,
osm:5016273221,,osm,,,HongFa Restaurant Buffet,restaurant,restaurant,True,17.9401452,102.6462451,,,+8562059299945,,,,restaurant,,,,,1,4,3,+2 tourism category ; +2 phone,
osm:5037955385,,osm,ເຟີ ບ້ານພິມ 2,,Pho Ban Phim 2,restaurant,restaurant,True,17.9312579,102.6161994,,,+856 20 55 502 622,,,,restaurant,,,,,1,4,3,+2 tourism category ; +2 phone,
osm:5090569724,,osm,,,Khaem Bueng Buffet and Restaurant,restaurant,restaurant,True,17.9291072,102.6515316,,Boulevard Kamphengmeuang,+8562056008666,,,,restaurant,,,,,1,4,3,+2 tourism category ; +2 phone,
osm:5165815859,,osm,Meena Gino 2,,,restaurant,restaurant,True,17.9290021,102.6167432,,,+856 20 77122223;+856 20 54226000,,,,restaurant,,,,,1,4,3,+2 tourism category ; +2 phone,
osm:5245186021,,osm,,,Phouvanh Restaurant,fast_food,fast_food,True,17.9327743,102.6485902,,,0305650326,,,,fast_food,,,,,1,4,3,+2 tourism category ; +2 phone,
osm:5352195577,,osm,The Italian Job,,,restaurant,restaurant,True,17.9348319,102.6279716,,,+856 20 52960646,,,,restaurant,,,,,1,4,3,+2 tourism category ; +2 phone,
osm:5459220221,,osm,,,Klang Muang,hotel,hotel,False,17.8831593,102.7464191,,,042414066,,,,hotel,,,,,1,4,3,+2 tourism category ; +2 phone,
osm:5653169491,,osm,Le Vendôme 2,,,restaurant,restaurant,True,17.9297144,102.6247661,,Donpamai,+856 20 28188666,,,,restaurant,,,,,1,4,3,+2 tourism category ; +2 phone,
osm:5663311215,,osm,ຮເານ ນ້ອຍ,,,restaurant,restaurant,True,17.9412198,102.6319998,,,+856 20 22224023,,,,restaurant,,,,,1,4,3,+2 tourism category ; +2 phone,
osm:6125777787,,osm,,,Mint Restaurant,restaurant,restaurant,True,17.9450797,102.6251849,,Sokpaluang,02055324924,,,,restaurant,,,,,1,4,3,+2 tourism category ; +2 phone,
osm:6226451348,,osm,Swan Restaurant,,,restaurant,restaurant,True,17.9220767,102.6210076,,,+856 30 5391699,,,,restaurant,,,,,1,4,3,+2 tourism category ; +2 phone,
osm:7502355185,,osm,,ປ້າແກ່ນເຂົ້າປຸ້ນນ້ຳແຈ່ວປາກເຊ,pakaen khaopoun pakse,restaurant,restaurant,True,17.9492945,102.6229361,,"171, khouvieng",0302238553,,,,restaurant,,,,,1,4,3,+2 tourism category ; +2 phone,
osm:8190134244,,osm,MalaNaZeed BBQ PREMIUM,หม่าล่าหน้าซี๊ด บาบีคิวพรีเมี่ยม,,restaurant,restaurant,True,17.881708,102.7378133,,"1152, ถนน แก้ววรวุธ, เมืองหนองคาย, 43000",+66 33131879,https://www.facebook.com/malanazeed,,,restaurant,,,,,1,4,3,+2 tourism category ; +2 phone,
osm:8284044117,,osm,,,Ambassador Residence Apartment,apartment,apartment,False,17.9276076,102.6280043,,WJHH+27 Вьентьян,020 99 998 990,,,,apartment,,,,,1,4,3,+2 tourism category ; +2 phone,
osm:10312903704,,osm,บ้านสุขสบาย,,,apartment,apartment,False,17.8671693,102.7337949,,"89/13-14, หนองกอมเกาะ, 43000",0819747224,,,,apartment,,,,,1,4,3,+2 tourism category ; +2 phone,
osm:12993477382,,osm,The Greenhouse Vientiane,,,restaurant,restaurant,True,17.9474605,102.628176,,Vientiane,+85 62 0558 63686,,,,restaurant,,,,,1,4,3,+2 tourism category ; +2 phone,
osm:13189913232,,osm,True Blue Coffee Brewers,,,cafe,cafe,True,17.8751519,102.7412464,,,+66891335456,,,,cafe,,,,,1,4,3,+2 tourism category ; +2 phone,
osm:13364025692,,osm,ຟິວ ແຄັມ ຮ້ານອາຫານ ແລະ ຄາເຟ,,,restaurant,restaurant,True,17.9420201,102.6342096,,"1380, ຮ່ອມ44, ບ້ານໂພນປ່າເປົ້າ, 10300",+8562098446566,,,,restaurant,,,,,1,4,3,+2 tourism category ; +2 phone,
osm:13413069904,,osm,On The Board Cafe,,,cafe,cafe,True,17.8690296,102.7281426,,"654, Thanon Mittraphap, Tambon Mi Chai, Amphoe Mueang Nong Khai, Chang Wat Nong Khai, 43000",+66 94 308 6226,,,,cafe,,,,,1,4,3,+2 tourism category ; +2 phone,
osm:319266546,,osm,Pantawee Hotel,,,hotel,hotel,False,,,,,+66 42411568,,,,hotel,,,,,1,4,3,+2 tourism category ; +2 phone,
osm:551525101,,osm,Daovone Lap,,,restaurant,restaurant,True,,,,,+856 20 55509623,,,,restaurant,,,,,1,4,3,+2 tourism category ; +2 phone,
osm:629209100,,osm,,,CK Mansion Nongkhai,hotel,hotel,False,,,,,+6642411224,,,,hotel,,,,,1,4,3,+2 tourism category ; +2 phone,
osm:629209103,,osm,,,Crystal Nongkhai Hotel,hotel,hotel,False,,,,,+66818522528,,,,hotel,,,,,1,4,3,+2 tourism category ; +2 phone,
osm:629211731,,osm,Iyara Hotel,,,hotel,hotel,False,,,,,+66638018218,,,,hotel,,,,,1,4,3,+2 tourism category ; +2 phone,
osm:629214156,,osm,โรงแรมอัศวรรณ,,Asawann Hotel,hotel,hotel,False,,,,,+6642464514,,,,hotel,,,,,1,4,3,+2 tourism category ; +2 phone,
osm:651640871,,osm,Khrua Boonchoo,,,restaurant,restaurant,True,,,,,6642420024,,,,restaurant,,,,,1,4,3,+2 tourism category ; +2 phone,
osm:1123468849,,osm,Tanzeno Hotel,,,hotel,hotel,False,,,,,6642467080,,,,hotel,,,,,1,4,3,+2 tourism category ; +2 phone,
osm:1125780770,,osm,Vieng Nem Neung,,Vieng Nem Neung,restaurant,restaurant,True,,,,,+856 20 77 534 068,,,,restaurant,,,,,1,4,3,+2 tourism category ; +2 phone,
osm:1445219049,,osm,โรงแรม อมันตา,โรงแรม อมันตา,Amanta Hotel,hotel,hotel,False,,,,,+66 42 412 899,,,,hotel,,,,,1,4,3,+2 tourism category ; +2 phone,
osm:1465314964,,osm,Ban Moon,,,restaurant,restaurant,True,17.9496822,102.622256,,,,,banmoonvte@live.com,,restaurant,,,,,1,3,2,+2 tourism category ; +1 email,
osm:3476700780,,osm,Starbucks,สตาร์บัคส์,Starbucks Coffee,coffee,coffee,False,17.8715154,102.7428467,,,,https://www.starbucks.com/,,,coffee,,,,,0,3,2,+3 real website,
osm:4515308998,,osm,,,Comme chez soi Vientiane,guest_house,guest_house,False,17.9483101,102.6382326,,"123, Phonpapao Road, 856",,,ccslao@icloud.com,,guest_house,,,,,1,3,2,+2 tourism category ; +1 email,
osm:4601466792,,osm,,,2024 Cafe,cafe,cafe,True,17.8291188,102.6520175,,"Thinphia 11/118, Sitharntai Road, Route 13th Thinphia",,,nouk_24@hotmail.com,,cafe,,,,,1,3,2,+2 tourism category ; +1 email,
osm:4601469290,,osm,,,2024,cafe,cafe,True,17.829151,102.651923,,"11/118, sitharntai road, thinphia route 13",,,nouk_24@hotmail.com,,cafe,,,,,1,3,2,+2 tourism category ; +1 email,
osm:4601472894,,osm,,,2024 Restaurant,restaurant,restaurant,True,17.844582,102.632885,,"15/162, phosy 1st route",,,nouk_24@hotmail.com,,restaurant,,,,,1,3,2,+2 tourism category ; +1 email,
osm:4611190452,,osm,Manee Spa,,,massage,massage,False,17.9350621,102.6266018,,"17, ບ້ານ ທົ່ງກາງ ຮ່ອມ 10",+856 21 353207,,maneespalao@yahoo.com,,massage,,,,,0,3,2,+2 phone ; +1 email,
osm:485745003,,osm,Hooder,,,fast_food,fast_food,True,17.946094,102.6241707,,,,,,,fast_food,,,,,1,2,1,+2 tourism category,
osm:493000575,,osm,La Scala,,La Scala,restaurant,restaurant,True,17.9445182,102.619146,,,,,,,restaurant,,,,,1,2,1,+2 tourism category,
osm:512440197,,osm,Buffet Donechanh,,Buffet Donechanh,restaurant,restaurant,True,17.9493379,102.6191673,,,,,,,restaurant,,,,,1,2,1,+2 tourism category,
osm:512440203,,osm,Rainbow,,Rainbow,restaurant,restaurant,True,17.9471285,102.6197815,,,,,,,restaurant,,,,,1,2,1,+2 tourism category,
osm:513607012,,osm,Liao-Ning Dumpling 2,,Liao-Ning Dumpling 2,restaurant,restaurant,True,17.9381247,102.6267012,,,,,,,restaurant,,,,,1,2,1,+2 tourism category,
osm:513607014,,osm,Ping Pet Sekaman,,Ping Pet Sekaman,restaurant,restaurant,True,17.9440608,102.6264281,,,,,,,restaurant,,,,,1,2,1,+2 tourism category,
osm:513607016,,osm,Jenny,,Jenny,restaurant,restaurant,True,17.9455909,102.6244617,,,,,,,restaurant,,,,,1,2,1,+2 tourism category,
osm:513607018,,osm,Love Life,,,cafe,cafe,True,17.9471399,102.6242232,,,,,,,cafe,,,,,1,2,1,+2 tourism category,
osm:513632454,,osm,Annivong 1,,Annivong 1,guest_house,guest_house,False,17.9485445,102.6198041,,,,,,,guest_house,,,,,1,2,1,+2 tourism category,
osm:513638535,,osm,Restaurant Km 4,,Restaurant Km 4,restaurant,restaurant,True,17.9328818,102.61624,,,,,,,restaurant,,,,,1,2,1,+2 tourism category,
osm:513638536,,osm,Mekong Restaurant,,Mekong Restaurant,restaurant,restaurant,True,17.9320978,102.6162572,,,,,,,restaurant,,,,,1,2,1,+2 tourism category,
osm:540097633,,osm,ຮ້ານອາຫານ ໂຕ່ໂນ້,,Tono,restaurant,restaurant,True,17.9387897,102.6333676,,,,,,,restaurant,,,,,1,2,1,+2 tourism category,
osm:540225339,,osm,ປີ່ງຫມູຈັນມາລີ,,Chanmaly BBQ pork,restaurant,restaurant,True,17.9443721,102.6306387,,,,,,,restaurant,,,,,1,2,1,+2 tourism category,
osm:617425834,,osm,Lake View,,Lake View,restaurant,restaurant,True,17.9497634,102.620134,,,,,,,restaurant,,,,,1,2,1,+2 tourism category,
osm:617667563,,osm,Heuang Vilay,,Heuang Vilay,guest_house,guest_house,False,17.9442634,102.6265919,,,,,,,guest_house,,,,,1,2,1,+2 tourism category,
osm:617667632,,osm,Khuanchai,,Khuanchai ຂວັນໃຈ,restaurant,restaurant,True,17.9445935,102.6442736,,,,,,,restaurant,,,,,1,2,1,+2 tourism category,
osm:617667705,,osm,Kung Pao T4,,Kung Pao T4,restaurant,restaurant,True,17.9473399,102.6436827,,,,,,,restaurant,,,,,1,2,1,+2 tourism category,
osm:617667706,,osm,Pa Nam Kong,,Pa Nam Kong,restaurant,restaurant,True,17.9470644,102.6436564,,,,,,,restaurant,,,,,1,2,1,+2 tourism category,
osm:617667711,,osm,Phon Pa Pao,,Phon Pa Pao,restaurant,restaurant,True,17.9481272,102.6435594,,,,,,,restaurant,,,,,1,2,1,+2 tourism category,
osm:617667713,,osm,T-4 Sne Khemtong,,T-4 Sne Khemtong,restaurant,restaurant,True,17.9489023,102.6434802,,,,,,,restaurant,,,,,1,2,1,+2 tourism category,
osm:621895279,,osm,,,,cafe,cafe,True,17.8019184,102.7622179,,,,,,,cafe,,,,,1,2,1,+2 tourism category,
osm:647813969,,osm,Jo Anne Garden,,Jo Anne Garden,restaurant,restaurant,True,17.9110702,102.6220694,,,,,,,restaurant,,,,,1,2,1,+2 tourism category,
osm:647814011,,osm,Noodle Shop,,,restaurant,restaurant,True,17.9184118,102.6195636,,,,,,,restaurant,,,,,1,2,1,+2 tourism category,
osm:647814013,,osm,Annana,,Annana,restaurant,restaurant,True,17.9087256,102.6238249,,,,,,,restaurant,,,,,1,2,1,+2 tourism category,
osm:647814074,,osm,Pinky Beef Pot,,Pinky Beef Pot,restaurant,restaurant,True,17.9198617,102.6190579,,,,,,,restaurant,,,,,1,2,1,+2 tourism category,
osm:647814090,,osm,Alex Beef Pot,,,restaurant,restaurant,True,17.9221767,102.6181197,,,,,,,restaurant,,,,,1,2,1,+2 tourism category,
osm:647814118,,osm,ແອນນາ ປີເງເປັດ,,Anna Grilled Duck,restaurant,restaurant,True,17.9343328,102.6198039,,,,,,,restaurant,,,,,1,2,1,+2 tourism category,
osm:647814122,,osm,Europe,,Europe,restaurant,restaurant,True,17.9347044,102.6197917,,,,,,,restaurant,,,,,1,2,1,+2 tourism category,
osm:652443123,,osm,Sivilay,,Sivilay,restaurant,restaurant,True,17.8721936,102.668326,,,,,,,restaurant,,,,,1,2,1,+2 tourism category,
osm:652443737,,osm,Mitthaphap Hotel,,Mitthaphap Hotel,hotel,hotel,False,17.8726734,102.6646852,,,,,,,hotel,,,,,1,2,1,+2 tourism category,
osm:786495430,,osm,?,,,restaurant,restaurant,True,17.9495842,102.627902,,,,,,,restaurant,,,,,1,2,1,+2 tourism category,
osm:919838624,,osm,Ruanthai GH,,,guest_house,guest_house,False,17.8843012,102.7445696,,,,,,,guest_house,,,,,1,2,1,+2 tourism category,
osm:919886589,,osm,,,,guest_house,guest_house,False,17.88397,102.74478,,,,,,,guest_house,,,,,1,2,1,+2 tourism category,
osm:1111315302,,osm,Pikul Apartments,,,guest_house,guest_house,False,17.8826145,102.7448804,,,,,,,guest_house,,,,,1,2,1,+2 tourism category,
osm:1111315304,,osm,Khiang Khong,,,guest_house,guest_house,False,17.8841103,102.7446175,,,,,,,guest_house,,,,,1,2,1,+2 tourism category,
osm:1111315305,,osm,,,,restaurant,restaurant,True,17.8844014,102.7443445,,,,,,,restaurant,,,,,1,2,1,+2 tourism category,
osm:1111328363,,osm,New York Bistro,,,restaurant,restaurant,True,17.8975336,102.7677119,,,,,,,restaurant,,,,,1,2,1,+2 tourism category,
osm:1111328364,,osm,Rudi's Bakery,,,restaurant,restaurant,True,17.882484,102.7396316,,,,,,,restaurant,,,,,1,2,1,+2 tourism category,
osm:1198165249,,osm,ຮ້ານ ເຈຕຸ້ຍ,,,fast_food,fast_food,True,17.9390316,102.6259081,,,,,,,fast_food,,,,,1,2,1,+2 tourism category,
osm:1199630287,,osm,,,,restaurant,restaurant,True,17.875061,102.6521032,,,,,,,restaurant,,,,,1,2,1,+2 tourism category,
osm:1199646854,,osm,ຮ້ານເຝີ,,,restaurant,restaurant,True,17.8745216,102.6519983,,,,,,,restaurant,,,,,1,2,1,+2 tourism category,
osm:1199646862,,osm,ຮ້າເຝີນາງມຸນທາ ສາລາຄໍາໃຕ້,,Mountha noodle,restaurant,restaurant,True,17.8760057,102.6517009,,,,,,,restaurant,,,,,1,2,1,+2 tourism category,
osm:1199646867,,osm,ຮ້ານອາຫານຄໍາພະຈັນ,,,restaurant,restaurant,True,17.8750663,102.6520978,,,,,,,restaurant,,,,,1,2,1,+2 tourism category,
osm:1316172295,,osm,Paris Cocktail,,,bar,bar,True,17.9496926,102.6191763,,,,,,,bar,,,,,1,2,1,+2 tourism category,
osm:1465314969,,osm,Souksavanh Guesthouse,,,guest_house,guest_house,False,17.9489703,102.6206592,,,,,,,guest_house,,,,,1,2,1,+2 tourism category,
osm:1790963090,,osm,ໂຮງອາຫານ,,Food Court,restaurant,restaurant,True,17.9410573,102.625367,,,,,,,restaurant,,,,,1,2,1,+2 tourism category,
osm:1790963102,,osm,,,,fast_food,fast_food,True,17.9405776,102.6243424,,,,,,,fast_food,,,,,1,2,1,+2 tourism category,
osm:2142661984,,osm,Sawasdee Guesthouse,,,hotel,hotel,False,17.8854965,102.7510054,,,,,,,hotel,,,,,1,2,1,+2 tourism category,
osm:2142666429,,osm,Esan Guesthouse,,,hotel,hotel,False,17.8861349,102.7507922,,,,,,,hotel,,,,,1,2,1,+2 tourism category,
osm:2257644015,,osm,Gaia,,,bar,bar,True,17.883982,102.741589,,,,,,,bar,,,,,1,2,1,+2 tourism category,
osm:2257716895,,osm,Mekong Riverside,,,guest_house,guest_house,False,17.8804083,102.7299428,,,,,,,guest_house,,,,,1,2,1,+2 tourism category,
osm:2263730825,,osm,Mariam,,,restaurant,restaurant,True,17.8814965,102.7466941,,,,,,,restaurant,,,,,1,2,1,+2 tourism category,
osm:2263749535,,osm,Siri Guest House,,,guest_house,guest_house,False,17.8829533,102.7424741,,,,,,,guest_house,,,,,1,2,1,+2 tourism category,
osm:2263941684,,osm,,,,fast_food,fast_food,True,17.9129359,102.7646306,,,,,,,fast_food,,,,,1,2,1,+2 tourism category,
osm:2263941691,,osm,,,,restaurant,restaurant,True,17.9123846,102.764231,,,,,,,restaurant,,,,,1,2,1,+2 tourism category,
osm:2282036036,,osm,Cafe Bar Hemingway,,,cafe,cafe,True,17.8751049,102.7153691,,,,,,,cafe,,,,,1,2,1,+2 tourism category,
osm:2282041591,,osm,Nagarina,,,restaurant,restaurant,True,17.884061,102.7418216,,,,,,,restaurant,,,,,1,2,1,+2 tourism category,
osm:2389099407,,osm,ລຳເນົາສີງໂຕ,,Lamnaosingto,restaurant,restaurant,True,17.9029251,102.6297317,,,,,,,restaurant,,,,,1,2,1,+2 tourism category,
osm:2389100083,,osm,ບ້ານພັກ ດາວັນ,,Davun​ Guest​house,guest_house,guest_house,False,17.9047627,102.6308717,,,,,,,guest_house,,,,,1,2,1,+2 tourism category,
osm:2389158307,,osm,ຮ້ານເພື່ອໃຈ,,,restaurant,restaurant,True,17.9044704,102.6544176,,,,,,,restaurant,,,,,1,2,1,+2 tourism category,
osm:2396690571,,osm,เวียงทองรีสอร์ท,เวียงทองรีสอร์ท,Wiang Thong Resort,guest_house,guest_house,False,17.8182515,102.7587426,,,,,,,guest_house,,,,,1,2,1,+2 tourism category,
osm:2397809319,,osm,ร้านอาหารครัวชมโขง,ร้านอาหารครัวชมโขง,Kruechomkong Food&Drink,restaurant,restaurant,True,17.8861639,102.7495072,,,,,,,restaurant,,,,,1,2,1,+2 tourism category,
osm:2397811924,,osm,อุดมรส,อุดมรส,Udom Rot,restaurant,restaurant,True,17.8853096,102.7471259,,,,,,,restaurant,,,,,1,2,1,+2 tourism category,
osm:2397812511,,osm,บ้านริมน้ำ,บ้านริมน้ำ,Ban Maerim Nam,guest_house,guest_house,False,17.8850894,102.7465641,,,,,,,guest_house,,,,,1,2,1,+2 tourism category,
osm:2397815388,,osm,Mekong Guesthouse,,,guest_house,guest_house,False,17.8848017,102.7457797,,,,,,,guest_house,,,,,1,2,1,+2 tourism category,
osm:2397815389,,osm,Rimkong Guesthouse,,,guest_house,guest_house,False,17.8840493,102.7437025,,,,,,,guest_house,,,,,1,2,1,+2 tourism category,
osm:2397815390,,osm,Sabaidee Guesthouse,,,guest_house,guest_house,False,17.8848695,102.7459387,,,,,,,guest_house,,,,,1,2,1,+2 tourism category,
osm:2397815391,,osm,ครัวบ้านโต้ง's,ครัวบ้านโต้ง's,Khrua Ban Tong's,restaurant,restaurant,True,17.88424,102.7439631,,,,,,,restaurant,,,,,1,2,1,+2 tourism category,
osm:2608719109,,osm,Sole,,,restaurant,restaurant,True,17.9229198,102.6178743,,,,,,,restaurant,,,,,1,2,1,+2 tourism category,
osm:3157461896,,osm,Cake at Toeys,,,cafe,cafe,True,17.8832829,102.7445196,,,,,,,cafe,,,,,1,2,1,+2 tourism category,
osm:3157461906,,osm,The Danish Baker,,,cafe,cafe,True,17.8836329,102.7455516,,,,,,,cafe,,,,,1,2,1,+2 tourism category,
osm:3544689569,,osm,Watnak Massage,,,massage,massage,False,17.9354241,102.6199052,,,+8562055524545,,,,massage,,,,,0,2,1,+2 phone,
osm:3544691522,,osm,Vientiane Garden Service d,,,hotel,hotel,False,17.9306335,102.6534042,,,,,,,hotel,,,,,1,2,1,+2 tourism category,
osm:3592923507,,osm,Snow Beer,,,restaurant,restaurant,True,17.9368693,102.6239788,,,,,,,restaurant,,,,,1,2,1,+2 tourism category,
osm:3599757762,,osm,Chormphet ping pet zaep,,,restaurant,restaurant,True,17.9142105,102.6240305,,,,,,,restaurant,,,,,1,2,1,+2 tourism category,
osm:3607405611,,osm,Aloha Pizza,,,fast_food,fast_food,True,17.9186717,102.619899,,,,,,,fast_food,,,,,1,2,1,+2 tourism category,
osm:3612516346,,osm,HHI Apartment,,,hotel,hotel,False,17.9429315,102.6252696,,,,,,,hotel,,,,,1,2,1,+2 tourism category,
osm:3614687060,,osm,ສູນອອກກຳລັງກາຍ,,Happiness Gym,sports_centre,sports_centre,False,17.9234774,102.6176603,,,+856 20 56688987,,,,sports_centre,,,,,0,2,1,+2 phone,
osm:3635571816,,osm,Nongda,,,restaurant,restaurant,True,17.8854762,102.7175517,,,,,,,restaurant,,,,,1,2,1,+2 tourism category,
osm:3645512684,,osm,ຮ້ານ ປີ້ງຫູໝູ,,Pork Grill,restaurant,restaurant,True,17.9428329,102.629557,,,,,,,restaurant,,,,,1,2,1,+2 tourism category,
osm:3667202296,,osm,Skills Café,,,cafe,cafe,True,17.9131609,102.6198989,,,,,,,cafe,,,,,1,2,1,+2 tourism category,
osm:3667494461,,osm,Batman Pub,,,bar,bar,True,17.9079397,102.6609991,,,,,,,bar,,,,,1,2,1,+2 tourism category,
osm:3682273858,,osm,,,,restaurant,restaurant,True,17.9149126,102.6170637,,,,,,,restaurant,,,,,1,2,1,+2 tourism category,
osm:3708762766,,osm,Victory Café,,,cafe,cafe,True,17.9313871,102.6179043,,,,,,,cafe,,,,,1,2,1,+2 tourism category,
osm:3714967825,,osm,ຮ້ານ ປິ່ນຄຳ,,,hardware,hardware,False,17.9170025,102.6195028,,,+856 20 23888875,,,,hardware,,,,,0,2,1,+2 phone,
osm:3733839143,,osm,Tribal Park,,,museum,museum,False,17.882377,102.7044353,,,,,,,museum,,,,,1,2,1,+2 tourism category,
osm:3748716234,,osm,Jinny,,,cafe,cafe,True,17.9092065,102.6219287,,,,,,,cafe,,,,,1,2,1,+2 tourism category,
osm:3752317809,,osm,Baan Tonmali Cake,,,cafe,cafe,True,17.9444227,102.6416506,,Phonpapao Road,,,,,cafe,,,,,1,2,1,+2 tourism category,
osm:3770122196,,osm,Pool sub hotel,,,hotel,hotel,False,17.8835233,102.7451136,,,,,,,hotel,,,,,1,2,1,+2 tourism category,
osm:3945140814,,osm,True Coffee,,,cafe,cafe,True,17.9396972,102.6189311,,,,,,,cafe,,,,,1,2,1,+2 tourism category,
osm:3945140970,,osm,Miyazaki,,,restaurant,restaurant,True,17.9397633,102.61893,,Lao-Thai Road,,,,,restaurant,,,,,1,2,1,+2 tourism category,
osm:3973669829,,osm,Sabaidee,,,restaurant,restaurant,True,17.9113775,102.6201437,,,,,,,restaurant,,,,,1,2,1,+2 tourism category,
osm:3979768690,,osm,,,,restaurant,restaurant,True,17.9447014,102.6364499,,,,,,,restaurant,,,,,1,2,1,+2 tourism category,
osm:4021793777,,osm,,,Inpeng,nightclub,nightclub,False,17.9268832,102.6518104,,,,,,,nightclub,,,,,1,2,1,+2 tourism category,
osm:4021794000,,osm,,,Inpeng Resort,hotel,hotel,False,17.9267525,102.652684,,,,,,,hotel,,,,,1,2,1,+2 tourism category,
osm:4021794003,,osm,,,Saaihong Henbai,fast_food,fast_food,True,17.9472768,102.6242163,,,,,,,fast_food,,,,,1,2,1,+2 tourism category,
osm:4021794274,,osm,,,Love Life,ice_cream,ice_cream,False,17.9471713,102.6240832,,,,,,,ice_cream,,,,,1,2,1,+2 tourism category,
osm:4113608990,,osm,Ton Khao,,,pub,pub,True,17.9041811,102.663163,,ຖະໜົນ ດົງຄຳຊ້າງ,,,,,pub,,,,,1,2,1,+2 tourism category,
osm:4156676589,,osm,Cafe Chicco D'Oro Nongkhai,,,cafe,cafe,True,17.891525,102.76166,,,,,,,cafe,,,,,1,2,1,+2 tourism category,
osm:4160293191,,osm,ก๋วยเตี๋ยว(เฝอ)บรรเทิงจิต,,,restaurant,restaurant,True,17.8836632,102.7463837,,ถนนบรรเทิงจิต,,,,,restaurant,,,,,1,2,1,+2 tourism category,
osm:4160293192,,osm,ร้านทานตะวัน,,,restaurant,restaurant,True,17.8832288,102.7500907,,Prajak Sillapakhom,,,,,restaurant,,,,,1,2,1,+2 tourism category,
osm:4204317150,,osm,ສິໜຸກ,,Sinouk,cafe,cafe,True,17.9484165,102.6194024,,no,,,,,cafe,,,,,1,2,1,+2 tourism category,
osm:4223010111,,osm,,,Nang Chintama,beverages,beverages,False,17.9025585,102.6274473,,,+856 21 353791,,,,beverages,,,,,0,2,1,+2 phone,
osm:4242314693,,osm,ເຮືອນພັກປະສິດທິໂຊກ,,,hotel,hotel,False,17.9098754,102.6622413,,,,,,,hotel,,,,,1,2,1,+2 tourism category,
osm:4261846390,,osm,Coffee Talk,,,cafe,cafe,True,17.8822689,102.7477517,,,,,,,cafe,,,,,1,2,1,+2 tourism category,
osm:4261852889,,osm,วุ้นเดือนเพ็ญ,,,restaurant,restaurant,True,17.8786604,102.7408415,,,,,,,restaurant,,,,,1,2,1,+2 tourism category,
osm:4261864089,,osm,Lamun Coffee,,,cafe,cafe,True,17.8723249,102.7436933,,,,,,,cafe,,,,,1,2,1,+2 tourism category,
osm:4263746289,,osm,ดีดี โภชนาการ,,Dee Dee Pohchanah,restaurant,restaurant,True,17.8809688,102.7455176,,,,,,,restaurant,,,,,1,2,1,+2 tourism category,
osm:4263746290,,osm,Beyond cafe,,,cafe,cafe,True,17.8802996,102.7442874,,,,,,,cafe,,,,,1,2,1,+2 tourism category,
osm:4267981294,,osm,ชาพะยอม,,,cafe,cafe,True,17.8814543,102.7463174,,,,,,,cafe,,,,,1,2,1,+2 tourism category,
osm:4270699403,,osm,ต้นรัก รีสอร์ท,,,hotel,hotel,False,17.8727736,102.7744409,,,,,,,hotel,,,,,1,2,1,+2 tourism category,
osm:4355681289,,osm,Macky's riverside kitchen,,,restaurant,restaurant,True,17.8851326,102.7462219,,,,,,,restaurant,,,,,1,2,1,+2 tourism category,
osm:4356754989,,osm,Welcome bar,,,bar,bar,True,17.8817249,102.7472972,,,,,,,bar,,,,,1,2,1,+2 tourism category,
osm:4370447290,,osm,เต่า,เต่า,,restaurant,restaurant,True,17.8907673,102.7592965,,,,,,,restaurant,,,,,1,2,1,+2 tourism category,
osm:4411511666,,osm,ສີໜຸກ,,Sinouk,cafe,cafe,True,17.9433762,102.6264957,,,,,,,cafe,,,,,1,2,1,+2 tourism category,
osm:4441652489,,osm,ควคูน้อง,ควคูน้อง,Kuakounong,restaurant,restaurant,True,17.8863068,102.7493698,,,,,,,restaurant,,,,,1,2,1,+2 tourism category,
osm:4492554723,,osm,ລ້ຳລວຍ,,Lamlouai,restaurant,restaurant,True,17.9425957,102.6274381,,,,,,,restaurant,,,,,1,2,1,+2 tourism category,
osm:4518520309,,osm,The Jukebox,,,restaurant,restaurant,True,17.9242823,102.6200692,,,,,,,restaurant,,,,,1,2,1,+2 tourism category,
osm:4568885790,,osm,เฮือนมิตรภาพ,เฮือนมิตรภาพ,Huenmittaphap,alcohol,alcohol,False,17.8782727,102.7360449,,ถนนมีชัย,0934655949,,,,alcohol,,,,,0,2,1,+2 phone,
osm:4581630189,,osm,Mounty 2,มูนตี 2,Mounty 2,hotel,hotel,False,17.8989755,102.6368113,,"ທະຫນົນທ່າເດື່ອ, 010110",,,,,hotel,,,,,1,2,1,+2 tourism category,
osm:4620068672,,osm,In Café,,,bar,bar,True,17.936792,102.6200538,,,,,,,bar,,,,,1,2,1,+2 tourism category,
osm:4655109489,,osm,Barn Suan 112,,,fast_food,fast_food,True,17.9384764,102.6277909,,,,,,,fast_food,,,,,1,2,1,+2 tourism category,
osm:4672265824,,osm,ລານເບຍ,,The Pavilion,pub,pub,True,17.9252063,102.6485534,,,,,,,pub,,,,,1,2,1,+2 tourism category,
osm:4680969591,,osm,VR1 nong khai,VR1 nong khai,,restaurant,restaurant,True,17.8769245,102.7373004,,,,,,,restaurant,,,,,1,2,1,+2 tourism category,
osm:4698375182,,osm,หนองคาย รีสอร์ท,,Nongkhai Resort,hotel,hotel,False,17.8653696,102.731592,,,,https://www.facebook.com/NongkhaiResort/,,,hotel,,,,,1,2,1,+2 tourism category,
osm:4698413561,,osm,คาเฟ่ อเมซอน,คาเฟ่ อเมซอน,Café Amazon,cafe,cafe,True,17.8600816,102.7504651,,,,,,,cafe,,,,,1,2,1,+2 tourism category,
osm:4712666792,,osm,,,,restaurant,restaurant,True,17.864771,102.7316973,,,,,,,restaurant,,,,,1,2,1,+2 tourism category,
osm:4712687089,,osm,,,,restaurant,restaurant,True,17.8651157,102.7313311,,,,,,,restaurant,,,,,1,2,1,+2 tourism category,
osm:4721456597,,osm,ເຮືອນທ່ານ ທິລະກອນ ປັນຍານຸວົງ,,,guest_house,guest_house,False,17.9477741,102.6247596,,,,,,,guest_house,,,,,1,2,1,+2 tourism category,
osm:4780222736,,osm,New Lamnao,,,restaurant,restaurant,True,17.9032118,102.6292594,,,,,,,restaurant,,,,,1,2,1,+2 tourism category,
osm:4817326244,,osm,,,Noel's Place,bar,bar,True,17.8699338,102.7522694,,,,,,,bar,,,,,1,2,1,+2 tourism category,
osm:4891088227,,osm,,,Pekno,restaurant,restaurant,True,17.9424032,102.6184303,,,,,,,restaurant,,,,,1,2,1,+2 tourism category,
osm:4907245325,,osm,Café Syavone,,Café Syavone,cafe,cafe,True,17.9351815,102.6256403,,,,,,,cafe,,,,,1,2,1,+2 tourism category,
osm:4914106521,,osm,,,Shabuu indee,restaurant,restaurant,True,17.8790144,102.7263814,,,,,,,restaurant,,,,,1,2,1,+2 tourism category,
osm:4916274106,,osm,Tawan Café,,,cafe,cafe,True,17.9350676,102.6252478,,,,,,,cafe,,,,,1,2,1,+2 tourism category,
osm:4923405119,,osm,Basik Café,,,cafe,cafe,True,17.9339481,102.6169105,,,,,,,cafe,,,,,1,2,1,+2 tourism category,
osm:4986976389,,osm,ອາຊີ້ ຫູລະທລາມ,,,restaurant,restaurant,True,17.9395802,102.6328346,,,,,,,restaurant,,,,,1,2,1,+2 tourism category,
osm:5058223027,,osm,Tummix,,Tummix,bar,bar,True,17.9481974,102.6195297,,,,,,,bar,,,,,1,2,1,+2 tourism category,
osm:5076460321,,osm,Yunnan,,Yunnan,restaurant,restaurant,True,17.9400434,102.6272359,,,,,,,restaurant,,,,,1,2,1,+2 tourism category,
osm:5105449460,,osm,Gringo's Taco Bar,,,restaurant,restaurant,True,17.9452524,102.6241599,,,,,,,restaurant,,,,,1,2,1,+2 tourism category,
osm:5149718622,,osm,,,Na Rim Khong River View,hotel,hotel,False,17.8854154,102.7472547,,,,,,,hotel,,,,,1,2,1,+2 tourism category,
osm:5179313824,,osm,,,ເຮືອນເອື້ອຍ ເຢ່,guest_house,guest_house,False,17.879584,102.6445386,,ທະໝົນ ທ່າເດື່ອ,,,,,guest_house,,,,,1,2,1,+2 tourism category,
osm:5199163979,,osm,ແວ່ ມາ ສິມ,,Wae Ma Zim,restaurant,restaurant,True,17.9350215,102.6205028,,,,,,,restaurant,,,,,1,2,1,+2 tourism category,
osm:5201884746,,osm,Café Amazon,,,cafe,cafe,True,17.9486818,102.6197803,,,,,,,cafe,,,,,1,2,1,+2 tourism category,
osm:5201886062,,osm,ສາມເກົ້າ 999,,,restaurant,restaurant,True,17.9434476,102.6268632,,,,,,,restaurant,,,,,1,2,1,+2 tourism category,
osm:5223287215,,osm,Romantic City,,,restaurant,restaurant,True,17.9384639,102.6234215,,,,,,,restaurant,,,,,1,2,1,+2 tourism category,
osm:5226561898,,osm,ຮ້ານປິ້ງເປັດປາກເຊ,,Pakse Grilled Duck,restaurant,restaurant,True,17.9080381,102.6193396,,,,,,,restaurant,,,,,1,2,1,+2 tourism category,
osm:5232423273,,osm,Kobe,,,restaurant,restaurant,True,17.9430084,102.6295135,,,,,,,restaurant,,,,,1,2,1,+2 tourism category,
osm:5232462622,,osm,ຮ້ານປິ້ງແບ້ຄຳຜົງ,,Khamphong Grill Goat,restaurant,restaurant,True,17.9461649,102.6239733,,Sokpaluang,,,,,restaurant,,,,,1,2,1,+2 tourism category,
osm:5234305922,,osm,,,,restaurant,restaurant,True,17.885287,102.7546595,,,,,,,restaurant,,,,,1,2,1,+2 tourism category,
osm:5235854622,,osm,ຮ້ານແຂກ ຫລວງພະບາງ,,Louangphabang Noodle,restaurant,restaurant,True,17.9126792,102.6489801,,,,,,,restaurant,,,,,1,2,1,+2 tourism category,
osm:5236534221,,osm,,,Mookmil Restaurant,restaurant,restaurant,True,17.9088985,102.6527359,,,,,,,restaurant,,,,,1,2,1,+2 tourism category,
osm:5270103871,,osm,พันล้าน,,Panlaan Resort,hotel,hotel,False,17.8667367,102.7183359,,,,,,,hotel,,,,,1,2,1,+2 tourism category,
osm:5304322721,,osm,,,cà phê viêt,restaurant,restaurant,True,17.8859622,102.7485094,,,,,,,restaurant,,,,,1,2,1,+2 tourism category,
osm:5307661921,,osm,,,Yuzu,restaurant,restaurant,True,17.9494025,102.6435357,,,,,,,restaurant,,,,,1,2,1,+2 tourism category,
osm:5329008221,,osm,,,Food Stalls Court,restaurant,restaurant,True,17.8810601,102.7428551,,,,,,,restaurant,,,,,1,2,1,+2 tourism category,
osm:5329700522,,osm,คาเฟ่ อเมซอน,คาเฟ่ อเมซอน,Café Amazon,cafe,cafe,True,17.8815868,102.7425276,,,,,,,cafe,,,,,1,2,1,+2 tourism category,
osm:5331109121,,osm,,,Doi Chaang,cafe,cafe,True,17.8835768,102.7508574,,,,,,,cafe,,,,,1,2,1,+2 tourism category,
osm:5360316424,,osm,,,Khaopoon Jeo Khing Pa Feuang,restaurant,restaurant,True,17.9012657,102.7571021,,,,,,,restaurant,,,,,1,2,1,+2 tourism category,
osm:5376975179,,osm,Home Coffee,,,fast_food,fast_food,True,17.9053774,102.6174981,,,,,,,fast_food,,,,,1,2,1,+2 tourism category,
osm:5421532589,,osm,ຕຳຟາ,,Tamfa,restaurant,restaurant,True,17.9283402,102.6167295,,,,,,,restaurant,,,,,1,2,1,+2 tourism category,
osm:5423953321,,osm,Ahaan Jai,,,restaurant,restaurant,True,17.8772961,102.7344764,,,,,,,restaurant,,,,,1,2,1,+2 tourism category,
osm:5424414525,,osm,Vegetarian-Vegan restaurant,,,restaurant,restaurant,True,17.8839188,102.7514003,,,,,,,restaurant,,,,,1,2,1,+2 tourism category,
osm:5433297724,,osm,Vegetarisches Restaurant,,,restaurant,restaurant,True,17.8862845,102.7547898,,,,,,,restaurant,,,,,1,2,1,+2 tourism category,
osm:5437419643,,osm,Zomview Restaurant,,,restaurant,restaurant,True,17.9366667,102.6256893,,,,,,,restaurant,,,,,1,2,1,+2 tourism category,
osm:5437420112,,osm,ຍອດລູກຊີ້ນ,,,fast_food,fast_food,True,17.9375099,102.6263153,,,,,,,fast_food,,,,,1,2,1,+2 tourism category,
osm:5455531359,,osm,Captain Jack Seafood Bar,,,restaurant,restaurant,True,17.9299708,102.6504465,,,,,,,restaurant,,,,,1,2,1,+2 tourism category,
osm:5474711831,,osm,Jing Joe,,,restaurant,restaurant,True,17.8816552,102.7473519,,"1128/1, Soi Nitapat, Nong Khai, 43000",,,,,restaurant,,,,,1,2,1,+2 tourism category,
osm:5476260730,,osm,,,Nang Chanthao Restaurant,restaurant,restaurant,True,17.9435555,102.6202771,,,,,,,restaurant,,,,,1,2,1,+2 tourism category,
osm:5476260735,,osm,ຮ້ານອາຫານຮາວູ,,Restaurant Hawoo,restaurant,restaurant,True,17.9391121,102.621339,,,,,,,restaurant,,,,,1,2,1,+2 tourism category,
osm:5529460558,,osm,The Pizza Company,เดอะ พิซซ่า คอมปะนี,,fast_food,fast_food,True,17.8718685,102.7427719,,,,,,,fast_food,,,,,1,2,1,+2 tourism category,
osm:5529460559,,osm,Pizza Hut,,,restaurant,restaurant,True,17.871808,102.7434987,,,,,,,restaurant,,,,,1,2,1,+2 tourism category,
osm:5533106224,,osm,,,ຮ້ານ ເຂົ້າປຸ້ນແຈ່ວຂີງ,restaurant,restaurant,True,17.893396,102.747271,,,,,,,restaurant,,,,,1,2,1,+2 tourism category,
osm:5559733821,,osm,,,Sweethome,guest_house,guest_house,False,17.9146065,102.653484,,,,,,,guest_house,,,,,1,2,1,+2 tourism category,
osm:5579550004,,osm,bky Fried Chicken,,,restaurant,restaurant,True,17.9488233,102.6197178,,,,,,,restaurant,,,,,1,2,1,+2 tourism category,
osm:5579808921,,osm,,,Kai’s Villa,apartment,apartment,False,17.9172199,102.6214571,,,,,,,apartment,,,,,1,2,1,+2 tourism category,
osm:5582703171,,osm,ໂຮງແຮມມິດຕະພາບ,,Friendship Hotel,hotel,hotel,False,17.87652,102.6654111,,,,,,,hotel,,,,,1,2,1,+2 tourism category,
osm:5625773127,,osm,,,Amazing café,cafe,cafe,True,17.8173892,102.6365438,,,,,,,cafe,,,,,1,2,1,+2 tourism category,
osm:5637339422,,osm,,,quan de,restaurant,restaurant,True,17.9165948,102.649427,,,,,,,restaurant,,,,,1,2,1,+2 tourism category,
osm:5647466721,,osm,,,quan de 1,restaurant,restaurant,True,17.9448625,102.6253922,,,,,,,restaurant,,,,,1,2,1,+2 tourism category,
osm:5654974221,,osm,,,Hawoo,restaurant,restaurant,True,17.9404088,102.6326608,,,,,,,restaurant,,,,,1,2,1,+2 tourism category,
osm:5657920921,,osm,ເຂົ້າປຸ້ນແຈ່ວຂີງ,เข้าปุ้นน้ำขิง บ้านห้อม,Khaopoon Jeokhing Lao Noodles,restaurant,restaurant,True,17.8329856,102.6402501,,,,,,,restaurant,,,,,1,2,1,+2 tourism category,
osm:5663311213,,osm,Café Z Lounge,,,cafe,cafe,True,17.9411326,102.6320521,,,,,,,cafe,,,,,1,2,1,+2 tourism category,
osm:5666559381,,osm,ນາຊະມ,,Nazim,restaurant,restaurant,True,17.9376794,102.6263565,,,,,,,restaurant,,,,,1,2,1,+2 tourism category,
osm:5740268221,,osm,,,cafe de Hat Kham,restaurant,restaurant,True,17.9268538,102.7833694,,,,,,,restaurant,,,,,1,2,1,+2 tourism category,
osm:5776344754,,osm,ຮ້ານອາຫານ ສັງທອງ,,Sangthong restaurant,restaurant,restaurant,True,17.8687779,102.6158551,,,,,,,restaurant,,,,,1,2,1,+2 tourism category,
osm:5836275976,,osm,Red Sit&Eat,,,restaurant,restaurant,True,17.9292055,102.6247734,,,,,,,restaurant,,,,,1,2,1,+2 tourism category,
osm:5852809784,,osm,Hug You,,,pub,pub,True,17.9046143,102.6532432,,,,,,,pub,,,,,1,2,1,+2 tourism category,
osm:5892851429,,osm,ຕຳຈອກ 2,,,pub,pub,True,17.925921,102.6251898,,,,,,,pub,,,,,1,2,1,+2 tourism category,
osm:5918181886,,osm,ຮ້ານວາດສະໜາ ປີ້ງເປັດຫຼັກ 14,,,bar,bar,True,17.8729387,102.6728024,,,,,,,bar,,,,,1,2,1,+2 tourism category,
osm:5934375686,,osm,คาเฟ่ อเมซอน,คาเฟ่ อเมซอน,Café Amazon,cafe,cafe,True,17.8717278,102.7422928,,,,,,,cafe,,,,,1,2,1,+2 tourism category,
osm:5934375687,,osm,Shabushi,,Shabushi,restaurant,restaurant,True,17.8726872,102.7423265,,,,,,,restaurant,,,,,1,2,1,+2 tourism category,
osm:5934410386,,osm,Yayoi,,,restaurant,restaurant,True,17.8720916,102.7425358,,,,,,,restaurant,,,,,1,2,1,+2 tourism category,
osm:5940201385,,osm,,,ເຮືອນໜ້າບ່າວທອງ,apartment,apartment,False,17.9049246,102.6617445,,,,,,,apartment,,,,,1,2,1,+2 tourism category,
osm:5940539150,,osm,ระเบียงแม่โขง,,,restaurant,restaurant,True,17.884871,102.7457865,,,,,,,restaurant,,,,,1,2,1,+2 tourism category,
osm:5941883676,,osm,Daydream,,,cafe,cafe,True,17.9367888,102.6356176,,,,,,,cafe,,,,,1,2,1,+2 tourism category,
osm:6022615725,,osm,ຮ້ານອາຫານ ຈີນາຍົເມ້,,Ginaiymo Cuisines,restaurant,restaurant,True,17.9101006,102.6207353,,,,,,,restaurant,,,,,1,2,1,+2 tourism category,
osm:6031488206,,osm,LK Chicken & Sweet,,,restaurant,restaurant,True,17.9420487,102.6316338,,,,,,,restaurant,,,,,1,2,1,+2 tourism category,
osm:6034504636,,osm,The Blue Diamond,,,cafe,cafe,True,17.9415054,102.6475865,,,,,,,cafe,,,,,1,2,1,+2 tourism category,
osm:6043176760,,osm,ບຸ ໂລຕີຊາຊັກ,,,fast_food,fast_food,True,17.9465731,102.6229694,,,,,,,fast_food,,,,,1,2,1,+2 tourism category,
osm:6054062262,,osm,,,,hotel,hotel,False,17.8683774,102.7270835,,,,,,,hotel,,,,,1,2,1,+2 tourism category,
osm:6054062263,,osm,,,,restaurant,restaurant,True,17.8678164,102.726235,,,,,,,restaurant,,,,,1,2,1,+2 tourism category,
osm:6054062264,,osm,,,,restaurant,restaurant,True,17.8682466,102.7270276,,,,,,,restaurant,,,,,1,2,1,+2 tourism category,
osm:6054085685,,osm,,,,cafe,cafe,True,17.8660557,102.7224839,,,,,,,cafe,,,,,1,2,1,+2 tourism category,
osm:6098758817,,osm,Gyeongbokgung,,Gyeongbokgung,restaurant,restaurant,True,17.9369992,102.6253634,,,,,,,restaurant,,,,,1,2,1,+2 tourism category,
osm:6098758818,,osm,BirdWalk Bar & Restaurant,,,restaurant,restaurant,True,17.942524,102.6201731,,,,,,,restaurant,,,,,1,2,1,+2 tourism category,
osm:6098758819,,osm,Amy Café,,,cafe,cafe,True,17.942884,102.6297313,,,,,,,cafe,,,,,1,2,1,+2 tourism category,
osm:6138546490,,osm,resort,,,hotel,hotel,False,17.8411661,102.7071699,,,,,,,hotel,,,,,1,2,1,+2 tourism category,
osm:6138549486,,osm,resort Nina,,,hotel,hotel,False,17.8577074,102.717396,,,,,,,hotel,,,,,1,2,1,+2 tourism category,
osm:6138575085,,osm,resort,,,hotel,hotel,False,17.8679412,102.7181875,,,,,,,hotel,,,,,1,2,1,+2 tourism category,
osm:6141948285,,osm,,,Rika,restaurant,restaurant,True,17.9002923,102.6342743,,ທະຫນົນທ່າເດື່ອ,,,,,restaurant,,,,,1,2,1,+2 tourism category,
osm:6145003411,,osm,Like Beer,,Like Beer,pub,pub,True,17.9286272,102.6171407,,,,,,,pub,,,,,1,2,1,+2 tourism category,
osm:6145003412,,osm,ຮ້ານອາຫານ 20000,,20000 Restaurant,restaurant,restaurant,True,17.9136064,102.6203003,,,,,,,restaurant,,,,,1,2,1,+2 tourism category,
osm:6148718987,,osm,,,Green oasis,guest_house,guest_house,False,17.9411079,102.6198509,,,,,,,guest_house,,,,,1,2,1,+2 tourism category,
osm:6193027286,,osm,MK Apartment,,MK Apartment,apartment,apartment,False,17.9454125,102.6379951,,,,,,,apartment,,,,,1,2,1,+2 tourism category,
osm:6205160678,,osm,ຄົວແມ່ບ້ານ,,Khua Mae Ban,restaurant,restaurant,True,17.8989024,102.6173776,,,,,,,restaurant,,,,,1,2,1,+2 tourism category,
osm:6209295285,,osm,Sinouk Café Pavilion,,Sinouk Café Pavilion,restaurant,restaurant,True,17.8931828,102.6422037,,ທະຫນົນທ່າເດື່ອ,,,,,restaurant,,,,,1,2,1,+2 tourism category,
osm:6213163785,,osm,,,Boonta Thai Massage,massage,massage,False,17.8865543,102.7509822,,,0926296941,,,,massage,,,,,0,2,1,+2 phone,
osm:6246350685,,osm,,,ເຮືອນດົງໂພນແຮ່,apartment,apartment,False,17.9268522,102.7240135,,,,,,,apartment,,,,,1,2,1,+2 tourism category,
osm:6320180885,,osm,,,DaLinh Restaurant,restaurant,restaurant,True,17.922897,102.6222734,,,,,,,restaurant,,,,,1,2,1,+2 tourism category,
osm:6418905385,,osm,,,Dao the Cafe @BanKang,cafe,cafe,True,17.8840101,102.6107258,,ຮ່ອມ 9,,,,,cafe,,,,,1,2,1,+2 tourism category,
osm:6440092487,,osm,,,ເຮືອນ Happy,apartment,apartment,False,17.8740473,102.6394874,,,,,,,apartment,,,,,1,2,1,+2 tourism category,
osm:6447948094,,osm,,,,attraction,attraction,False,17.8808462,102.7451361,,,,,,,attraction,,,,,1,2,1,+2 tourism category,
osm:6468988385,,osm,,,,fast_food,fast_food,True,17.9263779,102.6466237,,,,,,,fast_food,,,,,1,2,1,+2 tourism category,
osm:6474233985,,osm,,,Karate Cafe 555,restaurant,restaurant,True,17.945331,102.6296658,,,,,,,restaurant,,,,,1,2,1,+2 tourism category,
osm:6474638185,,osm,บ้านอุ่นรัก,,Baan Aunrak,cafe,cafe,True,17.8649216,102.7530538,,,,,,,cafe,,,,,1,2,1,+2 tourism category,
osm:6475189585,,osm,,,ເຮືອນແກ່ນຄໍາ ດົງຄໍາຊ້າງ,apartment,apartment,False,17.9080435,102.6719594,,,,,,,apartment,,,,,1,2,1,+2 tourism category,
osm:6487611285,,osm,,,Savang Duck Grill,restaurant,restaurant,True,17.8455193,102.6335818,,,,,,,restaurant,,,,,1,2,1,+2 tourism category,
osm:6490372085,,osm,ບຸນທະວີປິ້ງເປັດ,,Bounthavy Ping Pet,restaurant,restaurant,True,17.8962905,102.629205,,,,,,,restaurant,,,,,1,2,1,+2 tourism category,
osm:6582074285,,osm,Sky Bear Bar & Bistro,,,restaurant,restaurant,True,17.8806821,102.7349824,,,,,,,restaurant,,,,,1,2,1,+2 tourism category,
osm:6659891985,,osm,ຮ້ານອາຫານ ຄົວນານາ,,Khua Nana Restaurant,restaurant,restaurant,True,17.9011033,102.6452254,,,,,,,restaurant,,,,,1,2,1,+2 tourism category,
osm:6705155786,,osm,,,Seven Home Stay,apartment,apartment,False,17.9439843,102.6325041,,,,,,,apartment,,,,,1,2,1,+2 tourism category,
osm:6953191385,,osm,,,ເຮືອນ ນາງກົບ,apartment,apartment,False,17.9192804,102.6783893,,,,,,,apartment,,,,,1,2,1,+2 tourism category,
osm:7011136287,,osm,Vegetarian restaurant,,,restaurant,restaurant,True,17.8833626,102.7478218,,,,,,,restaurant,,,,,1,2,1,+2 tourism category,
osm:7027509885,,osm,Highway Steak,,,restaurant,restaurant,True,17.8422683,102.753102,,,,,,,restaurant,,,,,1,2,1,+2 tourism category,
osm:7100612185,,osm,,,Sinouk coffee Pavilion,cafe,cafe,True,17.8935158,102.643121,,,,,,,cafe,,,,,1,2,1,+2 tourism category,
osm:7125745185,,osm,,,Sabai Poshtel,hotel,hotel,False,17.878839,102.7249093,,,,,,,hotel,,,,,1,2,1,+2 tourism category,
osm:7141646385,,osm,,,Nahai CITY,hostel,hostel,False,17.8686682,102.6775486,,ຖະໝົນ ທ່າເດື່ອ,,,,,hostel,,,,,1,2,1,+2 tourism category,
osm:7196845386,,osm,,,Vongkram Restaurant,restaurant,restaurant,True,17.9107257,102.6517893,,,,,,,restaurant,,,,,1,2,1,+2 tourism category,
osm:7238383007,,osm,,,Bake Heaven Café,cafe,cafe,True,17.8834674,102.7500462,,,,,,,cafe,,,,,1,2,1,+2 tourism category,
osm:7316053785,,osm,,,BB House Hotel,hotel,hotel,False,17.8667732,102.7248101,,,,,,,hotel,,,,,1,2,1,+2 tourism category,
osm:7324734187,,osm,,,Alex Noodles and Coffee,fast_food,fast_food,True,17.9299867,102.6224201,,,,,,,fast_food,,,,,1,2,1,+2 tourism category,
osm:7521524085,,osm,,,Dog Play & Board,apartment,apartment,False,17.9167911,102.6226167,,,,,,,apartment,,,,,1,2,1,+2 tourism category,
osm:7637169040,,osm,ร้านติ๊ก tuktiknongkhai,,,restaurant,restaurant,True,17.8813501,102.7355631,,"42, ถนน แก้ววรวุธ, ในเมือง, 43000",,,,,restaurant,,,,,1,2,1,+2 tourism category,
osm:8012062388,,osm,,,Ambassador Residence,guest_house,guest_house,False,17.934609,102.6252546,,,,,,,guest_house,,,,,1,2,1,+2 tourism category,
osm:8198157631,,osm,Doughnut&Co,,,cafe,cafe,True,17.9201374,102.6245064,,,,,,,cafe,,,,,1,2,1,+2 tourism category,
osm:8419624217,,osm,,,Kaogee cafe,cafe,cafe,True,17.9492736,102.6248307,,,,,,,cafe,,,,,1,2,1,+2 tourism category,
osm:9808442004,,osm,Mai's Restaurant,,,restaurant,restaurant,True,17.880345,102.7475889,,,,,,,restaurant,,,,,1,2,1,+2 tourism category,
osm:9808998750,,osm,Moon Shine Bar 1,,,bar,bar,True,17.8800932,102.7478981,,,,,,,bar,,,,,1,2,1,+2 tourism category,
osm:10200992399,,osm,Sabai Jai Camp & Cafe,,,restaurant,restaurant,True,17.9094892,102.7762442,,,,,,,restaurant,,,,,1,2,1,+2 tourism category,
osm:10237743502,,osm,คาเฟ่ อเมซอน,คาเฟ่ อเมซอน,Café Amazon,cafe,cafe,True,17.8594651,102.7264615,,,,,,,cafe,,,,,1,2,1,+2 tourism category,
osm:10237771548,,osm,KFC,เค เอฟ ซี,,fast_food,fast_food,True,17.8597195,102.7267657,,,,,,,fast_food,,,,,1,2,1,+2 tourism category,
osm:10237784943,,osm,มิยากิ,,,restaurant,restaurant,True,17.8723086,102.7432428,,,,,,,restaurant,,,,,1,2,1,+2 tourism category,
osm:10239614567,,osm,BURGER ลาออก,,,fast_food,fast_food,True,17.8803557,102.7443314,,,,,,,fast_food,,,,,1,2,1,+2 tourism category,
osm:10239620471,,osm,KFC,,,fast_food,fast_food,True,17.8731723,102.7453217,,,,,,,fast_food,,,,,1,2,1,+2 tourism category,
osm:10239651939,,osm,ซูโม่ซูชิ,,,restaurant,restaurant,True,17.8778692,102.7392791,,,,,,,restaurant,,,,,1,2,1,+2 tourism category,
osm:10239674012,,osm,ซูชิหน้าล้น,,,restaurant,restaurant,True,17.873343,102.7456528,,,,,,,restaurant,,,,,1,2,1,+2 tourism category,
osm:10240304520,,osm,พิพิธภัณฑ์จังหวัดหนองคาย,,Nong Khai Museum,museum,museum,False,17.8791984,102.7389155,,"1203, Mi Chai Alley, Nai Mueang, Mueang Nong Khai, Nong Khai, 43000",,,,,museum,,,,,1,2,1,+2 tourism category,
osm:10246084886,,osm,คาเฟ่ไมโลรถโรงเรียน,,,cafe,cafe,True,17.8688891,102.74868,,,,,,,cafe,,,,,1,2,1,+2 tourism category,
osm:10246103513,,osm,ก๋วยเตี๋ยวต่อชาม,,,restaurant,restaurant,True,17.8688503,102.7484418,,,,,,,restaurant,,,,,1,2,1,+2 tourism category,
osm:10252334567,,osm,ซูชิหน้าล้น,,,restaurant,restaurant,True,17.8715891,102.7425705,,,,,,,restaurant,,,,,1,2,1,+2 tourism category,
osm:10267003509,,osm,กาแฟเงินล้าน นาคาคอฟฟี่,,Naga coffee,cafe,cafe,True,17.8053626,102.7827228,,,,,,,cafe,,,,,1,2,1,+2 tourism category,
osm:10294628389,,osm,Le Ballon Rouge Bar,,,bar,bar,True,17.9032076,102.6284539,,,,,,,bar,,,,,1,2,1,+2 tourism category,
osm:10294733488,,osm,Hom Sa,,,cafe,cafe,True,17.916537,102.6167023,,,,,,,cafe,,,,,1,2,1,+2 tourism category,
osm:10299825837,,osm,,,,restaurant,restaurant,True,17.9489075,102.619717,,,,,,,restaurant,,,,,1,2,1,+2 tourism category,
osm:10299829915,,osm,Café Amazon,,,cafe,cafe,True,17.9130259,102.6199653,,,,,,,cafe,,,,,1,2,1,+2 tourism category,
osm:10313291732,,osm,Vinary Coffee,,,cafe,cafe,True,17.9329365,102.6162436,,,,,,,cafe,,,,,1,2,1,+2 tourism category,
osm:10948101805,,osm,,,,fast_food,fast_food,True,17.9350417,102.6254297,,,,,,,fast_food,,,,,1,2,1,+2 tourism category,
osm:10960850006,,osm,,,Sinouk,cafe,cafe,True,17.9359755,102.6255698,,,,,,,cafe,,,,,1,2,1,+2 tourism category,
osm:11021548505,,osm,,,,guest_house,guest_house,False,17.8637283,102.6115097,,,,,,,guest_house,,,,,1,2,1,+2 tourism category,
osm:11212239872,,osm,,,View of the 1st Thai-Lao friendship bridge,viewpoint,viewpoint,False,17.8780853,102.7194241,,,,,,,viewpoint,,,,,1,2,1,+2 tourism category,
osm:11212239873,,osm,ถนนคนเดิน หนองคาย,,Nong Khai Walking Street,attraction,attraction,False,17.8842099,102.7435042,,,,,,,attraction,,,,,1,2,1,+2 tourism category,
osm:11212239874,,osm,ลานวัฒนธรรม หน้าวัดลำดวน จ. หนองคาย,,Naga statue,attraction,attraction,False,17.8877607,102.7528011,,"ถนนริมโขง, Nai Mueang, Mueang Nong Khai, Nong Khai, 43000",,,,,attraction,,,,,1,2,1,+2 tourism category,
osm:11301283770,,osm,,,Amazon,cafe,cafe,True,17.8860446,102.7566145,,,,,,,cafe,,,,,1,2,1,+2 tourism category,
osm:11584237583,,osm,,,Chili's Bar & Restaurant,bar,bar,True,17.8819685,102.7441058,,,,,,,bar,,,,,1,2,1,+2 tourism category,
osm:11590723869,,osm,Moods & Slow Bar,,,cafe,cafe,True,17.8806111,102.7294875,,,,,,,cafe,,,,,1,2,1,+2 tourism category,
osm:11865386369,,osm,,,4 cafes,cafe,cafe,True,17.8654121,102.731032,,,,,,,cafe,,,,,1,2,1,+2 tourism category,
osm:12056296569,,osm,โรงแรมโขงดามัน,โรงแรมโขงดามัน,Khong Damant Hotel,hotel,hotel,False,17.9059729,102.7738386,,,,,,,hotel,,,,,1,2,1,+2 tourism category,
osm:12112397801,,osm,กาแฟพันธุ์ไทย,กาแฟพันธุ์ไทย,Punthai Coffee,cafe,cafe,True,17.8849598,102.7598793,,,,,,,cafe,,,,,1,2,1,+2 tourism category,
osm:12116070101,,osm,ຄາເຟ່ ອາເມຊອນ,คาเฟ่ อเมซอน,Café Amazon,cafe,cafe,True,17.9035894,102.6292918,,,,,,,cafe,,,,,1,2,1,+2 tourism category,
osm:12121626101,,osm,ເຕົາຟືນ Pompeii,เตาฟืน Pompeii,Taofeun Pompeii,restaurant,restaurant,True,17.8993867,102.6371819,,,,,,,restaurant,,,,,1,2,1,+2 tourism category,
osm:12122191301,,osm,ຈຸ່ມ&ດາດ ໜ້າຊັບພະວິຊາ,จุ่ม&ดาด หน้าสัพพะวิชา,,restaurant,restaurant,True,17.9445613,102.6306639,,,,,,,restaurant,,,,,1,2,1,+2 tourism category,
osm:12184383401,,osm,TVS Hotel,,,hotel,hotel,False,17.9288785,102.6539287,,,,,,,hotel,,,,,1,2,1,+2 tourism category,
osm:12194403376,,osm,ຮ້ານປີ່ງຫມາ,,Dog Barbeque,restaurant,restaurant,True,17.8949317,102.6452106,,,,,,,restaurant,,,,,1,2,1,+2 tourism category,
osm:12247211784,,osm,คาเฟ่ อเมซอน,คาเฟ่ อเมซอน,Café Amazon,cafe,cafe,True,17.805052,102.7617023,,,,,,,cafe,,,,,1,2,1,+2 tourism category,
osm:12387505324,,osm,Bing Chun,,,cafe,cafe,True,17.8946816,102.6135334,,,,,,,cafe,,,,,1,2,1,+2 tourism category,
osm:12538883501,,osm,Miyagi by Hatyai Sashimi,,,restaurant,restaurant,True,17.8721389,102.743216,,,,,,,restaurant,,,,,1,2,1,+2 tourism category,
osm:12645048129,,osm,,,,hotel,hotel,False,17.8758041,102.754173,,,,,,,hotel,,,,,1,2,1,+2 tourism category,
osm:12645264762,,osm,,,,motel,motel,False,17.8889017,102.7695523,,,,,,,motel,,,,,1,2,1,+2 tourism category,
osm:12645374801,,osm,,,,restaurant,restaurant,True,17.892235,102.7691229,,,,,,,restaurant,,,,,1,2,1,+2 tourism category,
osm:12648228201,,osm,Romeo,,,nightclub,nightclub,False,17.9251395,102.6488726,,,,,,,nightclub,,,,,1,2,1,+2 tourism category,
osm:12675701323,,osm,Starbooks Bookcafe,,,cafe,cafe,True,17.9345819,102.6227486,,,,,,,cafe,,,,,1,2,1,+2 tourism category,
osm:12675720187,,osm,Starbooks Bookcafe7:,,,cafe,cafe,True,17.9345779,102.6227443,,,,,,,cafe,,,,,1,2,1,+2 tourism category,
osm:12713356962,,osm,Sailomyen Cafe,,,cafe,cafe,True,17.9435935,102.6201719,,,,https://www.facebook.com/profile.php?id=61555617267333,,,cafe,,,,,1,2,1,+2 tourism category,
osm:13288769812,,osm,หาดจอมมณี,,Chom Mani Beach,attraction,attraction,False,17.8766261,102.7100344,,,,,,,attraction,,,,,1,2,1,+2 tourism category,
osm:13337886101,,osm,คาเฟ่ อเมซอน,คาเฟ่ อเมซอน,Café Amazon,cafe,cafe,True,17.8785029,102.7488074,,,,,,,cafe,,,,,1,2,1,+2 tourism category,
osm:13339657058,,osm,ແສນຄຳ ຄ່າເຟ່ Senkham Café,,,cafe,cafe,True,17.8328335,102.6751355,,,,,,,cafe,,,,,1,2,1,+2 tourism category,
osm:13363041501,,osm,Nong Khai giant lotus นาบัวกระด้งยักษ์ หนองคาย,,,attraction,attraction,False,17.8565121,102.7605806,,,,,,,attraction,,,,,1,2,1,+2 tourism category,
osm:13363041601,,osm,the for rest cafe,,,cafe,cafe,True,17.856513,102.7605269,,,,,,,cafe,,,,,1,2,1,+2 tourism category,
osm:13366759801,,osm,,,,cafe,cafe,True,17.9129057,102.7640492,,,,,,,cafe,,,,,1,2,1,+2 tourism category,
osm:13373876223,,osm,Café Amazon,,,cafe,cafe,True,17.9221518,102.6506636,,,,,,,cafe,,,,,1,2,1,+2 tourism category,
osm:13664026402,,osm,Silposa Hostel,,,hostel,hostel,False,17.8798898,102.7391763,,,,,,,hostel,,,,,1,2,1,+2 tourism category,
osm:13705109501,,osm,CoreBeer Brewery,,,pub,pub,True,17.949229,102.6190499,,Rue Thadeua,,,,,pub,,,,,1,2,1,+2 tourism category,
osm:13793636939,,osm,แซบชัวร์ ครัวสงขลา,,,restaurant,restaurant,True,17.8772759,102.7375171,,,,,,,restaurant,,,,,1,2,1,+2 tourism category,
osm:196297178,,osm,,,EDL Guest House,guest_house,guest_house,False,,,,"2, Lao-Thai Road",,,,,guest_house,,,,,1,2,1,+2 tourism category,
osm:202410172,,osm,Buddha Park Restaurant,,Buddha Park Restaurant,restaurant,restaurant,True,,,,0119,,,,,restaurant,,,,,1,2,1,+2 tourism category,
osm:259206084,,osm,,,,hotel,hotel,False,,,,,,,,,hotel,,,,,1,2,1,+2 tourism category,
osm:259206085,,osm,ໂຮງແຮມດອກຈຳປາ,,Dork Jumpa Hotel,hotel,hotel,False,,,,,,,,,hotel,,,,,1,2,1,+2 tourism category,
osm:259206086,,osm,,,,hotel,hotel,False,,,,,,,,,hotel,,,,,1,2,1,+2 tourism category,
osm:262215999,,osm,SP Apartments,,,apartment,apartment,False,,,,,,,,,apartment,,,,,1,2,1,+2 tourism category,
osm:310327788,,osm,Grand Paradise Hotel,,,hotel,hotel,False,,,,,,,,,hotel,,,,,1,2,1,+2 tourism category,
osm:310327791,,osm,GPH Niteclub,,,nightclub,nightclub,False,,,,,,,,,nightclub,,,,,1,2,1,+2 tourism category,
osm:310327792,,osm,Nong Khai City Hotel,,,hotel,hotel,False,,,,,,,,,hotel,,,,,1,2,1,+2 tourism category,
osm:310327795,,osm,White Inn,,,hotel,hotel,False,,,,,,,,,hotel,,,,,1,2,1,+2 tourism category,
osm:310329324,,osm,Nong Khai Inn,,,hotel,hotel,False,,,,,,,,,hotel,,,,,1,2,1,+2 tourism category,
osm:315460725,,osm,,,Phoxay Football Club,restaurant,restaurant,True,,,,,,,,,restaurant,,,,,1,2,1,+2 tourism category,
osm:352102407,,osm,Landmark Mekong Riverside Hotel,,,hotel,hotel,False,,,,,,www.landmarkmekongriverside.com,,,hotel,,,,,1,2,1,+2 tourism category,
osm:370524739,,osm,Mekong Garage Bar,,,restaurant,restaurant,True,,,,,,,,,restaurant,,,,,1,2,1,+2 tourism category,
osm:382639074,,osm,Café Vanille,,,restaurant,restaurant,True,,,,"Sokpaluang Road, Vientiane",,,,,restaurant,,,,,1,2,1,+2 tourism category,
osm:544137497,,osm,Royal Mekong Nong Khai,,,hotel,hotel,False,,,,,,,,,hotel,,,,,1,2,1,+2 tourism category,
osm:551525974,,osm,Ban Gai House of Chicken,,,restaurant,restaurant,True,,,,,,,,,restaurant,,,,,1,2,1,+2 tourism category,
osm:557853042,,osm,Swensen's,,,fast_food,fast_food,True,,,,,,,,,fast_food,,,,,1,2,1,+2 tourism category,
osm:651640876,,osm,คาเฟ่ อเมซอน,คาเฟ่ อเมซอน,Café Amazon,cafe,cafe,True,,,,,,,,,cafe,,,,,1,2,1,+2 tourism category,
osm:983130236,,osm,Kaogee cafe VIS,,,cafe,cafe,True,,,,,,,,,cafe,,,,,1,2,1,+2 tourism category,
osm:1024123873,,osm,Cake Food Film,,,cafe,cafe,True,,,,,,,,,cafe,,,,,1,2,1,+2 tourism category,
osm:1123468850,,osm,,,Coffee Shop,cafe,cafe,True,,,,,,,,,cafe,,,,,1,2,1,+2 tourism category,
osm:1442119007,,osm,Suzette,,,restaurant,restaurant,True,,,,"Hom 7 Ban Thongkhan, Vientiane, Lao P.D.R, 10010",,,,,restaurant,,,,,1,2,1,+2 tourism category,
osm:1445219045,,osm,Chic Chic Market,,,attraction,attraction,False,,,,,,,,,attraction,,,,,1,2,1,+2 tourism category,
osm:1456034604,,osm,Inthanin Coffee,,,cafe,cafe,True,,,,,,,,,cafe,,,,,1,2,1,+2 tourism category,
osm:1468778263,,osm,คาเฟ่ อเมซอน,คาเฟ่ อเมซอน,Café Amazon,cafe,cafe,True,,,,,,,,,cafe,,,,,1,2,1,+2 tourism category,
osm:1508788470,,osm,,,,restaurant,restaurant,True,,,,,,,,,restaurant,,,,,1,2,1,+2 tourism category,
osm:548202693,,osm,ນວດແຜນໂບລານ ໂສກປ່າາຫລວງ,,Sokpaluang massage,massage,massage,False,17.9426727,102.6287872,,,,,,,massage,,,,,0,0,0,,
osm:919885420,,osm,ศาลาแก้วกู่,ศาลาแก้วกู่,Sala Kaeo Kou (Wat Kaek) Buddha Park,information,information,False,17.8873677,102.7825449,,"Wat That, Mueang Nong Khai, Nong Khai, 43000",,,,,information,,,,,0,0,0,,
osm:2608760935,,osm,,,,public_building,public_building,False,17.8718894,102.6636235,,,,,,,public_building,,,,,0,0,0,,
osm:3476700779,,osm,Mister Donut,,Mister Donut,bakery,bakery,False,17.8717162,102.7425103,,,,,,,bakery,,,,,0,0,0,,
osm:3607405609,,osm,,,,beverages,beverages,False,17.9191326,102.6210168,,,,,,,beverages,,,,,0,0,0,,
osm:3761550968,,osm,,,,marketplace,marketplace,False,17.8811889,102.6497341,,,,,,,marketplace,,,,,0,0,0,,
osm:4261863989,,osm,Fivestars Multiplex,,,cinema,cinema,False,17.8713488,102.7426305,,,,,,,cinema,,,,,0,0,0,,
osm:4674563089,,osm,ຮົມຢາ ແລະ ນວດແພນບູຮານ,,Sokpaluang Massages,massage,massage,False,17.9456372,102.6251755,,,,,,,massage,,,,,0,0,0,,
osm:4823403168,,osm,Yopi,,,sports_centre,sports_centre,False,17.9239963,102.619943,,,,,,,sports_centre,,,,,0,0,0,,
osm:5082785826,,osm,Miha Bodytec,,,sports_centre,sports_centre,False,17.939699,102.6185199,,,,,,,sports_centre,,,,,0,0,0,,
osm:5350809191,,osm,SM City,,,marketplace,marketplace,False,17.917342,102.6199696,,,,,,,marketplace,,,,,0,0,0,,
osm:5855622488,,osm,ວັດໂພໄຊ ວັດພະໃສ ເຈົ້າໄຊຍເສຖາທິລາດ,,,information,information,False,17.8850313,102.7575379,,,,,,,information,,,,,0,0,0,,
osm:5977955816,,osm,Mongkolphetch Gym,,,sports_centre,sports_centre,False,17.9336969,102.6252419,,,,,,,sports_centre,,,,,0,0,0,,
osm:7148827385,,osm,,,Thai Massage,massage,massage,False,17.8845855,102.7503563,,,,,,,massage,,,,,0,0,0,,
osm:10239676581,,osm,เซโกะซูชิ,,,sushi,sushi,False,17.8771307,102.7370506,,,,,,,sushi,,,,,0,0,0,,
osm:11865992469,,osm,,,12:55 Train 418 to Nakhon Ratchasima.,information,information,False,17.8645336,102.7309525,,,,,,,information,,,,,0,0,0,,
osm:13375150324,,osm,,,,marketplace,marketplace,False,17.9363166,102.6480153,,,,,,,marketplace,,,,,0,0,0,,
osm:193847696,,osm,ລອງທານວຽງຈັນກ໋ອບ (ເຂດເສດຖະກິດພິເສດ),,Long Thanh Vientiane Golf Course (Specific Economic Zone),golf_course,golf_course,False,,,,,,,,,golf_course,,,,,0,0,0,,
osm:217057490,,osm,Po Chai Market,,,marketplace,marketplace,False,,,,,,,,,marketplace,,,,,0,0,0,,
osm:231659902,,osm,ຕະຫຼາດຫຼັກ 8,,Km. 8 Market,marketplace,marketplace,False,,,,,,,,,marketplace,,,,,0,0,0,,
osm:231672698,,osm,ສະລອຍນ້ຳໝອງໄຮ,,Nonghai Swimming Pool,sports_centre,sports_centre,False,,,,,,,,,sports_centre,,,,,0,0,0,,
osm:262215614,,osm,Driving range,,,golf_course,golf_course,False,,,,,,,,,golf_course,,,,,0,0,0,,
osm:319971035,,osm,ຕະຫລາດສວນມອນ,,Souanmone Market,marketplace,marketplace,False,,,,,,,,,marketplace,,,,,0,0,0,,
osm:438483730,,osm,,,,sports_centre,sports_centre,False,,,,,,,,,sports_centre,,,,,0,0,0,,
osm:479018121,,osm,Lao Country Club Golf Course,,,golf_course,golf_course,False,,,,,,,,,golf_course,,,,,0,0,0,,
osm:528481119,,osm,Inpeng Riverside,,,water_park,water_park,False,,,,,,,,,water_park,,,,,0,0,0,,
osm:530229321,,osm,,,Santhong garden food fishing park,fishing,fishing,False,,,,,,,,,fishing,,,,,0,0,0,,
osm:542519443,,osm,Lanexang Stadium,,Lanexang Stadium,sports_centre,sports_centre,False,,,,,,,,,sports_centre,,,,,0,0,0,,
osm:551523805,,osm,,,,public_building,public_building,False,,,,,,,,,public_building,,,,,0,0,0,,
osm:551526293,,osm,BeeBee,,,sports_centre,sports_centre,False,,,,,,,,,sports_centre,,,,,0,0,0,,
osm:640579860,,osm,Lanexang Indoor Sport Center,,,sports_centre,sports_centre,False,,,,,,,,,sports_centre,,,,,0,0,0,,
osm:653119891,,osm,,,,marketplace,marketplace,False,,,,,,,,,marketplace,,,,,0,0,0,,
osm:891704529,,osm,,,,marketplace,marketplace,False,,,,,,,,,marketplace,,,,,0,0,0,,
osm:1119344069,,osm,เมเจอร์ซีนีเพล็กซ์,,,cinema,cinema,False,,,,,,,,,cinema,,,,,0,0,0,,
osm:1119352841,,osm,5star Multiplex,,,cinema,cinema,False,,,,,,,,,cinema,,,,,0,0,0,,
osm:1415105521,,osm,ตลาดท่าเสด็จ,,Tha Sadet Market,marketplace,marketplace,False,,,,"Nai Mueang, Mueang Nong Khai, Nong Khai, 43000",,,,,marketplace,,,,,0,0,0,,
osm:1448551946,,osm,ตลาดนัดคลองถมหนองคาย,,Nong Khai Station Night Market,marketplace,marketplace,False,,,,"Phrabat Nasing, Rattanawapi, Nong Khai, 43120",,,,,marketplace,,,,,0,0,0,,
osm:1456027469,,osm,Nong Khai Golf Course,,,golf_course,golf_course,False,,,,,,,,,golf_course,,,,,0,0,0,,
