src_id,src_id_alt,sources,name,name_thai,name_en,category_raw,subcategory,is_food,lat,lng,zipcode,address,phone,website,email,wongnai_categories,osm_subcategory,fb_ad_count,fb_check_status,fb_search_url,review_count,is_tourism,lead_raw,lead_quality,score_factors,detail_url
osm:1425326995,,osm,Ben Guesthouse,,,guest_house,guest_house,False,19.9042445,99.8234859,,,+6653716775,http://www.benguesthousechiangrai.com/,benguesthouse@hotmail.com,,guest_house,,,,,1,8,6,+3 real website ; +2 tourism category ; +2 phone ; +1 email,
osm:2140748944,,osm,อัมรินทร์ รีสอร์ท,อัมรินทร์ รีสอร์ท,Amarin Resort,hotel,hotel,False,19.9196202,99.8509256,,,+6653748785,https://www.amarinresortchiangrai.com/,rsvn@amarinresortchiangrai.com,,hotel,,,,,1,8,6,+3 real website ; +2 tourism category ; +2 phone ; +1 email,
osm:2315631889,,osm,Fun-D,,,guest_house,guest_house,False,19.9075906,99.8404026,,"753, Phahon Yothin Road",+6653712123,http://www.fun-dhostel.com,contact@fun-dhostel.com,,guest_house,,,,,1,8,6,+3 real website ; +2 tourism category ; +2 phone ; +1 email,
osm:3219713102,,osm,บ้านลมเย็นโฮมสเตย์,,Ban Lom Jen Homestay,guest_house,guest_house,False,19.9388816,99.7670678,,,+66 85 6222097;+66 80 8561796,http://banlomjen-chiangrai.com/,lom.jen.homestay@gmail.com,,guest_house,,,,,1,8,6,+3 real website ; +2 tourism category ; +2 phone ; +1 email,
osm:4037037252,,osm,Union of Hill Tribe Villages and Longneck Karen,,,attraction,attraction,False,20.0201141,99.8912329,,"266, Chiang Rai, 57100",+6653 705 337,http://www.unionhilltribe.com/,unionhilltribe@hotmail.com,,attraction,,,,,1,8,6,+3 real website ; +2 tourism category ; +2 phone ; +1 email,
osm:4528072891,,osm,Tourist Inn,Tourist Inn,Tourist Inn,guest_house,guest_house,False,19.902563,99.8314859,,"1004/1, Jedyod Road, 57000",053752094,https://www.touristinnhotel.com/,touristinn_team@hotmail.co.th,,guest_house,,,,,1,8,6,+3 real website ; +2 tourism category ; +2 phone ; +1 email,
osm:4561324789,,osm,,,Ti Amo Hostel,hostel,hostel,False,19.9066483,99.8311624,,"38/40, ถนนเจ็ดยอด, 57000",0953136370,http://chiangraicentral.com,tiamothailand@gmail.com,,hostel,,,,,1,8,6,+3 real website ; +2 tourism category ; +2 phone ; +1 email,
osm:4563720690,,osm,เชียงรายเซ็นทรัลเกสท์เฮ้าส์,,Chiangrai Central Guesthouse,guest_house,guest_house,False,19.9066762,99.8311651,,"38/40, ถนนเจ็ดยอด, 57000",0908913030,http://chiangraicentral.com,tiamothailand@gmail.com,,guest_house,,,,,1,8,6,+3 real website ; +2 tourism category ; +2 phone ; +1 email,
osm:10651317905,,osm,,,Babuh Boutique Homestay,guest_house,guest_house,False,20.0023494,99.8538737,,"82, Moo 3, 57100",+660869193370,http://th.bambuhboutiqe.com,bambuhboutique@mail.com,,guest_house,,,,,1,8,6,+3 real website ; +2 tourism category ; +2 phone ; +1 email,
osm:269747630,,osm,,,"Karen, Akha, & Long Neck tribal village",attraction,attraction,False,,,,,+6653 705 337,http://www.unionhilltribe.com/,unionhilltribe@hotmail.com,,attraction,,,,,1,8,6,+3 real website ; +2 tourism category ; +2 phone ; +1 email,
osm:393447653,,osm,บ้านดำ,บ้านดำ,Baan Dam Museum,museum,museum,False,,,,,+6653776333,https://thawan-duchanee.com/,info@thawan-duchanee.com,,museum,,,,,1,8,6,+3 real website ; +2 tourism category ; +2 phone ; +1 email,
osm:547713585,,osm,พิพิธภัณฑ์ชาวเขา,,Hilltribe Museum,museum,museum,False,,,,"620/25 3 floor, ถนน ธนาลัย, Chiang Rai, 57000",+6653740088,https://www.pdacr.org/,crpdatour@hotmail.com,,museum,,,,,1,8,6,+3 real website ; +2 tourism category ; +2 phone ; +1 email,
osm:623835953,,osm,โรงแรมเวียงอินทร์,,Wiang Inn Hotel,hotel,hotel,False,,,,"893, ถนนพหลโยธิน, Chiang Rai, 57000",+66 0-5371-1533,http://www.wianginn.com/,wianginn@ksc.th.com,,hotel,,,,,1,8,6,+3 real website ; +2 tourism category ; +2 phone ; +1 email,
osm:643043417,,osm,Rasa Hotel,,,hotel,hotel,False,,,,,+6653717454,http://rasaboutiquehotelchiangrai.com/,Rasaboutiquehotel@hotmail.com,,hotel,,,,,1,8,6,+3 real website ; +2 tourism category ; +2 phone ; +1 email,
osm:965313905,,osm,ขัวศิลปะ,ขัวศิลปะ,Art Bridge,gallery,gallery,False,,,,,+66 53 166 623,https://artbridgechiangrai.org/,artbridge.cr@gmail.com,,gallery,,,,,1,8,6,+3 real website ; +2 tourism category ; +2 phone ; +1 email,
osm:1074237705,,osm,นายญ่า,นายญ่า,Nai Ya,hotel,hotel,False,,,,"111, ถนนร่วมจิตถวาย, เชียงราย, 57000",+66 53 727239,https://www.naiyahotel.com,naiyafo@gmail.com,,hotel,,,,,1,8,6,+3 real website ; +2 tourism category ; +2 phone ; +1 email,
osm:1075480831,,osm,โรงแรมบ้านศิลป์,โรงแรมบ้านศิลป์,Baan Silp Hotel,hotel,hotel,False,,,,,+66 537563356,https://baansilphotel.top/,sasipim555@gmail.com,,hotel,,,,,1,8,6,+3 real website ; +2 tourism category ; +2 phone ; +1 email,
osm:1110932840,,osm,บ้านพอดีดิน,บ้านพอดีดิน,Baan Pordeedin,guest_house,guest_house,False,,,,"199/1-3 Moo 21, ถนน ศรีบุญเรือง, เชียงราย, 57000",+66 (0)53 719554,https://www.baanpordeedin.com,info@baanpordeedin.com,,guest_house,,,,,1,8,6,+3 real website ; +2 tourism category ; +2 phone ; +1 email,
osm:1127661775,,osm,โรงแรมเดอะแกรนด์ดิโอส,,The Grandiose Hotel Chiang Rai,hotel,hotel,False,,,,"211, 8, Rob Wiang, Rop Wiang, Mueang Chiang Rai, Chiang Rai, 57000",+66 80 818 1763,https://www.thegrandiosehotel.com/,reservation@thegrandiosehotel.com,,hotel,,,,,1,8,6,+3 real website ; +2 tourism category ; +2 phone ; +1 email,
osm:4648347234,,osm,สบันงาขันโตก,สบันงาขันโตก,Sabun-Nga Khantok,restaurant,restaurant,True,19.9012676,99.8222922,,"226/50-55, ถนน สันโค้งน้อย, เชียงราย, 57000",+6653712290,https://www.sabunngahostel.com,sabunngahotel@gmail.com,,restaurant,,,,,1,8,6,+3 real website ; +2 tourism category ; +2 phone ; +1 email,
osm:9119957392,,osm,ฟูจิ,ฟูจิ,Fuji Restaurant,restaurant,restaurant,True,19.8864139,99.833432,,,+66840346569,https://www.fuji.co.th,info@fuji.co.th,,restaurant,,,,,1,8,6,+3 real website ; +2 tourism category ; +2 phone ; +1 email,
osm:751059215,,osm,The Roastery by Roj,,,cafe,cafe,True,,,,"ถนน สนามบิน, Chiang Rai",+66887000762,https://www.theroasterybyroj.com,theroasterychiangrai@gmail.com,,cafe,,,,,1,8,6,+3 real website ; +2 tourism category ; +2 phone ; +1 email,
osm:963169297,,osm,Yoddoi Coffee & Tea,ยอดดอยกาแฟและชา,,cafe,cafe,True,,,,,084-209-9529,http://www.yoddoikafedoichaang.com,hilltribeyoddoi1@gmail.com,,cafe,,,,,1,8,6,+3 real website ; +2 tourism category ; +2 phone ; +1 email,
osm:1295675510,,osm,โรงแรม สิริชัย แมนชั่น,,Siri Chai Mansion,hotel,hotel,False,19.9991528,99.8673589,,,+6653702765,http://www.sirichaimansion.com/,,,hotel,,,,,1,7,5,+3 real website ; +2 tourism category ; +2 phone,
osm:3617387675,,osm,Chian Guesthouse,,,guest_house,guest_house,False,19.9153686,99.8386468,,,+66 5371 3388,https://chianhousethailand.webs.com/,,,guest_house,,,,,1,7,5,+3 real website ; +2 tourism category ; +2 phone,
osm:4525371848,,osm,Wilacha,โรงแรม วิลาชา,,hotel,hotel,False,19.927615,99.8351545,,,+6653601491,http://www.wilacha.com/,,,hotel,,,,,1,7,5,+3 real website ; +2 tourism category ; +2 phone,
osm:4544528292,,osm,,,Hi Chiangrai Hotel,hotel,hotel,False,19.9023994,99.8330206,,902/3,+6653716699,https://www.hichiangrai.com/,,,hotel,,,,,1,7,5,+3 real website ; +2 tourism category ; +2 phone,
osm:11459676770,,osm,เฮือนกาวิน,เฮือนกาวิน,Huan Kawin Est.58,guest_house,guest_house,False,19.9086108,99.839623,,"731, Nhongseejaeng Rd, Mueang Chiang Rai District, Chiang Rai, 57000",+66 84 097 4555,https://huankawin.wixsite.com,,,guest_house,,,,,1,7,5,+3 real website ; +2 tourism category ; +2 phone,
osm:87918800,,osm,The Riverie by Katathani,,,hotel,hotel,False,,,,,+66 5360 7999,https://www.theriverie.com/,,,hotel,,,,,1,7,5,+3 real website ; +2 tourism category ; +2 phone,
osm:330740484,,osm,Baanmalai Guest House,,,guest_house,guest_house,False,,,,,+66 53 754 499,http://www.baanmalai.com,,,guest_house,,,,,1,7,5,+3 real website ; +2 tourism category ; +2 phone,
osm:751053203,,osm,Le Méridien Chiang Rai Resort,เลอเมอริเดียน เชียงราย,Le Méridien Chiang Rai Resort,hotel,hotel,False,,,,,+6653603333,http://www.lemeridienchiangrai.com/,,,hotel,,,,,1,7,5,+3 real website ; +2 tourism category ; +2 phone,
osm:959733182,,osm,Hop Inn Clock Tower,,,hotel,hotel,False,,,,,+66 26592899,https://www.hopinnhotel.com/th/our-hotels/hop-inn-chiang-rai-clock-tower,,,hotel,,,,,1,7,5,+3 real website ; +2 tourism category ; +2 phone,
osm:960685144,,osm,La Vie En Rose,,,hotel,hotel,False,,,,,+6653601331,https://lavieenrosehotel.com/,,,hotel,,,,,1,7,5,+3 real website ; +2 tourism category ; +2 phone,
osm:986855268,,osm,หอศิลป์ไตยวน,หอศิลป์ไตยวน,Tai Yuan Art Gallery,gallery,gallery,False,,,,,+6653712137,https://www.museumthailand.com/th/museum/Tai-Yuan-Art-Gallery,,,gallery,,,,,1,7,5,+3 real website ; +2 tourism category ; +2 phone,
osm:990683006,,osm,บ้านภัสชา,บ้านภัสชา,Patcha,apartment,apartment,False,,,,"ซอย น้ำทิพย์, เชียงราย, 57000",+66891797530,https://phatchaa.weebly.com,,,apartment,,,,,1,7,5,+3 real website ; +2 tourism category ; +2 phone,
osm:990683019,,osm,บ้านคีตา,บ้านคีตา,Bann Gita,apartment,apartment,False,,,,"108/13, ซอย น้ำทิพย์, เชียงราย, 57000",+66894306910,https://www.baangita.com,,,apartment,,,,,1,7,5,+3 real website ; +2 tourism category ; +2 phone,
osm:992101976,,osm,พิพิธภัณฑ์อูบคำ,พิพิธภัณฑ์อูบคำ,Oub Kham Museum,museum,museum,False,,,,"81/1, ถนนหน้าค่าย, เชียงราย, 57000",+6653713349,https://www.oubkhammuseum.com/,,,museum,,,,,1,7,5,+3 real website ; +2 tourism category ; +2 phone,
osm:1014611409,,osm,บ้านจารุ,,Baan Jaru,guest_house,guest_house,False,,,,"1003, Jetyod Road, Chiang Rai, 57000",+66 53-713640,http://www.baanjaru.com/,,,guest_house,,,,,1,7,5,+3 real website ; +2 tourism category ; +2 phone,
osm:1376968719,,osm,คงการ์เด้น วิว รีสอร์ท,,Kong Garden View Resort Chiang Rai,hotel,hotel,False,,,,"134/12, Mueang Chiang Rai, Chiang Rai, 57000",+66 53746899,https://kong-garden-view-resort.chiangraihotelspage.com/en/,,,hotel,,,,,1,7,5,+3 real website ; +2 tourism category ; +2 phone,
osm:2294308420,,osm,ชีวิตธรรมดา,ชีวิตธรรมดา,Chivit Thamma Da Cafe,restaurant,restaurant,True,19.9217377,99.8452136,,,+66 81 9842925,https://www.chivitthammada.com/,,,restaurant,,,,,1,7,5,+3 real website ; +2 tourism category ; +2 phone,
osm:2334898014,,osm,KFC,เค เอฟ ซี,KFC,fast_food,fast_food,True,19.888604,99.837189,,,1150,https://www.kfc.co.th/,,,fast_food,,,,,1,7,5,+3 real website ; +2 tourism category ; +2 phone,
osm:2334898015,,osm,MK Restaurants,,MK Restaurants,restaurant,restaurant,True,19.888886,99.837262,,,1642,https://www.mkrestaurant.com/,,,restaurant,,,,,1,7,5,+3 real website ; +2 tourism category ; +2 phone,
osm:2334898016,,osm,McDonald's,แมคโดนัลด์,McDonald's,fast_food,fast_food,True,19.88642,99.834793,,,1711,https://www.mcthai.co.th/,,,fast_food,,,,,1,7,5,+3 real website ; +2 tourism category ; +2 phone,
osm:2334898017,,osm,The Pizza Company,เดอะ พิซซ่า คอมปะนี,The Pizza Company,fast_food,fast_food,True,19.886161,99.833108,,,1112,https://www.1112.com/,,,fast_food,,,,,1,7,5,+3 real website ; +2 tourism category ; +2 phone,
osm:3145141929,,osm,KFC,เค เอฟ ซี,KFC,fast_food,fast_food,True,19.886572,99.834217,,,1150,https://www.kfc.co.th/,,,fast_food,,,,,1,7,5,+3 real website ; +2 tourism category ; +2 phone,
osm:4558284402,,osm,,,Sa Par Cafe,cafe,cafe,True,19.8820855,99.8243814,,Doi Pa Bath,0846173148,http://chiangrai.golocalist.com,,,cafe,,,,,1,7,5,+3 real website ; +2 tourism category ; +2 phone,
osm:8523167938,,osm,"Aquatale, Cafe & Art",,,cafe,cafe,True,19.9858044,99.8858519,,,0845000205,https://m.youtube.com/watch?v=6FUtrjO7JrU,,,cafe,,,,,1,7,5,+3 real website ; +2 tourism category ; +2 phone,
osm:8879604992,,osm,Somtum Denha,,,restaurant,restaurant,True,19.8994586,99.8120866,,"Daynhaa-dongmada Road, Ban Manirat",0629593783,https://www.wongnai.com/restaurants/249798Ei-%E0%B8%AA%E0%B9%89%E0%B8%A1%E0%B8%95%E0%B8%B3%E0%B9%80%E0%B8%94%E0%B9%88%E0%B8%99%E0%B8%AB%E0%B9%89%E0%B8%B2/reviews,,,restaurant,,,,,1,7,5,+3 real website ; +2 tourism category ; +2 phone,
osm:9141052700,,osm,No.444 Pizza,,,restaurant,restaurant,True,19.9276937,99.8369443,,,+66951344182,https://web.facebook.com/No444-Pizza-339543229566312/,,,restaurant,,,,,1,7,5,+3 real website ; +2 tourism category ; +2 phone,
osm:997641687,,osm,ลาบปลาดอยตอง,ลาบปลาดอยตอง,Lap Pla Doi Tong,restaurant,restaurant,True,,,,,+66823904824,https://food.grab.com/th/th/restaurant/lap-pla-doi-tong-ลาบปลาดอยตอง-ซอยราชโยธา-3-delivery/3-CY23AFVJBFLYDE,,,restaurant,,,,,1,7,5,+3 real website ; +2 tourism category ; +2 phone,
osm:1067053313,,osm,บ้านแห่งความทรงจำโอเวอร์บรุ๊ค,,,cafe,cafe,True,,,,"444, ถนน สิงหไคล, เชียงราย, 57000",053910100,https://www.overbrook-hospital.com/,,,cafe,,,,,1,7,5,+3 real website ; +2 tourism category ; +2 phone,
osm:1127661764,,osm,ลีลาวดี,ร้านอาหารลีลาวดีเชียงราย,Leelavadee,restaurant,restaurant,True,,,,"58 2, ถนน แควหวาย, 57000",+6653600000,https://leelawadeechiangrai.com/,,,restaurant,,,,,1,7,5,+3 real website ; +2 tourism category ; +2 phone,
osm:1127661768,,osm,ร้านอาหาร​ หลู้ลำ,ร้านหลู้ลำ,Lu Lum,restaurant,restaurant,True,,,,"188/8, Kwae Wai Rd, Mueang Chiang Rai, เชียงราย, 57000",+66 53 748 223,https://th-th.facebook.com/RanXaharHluLaCheiyngray/,,,restaurant,,,,,1,7,5,+3 real website ; +2 tourism category ; +2 phone,
osm:12450861584,,osm,Bamboo Nest,,,guest_house,guest_house,False,19.9079579,99.757791,,,,https://bamboonestcr.com/,bamboonestcr@yahoo.com,,guest_house,,,,,1,6,4,+3 real website ; +2 tourism category ; +1 email,
osm:4356488197,,osm,บ้านนอนเพลิน,บ้านนอนเพลิน,Baan Norn Plearn,guest_house,guest_house,False,19.9074161,99.8267307,,"Ngam Muang Rd., 57000",+66 84 669 7926,https://www.facebook.com/pages/Baan-Norn-Plearn/529632970442357,k-sripan@hotmail.com,,guest_house,,,,,1,5,4,+2 tourism category ; +2 phone ; +1 email,
osm:4416687292,,osm,Good Morning Chiangrai,Good Morning Chiangrai,,hostel,hostel,False,19.9030659,99.8324204,,"897/19, ถนนเจ็ดยอด, 57000",+66 81 405-444-1,http://facebook.com/goodmorningchiangrai,totjung@gmail.com,,hostel,,,,,1,5,4,+2 tourism category ; +2 phone ; +1 email,
osm:4559979989,,osm,,,Reggae Home & Bar,bar,bar,True,19.9060421,99.8326964,,"869/39, ถนนไทยวิวัฒ์, 57000",0956800672,https://www.facebook.com/Reggae-Home-Bar-1223775444352050/,buffbearwhite@gmail.com,,bar,,,,,1,5,4,+2 tourism category ; +2 phone ; +1 email,
osm:4663103391,,osm,คูณเจริญ,คูณเจริญ,KoonChaLearn Backpackers,hostel,hostel,False,19.9084652,99.8458628,,"326, 57000",0811710047,http://facebook.com/koon.cha.learn,koonchalearn@gmail.com,,hostel,,,,,1,5,4,+2 tourism category ; +2 phone ; +1 email,
osm:4782425122,,osm,,,Backpack Hostel,hostel,hostel,False,19.9050542,99.8355138,,ถนน ประสบสูข,0855945987,,backpackhostel1@gmail.com,,hostel,,,,,1,5,4,+2 tourism category ; +2 phone ; +1 email,
osm:5025009722,,osm,,,Cooking with Anna,attraction,attraction,False,19.9155506,99.8476417,,"73 Moo 20, Sahamit road, 57000",,https://www.chiangraicookingclass.xyz/,,,attraction,,,,,1,5,4,+3 real website ; +2 tourism category,
osm:5025024921,,osm,,,Suwannee Thai Cooking class,attraction,attraction,False,19.8852573,99.7930937,,"303 Moo 1, Denha-Dongmada road",,https://www.thaicookingclasschiangrai.com/,,,attraction,,,,,1,5,4,+3 real website ; +2 tourism category,
osm:5177891324,,osm,,,Adchara Mansion,hotel,hotel,False,19.8989319,99.8414061,,"36/11, ถนนหนองบัว",,https://www.booking.com/hotel/th/adchara-mansion.en-gb.html,,,hotel,,,,,1,5,4,+3 real website ; +2 tourism category,
osm:6325000596,,osm,เลอเทอราเนียม,เลอเทอราเนียม,Le Terrarium,hotel,hotel,False,19.901123,99.8300552,,"998/2, ถนน สถานพยาบาล, Chiang Rai, 57000",+6653 719 456,,leterrariumhotel@gmail.com,,hotel,,,,,1,5,4,+2 tourism category ; +2 phone ; +1 email,
osm:12438467094,,osm,Tobacco Warehouse Chiang Rai,,,gallery,gallery,False,19.9085589,99.8366795,,,,https://www.thailandbiennale.org/en/venues/chiang-rai-tobacco-office,,,gallery,,,,,1,5,4,+3 real website ; +2 tourism category,
osm:256853080,,osm,The Legend Chiang Rai Boutique River Resort & Spa,,,hotel,hotel,False,,,,"ถนนเกาะลอย, 57000",,https://www.thelegend-chiangrai.com,,,hotel,,,,,1,5,4,+3 real website ; +2 tourism category,
osm:330740050,,osm,โรงแรมเชียงราย,,Chiang Rai Hotel,hotel,hotel,False,,,,"519, Suksathit Rd.",+66 53711266,,RECEPTION@THECHIANGRAIHOTEL.COM,,hotel,,,,,1,5,4,+2 tourism category ; +2 phone ; +1 email,
osm:387049084,,osm,Mercy Hostel,,,hostel,hostel,False,,,,"1005/22, เจ็ดยอด ซอย 1, ตำบลเวียง, อำเภอเมืองเชียงราย, เชียงราย, 57000",+66 96 334 5034,,mercyhostelchiangrai.cr@gmail.com,,hostel,,,,,1,5,4,+2 tourism category ; +2 phone ; +1 email,
osm:391132812,,osm,La Luna,,,hotel,hotel,False,,,,,,https://www.lalunaresortchiangrai.com/,,,hotel,,,,,1,5,4,+3 real website ; +2 tourism category,
osm:484142603,,osm,City Home Guesthouse,City Home Guesthouse,City Home Guesthouse,guest_house,guest_house,False,,,,"868, ถนนพหลโยธืน, 57000",053600155,,Cityhome.chiangrai@yahoo.com,,guest_house,,,,,1,5,4,+2 tourism category ; +2 phone ; +1 email,
osm:638740452,,osm,Chayadol Resort,,,hotel,hotel,False,,,,,053-756997; 090-6701045,,chayadolresort@gmail.com,,hotel,,,,,1,5,4,+2 tourism category ; +2 phone ; +1 email,
osm:638746806,,osm,Pimann Inn,,,hotel,hotel,False,,,,,,https://www.pimanninn.com/index.php?lang=en,,,hotel,,,,,1,5,4,+3 real website ; +2 tourism category,
osm:4556470790,,osm,Coffee Love,Coffee Love,,cafe,cafe,True,19.9012502,99.8308787,,ถนน สถานพยาบาล,0819983322,,phurit_jeans@hotmail.com,,cafe,,,,,1,5,4,+2 tourism category ; +2 phone ; +1 email,
osm:5171371321,,osm,โตกตอง,,Tok Tong Restaurant,restaurant,restaurant,True,19.8848295,99.8303649,,ถนนพหลโยธิน,+6653717850,,themobileglove@gmail.com,,restaurant,,,,,1,5,4,+2 tourism category ; +2 phone ; +1 email,
osm:5320151028,,osm,Heaven Burger,,,restaurant,restaurant,True,19.9061012,99.8310493,,"1025/5, ถนนเจ็ดยอด",+66946171923,,pethna39@gmail.com,,restaurant,,,,,1,5,4,+2 tourism category ; +2 phone ; +1 email,
osm:7298407064,,osm,Implaphao,,,restaurant,restaurant,True,19.9046081,99.8580587,,,,https://www.implaphao.com/,,,restaurant,,,,,1,5,4,+3 real website ; +2 tourism category,
osm:9104729404,,osm,ก๋วยเตี๋ยวเรือ ๑๓ เหรียญ,,,restaurant,restaurant,True,19.8847527,99.8307378,,,+66860206747,https://m.facebook.com/tawrue13rean/,ononok747@gmail.com,,restaurant,,,,,1,5,4,+2 tourism category ; +2 phone ; +1 email,
osm:9104746651,,osm,เตี๋ยวเรือ ๑๓ เหรียญ,เตี๋ยวเรือ ๑๓ เหรียญ,Tiew Raeur 13 rian,restaurant,restaurant,True,19.8847967,99.8307344,,,+66860206747,https://m.facebook.com/tawrue13rean/,ononok747@gmail.com,,restaurant,,,,,1,5,4,+2 tourism category ; +2 phone ; +1 email,
osm:9144488192,,osm,สะหลุงแดง,สะหลุงแดง,Salungdaeng,restaurant,restaurant,True,19.9087871,99.8577392,,,+66816964696,https://m.facebook.com/salungdaeng/,dressup.jenji@gmail.com,,restaurant,,,,,1,5,4,+2 tourism category ; +2 phone ; +1 email,
osm:10307977396,,osm,1055 brewing at corner,,1055 brewing at corner,cafe,cafe,True,19.9050211,99.8286083,,"1055, ถนน สนามบิน, เชียงราย, 57000",+66966916998,,1055brewer@gmail.com,,cafe,,,,,1,5,4,+2 tourism category ; +2 phone ; +1 email,
osm:12860331935,,osm,Jack The Reaper,,,restaurant,restaurant,True,19.99235,99.8602687,,"170/1, ถนนบ้านดำ, Muang, Nanglae, Chiang Rai, 57100",+66 83 454 0884,,jakaphan513457@icloud.com,,restaurant,,,,,1,5,4,+2 tourism category ; +2 phone ; +1 email,
osm:13086518748,,osm,James Art Coffee,,,cafe,cafe,True,19.9037793,99.8130902,,"399/1, ถนนหน้าค่าย, รอบเวียง, เมืองเชียงราย, เชียงราย, 57000",+66 95 146 9539,,rainnymalisa@gmail.com,,cafe,,,,,1,5,4,+2 tourism category ; +2 phone ; +1 email,
osm:13184024816,,osm,Bundarnjai - Coffee Eatery Bingsu,,,cafe,cafe,True,19.9233956,99.8500042,,"353/2, Rim Nam Kok road, Mueang Chiang Rai, Chiang Rai, 57100",+66 89 191 9194,,bundarnjai@gmail.com,,cafe,,,,,1,5,4,+2 tourism category ; +2 phone ; +1 email,
osm:772907454,,osm,The Roast,,,cafe,cafe,True,,,,"124/3, ถนน สันโค้งหลวง",088 700 0762,,hello.theroast@gmail.com,,cafe,,,,,1,5,4,+2 tourism category ; +2 phone ; +1 email,
osm:960935005,,osm,ข้าวมันไก่จักรพรรดิ,ข้าวมันไก่จักรพรรดิ,Chakrapad Chicken Rice,restaurant,restaurant,True,,,,,+66 63 589 8555,,emperor.chickenrice1@gmail.com,,restaurant,,,,,1,5,4,+2 tourism category ; +2 phone ; +1 email,
osm:906244402,,osm,ST Motorcycles Rentals & Sales,,,bar,bar,True,19.9067918,99.8311863,,1025/34-35,+6653713652,,,,bar,,,,,1,4,3,+2 tourism category ; +2 phone,
osm:2148791524,,osm,คานาอันเพลส,,Canaan Place,hotel,hotel,False,19.9153238,99.8490205,,,+6653601388,,,,hotel,,,,,1,4,3,+2 tourism category ; +2 phone,
osm:2148823039,,osm,บ้านล้านนา,บ้านล้านนา,Baan Lanna Hotel,hotel,hotel,False,19.9246728,99.8450811,,,+6653166555,,,,hotel,,,,,1,4,3,+2 tourism category ; +2 phone,
osm:2826264519,,osm,Grandma Kaew House,,,hotel,hotel,False,19.9024066,99.8348627,,"78 Moo.18, Sanpanard Road Soi 2/1, Chiang Rai, 57000",+66 81 859 9858,,,,hotel,,,,,1,4,3,+2 tourism category ; +2 phone,
osm:2908413736,,osm,Chez Nous Homestay,,,guest_house,guest_house,False,19.9062855,99.833026,,"541/9, Phayon Yothin Road, Chiang Rai, 57000",+66834723534,https://www.facebook.com/cheznous.chiangrai,,,guest_house,,,,,1,4,3,+2 tourism category ; +2 phone,
osm:3426154627,,osm,Baan Nuk Anong Hotel,,,hotel,hotel,False,19.9166048,99.842117,,"221/1, Chiang Rai, 57000",+66 53 717691,https://www.facebook.com/Baannukanong,,,hotel,,,,,1,4,3,+2 tourism category ; +2 phone,
osm:4342096790,,osm,,,Hot Springs Pongprabaht,attraction,attraction,False,19.9775334,99.8327168,,,+6653150676,,,,attraction,,,,,1,4,3,+2 tourism category ; +2 phone,
osm:4349464891,,osm,chat house,,,guest_house,guest_house,False,19.9123266,99.8274689,,"3/2, Soi Sangkaew, Trairat Road",053711481,,,,guest_house,,,,,1,4,3,+2 tourism category ; +2 phone,
osm:4650542891,,osm,,,Koon Cha Learn Hostel,hostel,hostel,False,19.9084801,99.8457201,,,+66 83 773 1339,https://www.facebook.com/Koon.Cha.Learn/,,,hostel,,,,,1,4,3,+2 tourism category ; +2 phone,
osm:4689420089,,osm,,,MeeDhouse,hostel,hostel,False,20.0206162,99.8712206,,"115 หมู่ที่ 8, ถนนพหลโยธิน, 57100",093-2209620,,,,hostel,,,,,1,4,3,+2 tourism category ; +2 phone,
osm:5384727815,,osm,Fon guest house,,,guest_house,guest_house,False,19.9035658,99.8352449,,Sanapard Rdoad,+66889513941,,,,guest_house,,,,,1,4,3,+2 tourism category ; +2 phone,
osm:5579664024,,osm,Lamyai Cafe &Guest House,,,guest_house,guest_house,False,19.8894499,99.8152341,,,+66 850382298,,,,guest_house,,,,,1,4,3,+2 tourism category ; +2 phone,
osm:5898658485,,osm,Anan Boutique Hotel,,,hotel,hotel,False,19.8840333,99.8307763,,,6653719165,,,,hotel,,,,,1,4,3,+2 tourism category ; +2 phone,
osm:6057439286,,osm,,,Winter House (true !),hotel,hotel,False,19.8993156,99.8403596,,"9/11, ถนนหนองบัว, 57000",+66 85 599 0915,,,,hotel,,,,,1,4,3,+2 tourism category ; +2 phone,
osm:6125923486,,osm,เมฆแมนชั่น,,Mech Mansion,hotel,hotel,False,19.8858594,99.8217488,,,0819521991,,,,hotel,,,,,1,4,3,+2 tourism category ; +2 phone,
osm:7028932546,,osm,A-Residence,,,guest_house,guest_house,False,19.9108413,99.8350698,,,053-740171,,,,guest_house,,,,,1,4,3,+2 tourism category ; +2 phone,
osm:7901119527,,osm,Goodtime Resort Chiangrai,,,hotel,hotel,False,19.9052172,99.8515955,,"250/15-16, Moo 9 Soi Pho Khun 6/5",+66979239811,,,,hotel,,,,,1,4,3,+2 tourism category ; +2 phone,
osm:11559220960,,osm,Rung Chiang Rai Resort,,,guest_house,guest_house,False,19.9451818,99.882173,,Road behind Airport,+66837788802,,,,guest_house,,,,,1,4,3,+2 tourism category ; +2 phone,
osm:12003199969,,osm,Tanya House,,,guest_house,guest_house,False,19.9035394,99.8359686,,,089 851 7501,,,,guest_house,,,,,1,4,3,+2 tourism category ; +2 phone,
osm:12420693201,,osm,Sabun-Nga Hotel,,,hotel,hotel,False,19.9012664,99.8223604,,"50, สันโค้งน้อย ซอย 6",+66 88 959 6299,,,,hotel,,,,,1,4,3,+2 tourism category ; +2 phone,
osm:12531973317,,osm,Grow,,Grow,hotel,hotel,False,19.9007451,99.8350327,,,+66 64 964 5905,,,,hotel,,,,,1,4,3,+2 tourism category ; +2 phone,
osm:13114007101,,osm,Sleep and Rest Makao,,,guest_house,guest_house,False,19.9402052,99.8353873,,,0960825759,,,,guest_house,,,,,1,4,3,+2 tourism category ; +2 phone,
osm:13175302925,,osm,NT House,,,apartment,apartment,False,19.9619397,99.8575984,,"69, Mueang Chiang Rai, Chiang Rai, 57100",+66 62 663 9954,,,,apartment,,,,,1,4,3,+2 tourism category ; +2 phone,
osm:168838007,,osm,Sabai Inn,,,hotel,hotel,False,,,,,+6657566001,,,,hotel,,,,,1,4,3,+2 tourism category ; +2 phone,
osm:256549538,,osm,B2 Night Bazaar Chiang Rai,,,hotel,hotel,False,,,,"30 Moo 17, ถนน สันคอกช้าง, 57000",+66 52 020 767,,,,hotel,,,,,1,4,3,+2 tourism category ; +2 phone,
osm:276673612,,osm,Baanpinkaew rental room chaingrai,,,hotel,hotel,False,,,,"25/3, 1233, chaing rai, 57000",0812887625,www.baanpinkaew.com,,,hotel,,,,,1,4,3,+2 tourism category ; +2 phone,
osm:374912094,,osm,Chiang Rai Condotel,เชียงรายคอนโดเทล,Chiang Rai Condotel,apartment,apartment,False,,,,"72, ถนน อุตรกิจ, เชียงราย, 57000",+6653716060,,,,apartment,,,,,1,4,3,+2 tourism category ; +2 phone,
osm:384839057,,osm,Chedi Chiangrai Boutique Hotel,,,hotel,hotel,False,,,,,+66 53 601756,,,,hotel,,,,,1,4,3,+2 tourism category ; +2 phone,
osm:384839061,,osm,โรงแรมบีทู เชียงราย,,B2 Chinga Rai Hotel,hotel,hotel,False,,,,"162, ถนน บรรพปราการ, เชียงราย, 57000",0616179097,,,,hotel,,,,,1,4,3,+2 tourism category ; +2 phone,
osm:387051580,,osm,บ้านบัวรีสอร์ท,บ้านบัวรีสอร์ท,Baan Bua Resort,hotel,hotel,False,,,,,+6652020140,,,,hotel,,,,,1,4,3,+2 tourism category ; +2 phone,
osm:440958818,,osm,Huen Chan Thip,,,hotel,hotel,False,,,,168/2,+6653712087,,,,hotel,,,,,1,4,3,+2 tourism category ; +2 phone,
osm:484139933,,osm,Jansom House,,,guest_house,guest_house,False,,,,,+6653714779,,,,guest_house,,,,,1,4,3,+2 tourism category ; +2 phone,
osm:641783506,,osm,The Space Hotel,,,hotel,hotel,False,,,,930/14,+66 53600422,,,,hotel,,,,,1,4,3,+2 tourism category ; +2 phone,
osm:751059205,,osm,โรงแรมสบาย,,Sabai Hotel,hotel,hotel,False,,,,,+66 53719292,,,,hotel,,,,,1,4,3,+2 tourism category ; +2 phone,
osm:772907453,,osm,Unique Resident,,,hotel,hotel,False,,,,,0882532964,,,,hotel,,,,,1,4,3,+2 tourism category ; +2 phone,
osm:959733155,,osm,หอพักหญิงวิมลสิริ,,Vimonsiri Women Apartment,apartment,apartment,False,,,,,0841775986,,,,apartment,,,,,1,4,3,+2 tourism category ; +2 phone,
osm:967461600,,osm,พิมานเพลส,พิมานเพลส,Pimann Place,hotel,hotel,False,,,,,+6653711900,,,,hotel,,,,,1,4,3,+2 tourism category ; +2 phone,
osm:990683015,,osm,เฮือนอำพรรณ,เฮือนอำพรรณ,Huan Amphan,apartment,apartment,False,,,,,+6653716723,https://www.facebook.com/HuanAmphan/,,,apartment,,,,,1,4,3,+2 tourism category ; +2 phone,
osm:990683037,,osm,บ้านอัญชลี,บ้านอัญชลี,Bann Anchalee,apartment,apartment,False,,,,"123/1, เกาะลอยซอย 12, เชียงราย, 57000",+6653716832,,,,apartment,,,,,1,4,3,+2 tourism category ; +2 phone,
osm:1105521795,,osm,Le Patta,,Le Patta,hotel,hotel,False,,,,"610, ถนนพหลโยธิน, เชียงราย, 57000",+66 053 600680,,,,hotel,,,,,1,4,3,+2 tourism category ; +2 phone,
osm:1109542728,,osm,บ้านสวัสดี OYO,บ้านสวัสดี OYO,OYO Baan Sawasdee,guest_house,guest_house,False,,,,,+66 95 675 2215,,,,guest_house,,,,,1,4,3,+2 tourism category ; +2 phone,
osm:2140653245,,osm,ลาบสนามกีฬา,ลาบสนามกีฬา,Lap Sanamkila,restaurant,restaurant,True,19.9175727,99.8550995,,,087 173 2498,,,,restaurant,,,,,1,4,3,+2 tourism category ; +2 phone,
osm:2320605713,,osm,Da Vinci,,,restaurant,restaurant,True,19.9043927,99.8328763,,"879/4-6, Phaholyothin Road, Chiang Rai",+6653752535,,,,restaurant,,,,,1,4,3,+2 tourism category ; +2 phone,
osm:2716451601,,osm,Rosprasert Muslim Food,,,restaurant,restaurant,True,19.9082099,99.8294562,,,+6653715296;+66896337660,,,,restaurant,,,,,1,4,3,+2 tourism category ; +2 phone,
osm:3377404618,,osm,Moom Mai,,,restaurant,restaurant,True,19.9011419,99.8144526,,"64 Sangkhongluang Rd., Moo 16, T. Robwiang, Mueang Chiang Rai",053-716416 ----  062-6969398,https://www.facebook.com/moommai,,,restaurant,,,,,1,4,3,+2 tourism category ; +2 phone,
osm:4043595789,,osm,Chef Sasa,,,restaurant,restaurant,True,19.9039773,99.8330769,,,+66 84 8373389,https://www.facebook.com/Chef.sasa57,,,restaurant,,,,,1,4,3,+2 tourism category ; +2 phone,
osm:4208309896,,osm,Bua Coffee House,,,cafe,cafe,True,19.8948622,99.8274565,,,+66 96 8686483,,,,cafe,,,,,1,4,3,+2 tourism category ; +2 phone,
osm:4340629491,,osm,The Wanderer,,,cafe,cafe,True,19.9188619,99.8299651,,"537/1 Moo 4, Rim Kok, Chiang Rai 57100",063 932 3956,,,,cafe,,,,,1,4,3,+2 tourism category ; +2 phone,
osm:4420657409,,osm,สุดยอดเนื้อตุ๋น2016,สุดยอดเนื้อตุ๋น2016,Jane Beef 2016,restaurant,restaurant,True,19.9247766,99.845283,,"395 หมู่2, ถนนพหลโยธิน, ตำบลริมกก, 57100",+66897554087,https://www.facebook.com/JaneBeef2016/,,,restaurant,,,,,1,4,3,+2 tourism category ; +2 phone,
osm:4460020797,,osm,Chiang Rai Delicatessen,Chiang Rai Delicatessen,,restaurant,restaurant,True,19.9060898,99.8056446,,,+66 90 7502848,,,,restaurant,,,,,1,4,3,+2 tourism category ; +2 phone,
osm:4555833893,,osm,ดามา คาเฟ่ เชียงราย,,DaMa Cafe Chingrai,cafe,cafe,True,19.9236466,99.8505213,,"353/1, ซอยท่าแพ, ริมกก, เมือง, เชียงราย, 57100",0969256535,https://www.facebook.com/damacafe,,,cafe,,,,,1,4,3,+2 tourism category ; +2 phone,
osm:4627930691,,osm,ส้มตำติดปาก@เชียงราย,,Somtamtidpak@Chiangrai,restaurant,restaurant,True,19.900768,99.8371266,,"ถนน สันคอกช้าง, 57000",0641693619,,,,restaurant,,,,,1,4,3,+2 tourism category ; +2 phone,
osm:4641471163,,osm,น้ำเงี้ยว ป้าสุข,น้ำเงี้ยว ป้าสุข,Nam Ngiao Pa Suk,restaurant,restaurant,True,19.9015664,99.8230395,,,+6653752471,,,,restaurant,,,,,1,4,3,+2 tourism category ; +2 phone,
osm:4652615988,,osm,Zoomkungten Nonpueng,,,restaurant,restaurant,True,19.887287,99.8021204,,,0816815612,,,,restaurant,,,,,1,4,3,+2 tourism category ; +2 phone,
osm:5369325522,,osm,Polar Boulangerie and Patisserie,,Polar Boulangerie and Patisserie,cafe,cafe,True,19.9084886,99.7830766,,,+66 873669366,,,,cafe,,,,,1,4,3,+2 tourism category ; +2 phone,
osm:5470310925,,osm,,,Café de Mow,cafe,cafe,True,19.8990917,99.8202405,,,0951429962,,,,cafe,,,,,1,4,3,+2 tourism category ; +2 phone,
osm:5608631523,,osm,,,Kahawa Café & Bakery,cafe,cafe,True,19.8665318,99.7725156,,,082-8812245,,,,cafe,,,,,1,4,3,+2 tourism category ; +2 phone,
osm:6123156473,,osm,อีซี่ เฮาส์,อีซี่ เฮาส์,Easy House,restaurant,restaurant,True,19.9051853,99.8314721,,"Pemavipat Rd, Tambon Wiang, Amphoe Mueang Chiang Rai, Chang Wat Chiang Rai 57000",053 600 963,,,,restaurant,,,,,1,4,3,+2 tourism category ; +2 phone,
osm:6632634295,,osm,บาลานซ์ บีน : Balanced Bean Chiangrai,,,cafe,cafe,True,20.0043958,99.8679897,,"43, Nang lae, Mueang Chiang Rai, Chiang Rai, 57100",0932213516,https://www.facebook.com/BalancedBean,,,cafe,,,,,1,4,3,+2 tourism category ; +2 phone,
osm:6822960510,,osm,Jianghai Kitchen,,,restaurant,restaurant,True,19.9087145,99.85302,,"23/1, ถนนหน้าสนามกีฬา, รอบเวียง, 57000",+66968606368,,,,restaurant,,,,,1,4,3,+2 tourism category ; +2 phone,
osm:7083810785,,osm,,,,restaurant,restaurant,True,19.9048832,99.8313377,,,0897005484,,,,restaurant,,,,,1,4,3,+2 tourism category ; +2 phone,
osm:7199874885,,osm,Akha Cottage,,Akha Cottage Coffee,cafe,cafe,True,19.9451276,99.7959892,,"167 Moo 6, Tambon Mae Yao, Mueang Chiang Rai",084-610-7686,,,,cafe,,,,,1,4,3,+2 tourism category ; +2 phone,
osm:7230545870,,osm,Bechegu Coffee,,,cafe,cafe,True,19.904055,99.8229346,,,+66 86 430 2593,,,,cafe,,,,,1,4,3,+2 tourism category ; +2 phone,
osm:7871068979,,osm,Neam-Nueang,,,restaurant,restaurant,True,19.9777378,99.8681275,,,089-159-9228,,,,restaurant,,,,,1,4,3,+2 tourism category ; +2 phone,
osm:8332801960,,osm,Dinosaur,,,restaurant,restaurant,True,19.9763094,99.8596672,,"159 Moo 3, Phahon Yothin Road",0943246562,,,,restaurant,,,,,1,4,3,+2 tourism category ; +2 phone,
osm:8440021025,,osm,บุหงา ตานี Cafe' & Bistro,,,cafe,cafe,True,19.906715,99.8250655,,"162, ถนน บรรพปราการ, เชียงราย, 57000",0616179097,,,,cafe,,,,,1,4,3,+2 tourism category ; +2 phone,
osm:8793920817,,osm,Tum Bukhung,,,restaurant,restaurant,True,19.9652997,99.8553352,,Phahon Yothin Road,0956890659,,,,restaurant,,,,,1,4,3,+2 tourism category ; +2 phone,
osm:8938699740,,osm,IROHA Ramen & Izakaya Chiang Rai - อิโรฮะ ราเมง & อิซากายะ เชียงราย,,,restaurant,restaurant,True,19.8865097,99.8337098,,,+66 83 473 7774,https://www.facebook.com/IrohaRamenChiangRai,,,restaurant,,,,,1,4,3,+2 tourism category ; +2 phone,
osm:9121752693,,osm,ครัวครูนุ้ย,ครัวครูนุ้ย,Kru Nui's Kitchen,restaurant,restaurant,True,19.9050615,99.8190284,,,+66612916991,,,,restaurant,,,,,1,4,3,+2 tourism category ; +2 phone,
osm:9124114260,,osm,หอมจันทร์,หอมจันทร์,Homchan,restaurant,restaurant,True,19.9064095,99.8276864,,"390, Banphaprakarn Road, Wiang, Mueang Chiang Rai, Chiang Rai, 57000","+6653727360 , +6653727361",https://m.facebook.com/Homchanchiangrai,,,restaurant,,,,,1,4,3,+2 tourism category ; +2 phone,
osm:9134235590,,osm,กิ๋นลำ ยำฟอร์ยู,กิ๋นลำ ยำฟอร์ยู,Gin Lam Yum For You,restaurant,restaurant,True,19.902357,99.8253234,,,+66617960112,,,,restaurant,,,,,1,4,3,+2 tourism category ; +2 phone,
osm:9134235591,,osm,ปูอ่องอุ้ยหม่อน,ปูอ่องอุ้ยหม่อน,Ui Mon Crab,restaurant,restaurant,True,19.9022404,99.8253358,,,+66869128222,,,,restaurant,,,,,1,4,3,+2 tourism category ; +2 phone,
osm:9136808621,,osm,ส้มตำเจ็ดยอด,ส้มตำเจ็ดยอด,Somtam Jedyod,restaurant,restaurant,True,19.9033012,99.8317619,,,+66818843347,,,,restaurant,,,,,1,4,3,+2 tourism category ; +2 phone,
osm:9152413268,,osm,ชลดา ชานมไข่มุก,ชลดา ชานมไข่มุก,Chonlada Bubble Tea,cafe,cafe,True,19.9035382,99.8206787,,,+66955658524,,,,cafe,,,,,1,4,3,+2 tourism category ; +2 phone,
osm:9169961967,,osm,Mon ZaiZee,,,restaurant,restaurant,True,19.9323131,99.784582,,Near to Ban Pa O,0899550942,,,,restaurant,,,,,1,4,3,+2 tourism category ; +2 phone,
osm:9195439434,,osm,ลาบเจียงฮาย คนมักลาบ สี่แยกแม่ข้าวต้ม,,,restaurant,restaurant,True,20.0105898,99.8939034,,"34/1 หมู่16 บ้านป่าซางหัวฝาย, บายพาส, แม่ข้าวต้ม, 57100",089-4832185,,,,restaurant,,,,,1,4,3,+2 tourism category ; +2 phone,
osm:9252000140,,osm,@ Nine Cafe Chiang Rai,,,cafe,cafe,True,19.9936933,99.8646831,,Phahon Yothin Road,089-7581198,,,,cafe,,,,,1,4,3,+2 tourism category ; +2 phone,
osm:9292232344,,osm,Cafe atHome,,,cafe,cafe,True,20.0441964,99.8645889,,,094-629-4055 / 099-295-6298,www.facebook.com / cafeathomechiangrai,,,cafe,,,,,1,4,3,+2 tourism category ; +2 phone,
osm:9333272717,,osm,,,Soyi Pangkhon Coffee House,cafe,cafe,True,19.9057403,99.8333042,,,+66 62 4041892,,,,cafe,,,,,1,4,3,+2 tourism category ; +2 phone,
osm:9435642293,,osm,Sabroso,,,restaurant,restaurant,True,19.921866,99.8337784,,"205/3 Moo 4 Rimkok, Klang Wiang Road",0902500570,,,,restaurant,,,,,1,4,3,+2 tourism category ; +2 phone,
osm:9500275038,,osm,UD Coffee House,,,cafe,cafe,True,19.9781409,99.8421709,,,098-771-1404,,,,cafe,,,,,1,4,3,+2 tourism category ; +2 phone,
osm:9516650206,,osm,Ban Suan Shrimp Farm,บ่อกุ้ง บ้านสวน,,restaurant,restaurant,True,19.9014062,99.8081109,,ถนนวัดใหม่หน้าค่าย,053758139,,,,restaurant,,,,,1,4,3,+2 tourism category ; +2 phone,
osm:9587581728,,osm,Namneung Station,,,restaurant,restaurant,True,19.8948381,99.8572559,,,098 564 1535,,,,restaurant,,,,,1,4,3,+2 tourism category ; +2 phone,
osm:9645107749,,osm,Alpha pastry&cafe,,,cafe,cafe,True,19.9027826,99.8149842,,"196/1 Ratyotha Road, Dong Mada, 57100 Chiang Rai",083 818 0889,,,,cafe,,,,,1,4,3,+2 tourism category ; +2 phone,
osm:9669590803,,osm,Lung Tor Yoddoi Coffee,,,restaurant,restaurant,True,19.945583,99.8195726,,132 หมู่14ต.บ้านดู่ อ.เมือง จ.เชียงราย 57100,081 885 4795,,,,restaurant,,,,,1,4,3,+2 tourism category ; +2 phone,
osm:9941448217,,osm,,,Akha Hill,cafe,cafe,True,19.9070605,99.8265857,,,+66 62 397 1572,,,,cafe,,,,,1,4,3,+2 tourism category ; +2 phone,
osm:10199600350,,osm,La Ola,,La Ola,restaurant,restaurant,True,19.9069186,99.8312731,,"528/8-9 13 14, ถนน บรรณปราการ, เวียง, เมืองเชียงราย, Chiang Rai, เชียงราย, 57000",+6685 354 7850,https://www.facebook.com/profile.php?id=100063611283405,,,restaurant,,,,,1,4,3,+2 tourism category ; +2 phone,
osm:10201640190,,osm,A.NA cuisine & coffee,,,cafe,cafe,True,19.8679524,99.8343895,,"51 หมู่ 6, ตำบลสันทราย, 57000",+66 95 685 2392,https://www.facebook.com/a.na.cuisineandcoffee,,,cafe,,,,,1,4,3,+2 tourism category ; +2 phone,
osm:10201669214,,osm,A.NA cuisine & coffee,,,restaurant,restaurant,True,19.8680273,99.8345419,,"51 หมู่ 6, ตำบลสันทราย, 57000",+66 95 685 2392,https://www.facebook.com/a.na.cuisineandcoffee,,,restaurant,,,,,1,4,3,+2 tourism category ; +2 phone,
osm:10296478235,,osm,Fallen Fruit,,Fallen Fruit,cafe,cafe,True,19.9009005,99.8324243,,,+6695 950 9462,https://instagram.com/fallenfruit.cei,,,cafe,,,,,1,4,3,+2 tourism category ; +2 phone,
osm:10716139619,,osm,Suansin Coffee House สวนศิลป์,,Suansin Coffee House,cafe,cafe,True,20.0103922,99.8068192,,,0625289050,,,,cafe,,,,,1,4,3,+2 tourism category ; +2 phone,
osm:10743319577,,osm,Amici Pizza CEI อมีซี พิซซ่า เชียงราย,,,restaurant,restaurant,True,19.9062772,99.8380783,,"703/1, ถนน บรรณปราการ, เชียงราย, 57000",+66980547878,www.facebook.com/amici.cei,,,restaurant,,,,,1,4,3,+2 tourism category ; +2 phone,
osm:10770351663,,osm,TCOS Cafe,,,cafe,cafe,True,19.9777167,99.8589333,,"580, ถนนพหลโยธิน, chiang rai, 57100",+66999688508,,,,cafe,,,,,1,4,3,+2 tourism category ; +2 phone,
osm:11041552867,,osm,eden Cafe,,,restaurant,restaurant,True,20.0374176,99.8313345,,,052 020 396,,,,restaurant,,,,,1,4,3,+2 tourism category ; +2 phone,
osm:11250334113,,osm,Sirin Home,,,cafe,cafe,True,19.9549845,99.8573967,,"622 Moo 17 Ban Du, Mueang Chiang Rai, Chiang Rai 57100",081 476 2292,,,,cafe,,,,,1,4,3,+2 tourism category ; +2 phone,
osm:11284298556,,osm,ร้านเต๋มปุ๋มหน้ามอ,,,restaurant,restaurant,True,19.9784563,99.8574836,,"345/9, หน้ามอราชภัฏฝั่งขาออก ซอยร้านหมีพ่นไฟ, chiang rai, 57100",0987485595,,,,restaurant,,,,,1,4,3,+2 tourism category ; +2 phone,
osm:11465595969,,osm,ข้าวซอยรอบเกาะ,,KhaoSoi RopKoh,restaurant,restaurant,True,19.9015618,99.8235888,,,0805137558,,,,restaurant,,,,,1,4,3,+2 tourism category ; +2 phone,
osm:11630807969,,osm,ปั่น ปันรักคาเฟ่,,Pun Pun Rak Cafe,ice_cream,ice_cream,False,19.9088308,99.8362132,,"673, ถนน ธนาลัย, 57000",0937574897,,,,ice_cream,,,,,1,4,3,+2 tourism category ; +2 phone,
osm:11632530370,,osm,soofa@mailto.plus,ปั่น ปันรัก,Pun Pun Rank Cafe,ice_cream,ice_cream,False,19.9088254,99.8362026,,"673 / 3, ถนน ธนาลัย, 54000",0937574897,,,,ice_cream,,,,,1,4,3,+2 tourism category ; +2 phone,
osm:11893650113,,osm,หมีเพลิน MeehPloen Cafe,,,cafe,cafe,True,19.8990183,99.829728,,"952/7, ถนนร่วมจิตถวาย, เชียงราย, 57000",+66815186944,https://www.facebook.com/Meehploen/,,,cafe,,,,,1,4,3,+2 tourism category ; +2 phone,
osm:12422032176,,osm,เจ้าหมูชาบู Jaomooshabu,,,restaurant,restaurant,True,19.9758996,99.8624225,,"468/12-13, บ้านดู่, เมือง, เชียงราย, 57100",0612674988,https://www.facebook.com/profile.php?id=61563808474369,,,restaurant,,,,,1,4,3,+2 tourism category ; +2 phone,
osm:12528671319,,osm,Praepiangpor,,,restaurant,restaurant,True,19.9867892,99.8580314,,,084-5195442,,,,restaurant,,,,,1,4,3,+2 tourism category ; +2 phone,
osm:12606010962,,osm,MJ Shabu,,,restaurant,restaurant,True,19.9786673,99.8596492,,"141/8, ถนนพหลโยธิน, เชียงราย, เชียงราย, 57100",0931979212,,,,restaurant,,,,,1,4,3,+2 tourism category ; +2 phone,
osm:12849029237,,osm,My Paradise Cafe & Bakery,,,cafe,cafe,True,19.9226891,99.7592755,,,089636574544,,,,cafe,,,,,1,4,3,+2 tourism category ; +2 phone,
osm:12850666382,,osm,Lan Hong Nam,,,restaurant,restaurant,True,19.9691905,99.8436399,,,0866599909,,,,restaurant,,,,,1,4,3,+2 tourism category ; +2 phone,
osm:12886029150,,osm,ฟู่หมูย่างฮ่องกง,,,restaurant,restaurant,True,19.9064263,99.837061,,"ถนนศรีเกิด, ตำบลเวียง, เมือง, เชียงราย, 57000",+66 90 328 8777,,,,restaurant,,,,,1,4,3,+2 tourism category ; +2 phone,
osm:12890174172,,osm,47% Coffee,,,cafe,cafe,True,19.9788661,99.8570565,,,0830204841,,,,cafe,,,,,1,4,3,+2 tourism category ; +2 phone,
osm:13005813660,,osm,Bechegu Coffee,,,cafe,cafe,True,20.0091545,99.8927311,,,086 451 8401,,,,cafe,,,,,1,4,3,+2 tourism category ; +2 phone,
osm:13088652944,,osm,กวางตุ้ง,,Kwangtung,restaurant,restaurant,True,19.9048814,99.8099217,,"293/1, ถนนหน้าค่าย, รอบเวียง, เมืองเชียงราย, เชียงราย, 57000",+66 80 553 6289,,,,restaurant,,,,,1,4,3,+2 tourism category ; +2 phone,
osm:13114007401,,osm,Makao Coffee Retro,ม่ะเก่า Coffee & Retro,,cafe,cafe,True,19.940316,99.8356466,,"San tan lueang Soi 2/3, 57100",09608255759,,,,cafe,,,,,1,4,3,+2 tourism category ; +2 phone,
osm:13114007901,,osm,Le chariot Ban Kasem Luang,,,restaurant,restaurant,True,20.0473772,99.8670523,,,0635042446,,,,restaurant,,,,,1,4,3,+2 tourism category ; +2 phone,
osm:13172468614,,osm,Durian Cafe' Chiang Rai,,,restaurant,restaurant,True,19.9832681,99.8923122,,,082 641 4256,,,,restaurant,,,,,1,4,3,+2 tourism category ; +2 phone,
osm:13180119312,,osm,ครัวคุณยาย ก๋วยเตี๋ยว อาหารตามสั่ง,,,restaurant,restaurant,True,19.9068174,99.7936012,,"ถนนป่างิ้ว, รอบเวียง, เมืองเชียงราย, เชียงราย, 57000",+66 98 150 5155,,,,restaurant,,,,,1,4,3,+2 tourism category ; +2 phone,
osm:13180132664,,osm,เจ๊ติ๋ม ข้าวมันไก่ ข้าวขาหมู ชา กาแฟ,,,restaurant,restaurant,True,19.9068464,99.7936039,,"ถนนป่างิ้ว, รอบเวียง, เมืองเชียงราย, เชียงราย, 57000",+66 63 729 6646,,,,restaurant,,,,,1,4,3,+2 tourism category ; +2 phone,
osm:13261753744,,osm,Yellow Truck Coffee,,,restaurant,restaurant,True,19.90701,99.831154,,"7ยอด,ถนนบรรพปราการ, รอบเวียง, เมืองเชียงราย, เชียงราย, 57000","0861180044, 0869245378",,,,restaurant,,,,,1,4,3,+2 tourism category ; +2 phone,
osm:13360754833,,osm,Madam M Cafe,,,cafe,cafe,True,20.0281343,99.8563286,,,0973049049,,,,cafe,,,,,1,4,3,+2 tourism category ; +2 phone,
osm:13435252058,,osm,Good Carb,,Good Carb,restaurant,restaurant,True,19.8990765,99.832417,,,+66 96 326 6545,,,,restaurant,,,,,1,4,3,+2 tourism category ; +2 phone,
osm:13624994701,,osm,,,Pinan thaifood (พินันท์ ไทยฟู้ด),restaurant,restaurant,True,19.9068172,99.8311236,,,+66 90 262 4144,,,,restaurant,,,,,1,4,3,+2 tourism category ; +2 phone,
osm:13651622201,,osm,Bella Pizza,,,restaurant,restaurant,True,19.9127924,99.8335191,,,094-705-7089,,,,restaurant,,,,,1,4,3,+2 tourism category ; +2 phone,
osm:436490687,,osm,Loft Loft coffee & car wash,,,cafe,cafe,True,,,,"136/1, หมู่บ้านลดาวัลย์, เชียงราย, 57000",+66 89 7004533,,,,cafe,,,,,1,4,3,+2 tourism category ; +2 phone,
osm:551185211,,osm,Hungry Wolfs Steak & Ale House,ฮังกรีวูฟล์ สเต็กเฮาส์,,restaurant,restaurant,True,,,,,+66 94 7176165,https://www.facebook.com/hungrywolfs,,,restaurant,,,,,1,4,3,+2 tourism category ; +2 phone,
osm:653519354,,osm,Give Green Farm House,,Give Green Farm House,restaurant,restaurant,True,,,,,+66 81 090 1805,,,,restaurant,,,,,1,4,3,+2 tourism category ; +2 phone,
osm:711051061,,osm,Awe's Cafe,,,cafe,cafe,True,,,,,+66810234164,,,,cafe,,,,,1,4,3,+2 tourism category ; +2 phone,
osm:964471973,,osm,Ribs & Co.,,,restaurant,restaurant,True,,,,"509/2, ถนนพหลโยธืน, Chiang Rai, 57000",+6652059956,,,,restaurant,,,,,1,4,3,+2 tourism category ; +2 phone,
osm:967419243,,osm,โอชิเน เชียงราย,โอชิเน เชียงราย,Oshine Chignarai,restaurant,restaurant,True,,,,,+66631145444,https://www.facebook.com/oshineichiangrai/,,,restaurant,,,,,1,4,3,+2 tourism category ; +2 phone,
osm:967419247,,osm,Cafe number Ei8ht,,,cafe,cafe,True,,,,,+66951378998,https://facebook.com/cafenumberei8ht/,,,cafe,,,,,1,4,3,+2 tourism category ; +2 phone,
osm:998068499,,osm,แม่แก้วภา,แม่แก้วภา,,restaurant,restaurant,True,,,,,+66864310122,,,,restaurant,,,,,1,4,3,+2 tourism category ; +2 phone,
osm:1115470938,,osm,A.NA cuisine & coffee,,,cafe,cafe,True,,,,"51 หมู่ 6, ตำบลสันทราย, 57000",+66 95 685 2392,https://www.facebook.com/a.na.cuisineandcoffee,,,cafe,,,,,1,4,3,+2 tourism category ; +2 phone,
osm:1197823633,,osm,Heaven Café : Marble,,,cafe,cafe,True,,,,"406, ban du, chiang rai, 57100",0883300455,https://www.facebook.com/Heavencafe.marble,,,cafe,,,,,1,4,3,+2 tourism category ; +2 phone,
osm:1389426325,,osm,บาลานซ์ บีน : Balanced Bean Chiangrai,,,cafe,cafe,True,,,,"43, Nang lae, Mueang Chiang Rai, Chiang Rai, 57100",0932213516,https://www.facebook.com/BalancedBean,,,cafe,,,,,1,4,3,+2 tourism category ; +2 phone,
osm:1061692929,,osm,COMBO 4 Fitness,,,fitness_centre,fitness_centre,False,,,,"42 M.15, ราชโยธา ซอย 2/8 (ซอย เชตุพน), เชียงราย, 57000",+66884340147,https://www.facebook.com/COMBO4FITNESS,mathasith12@gmail.com,,fitness_centre,,,,,0,3,2,+2 phone ; +1 email,
osm:906244423,,osm,Garden House,,,guest_house,guest_house,False,19.9063682,99.8253043,,,,,,,guest_house,,,,,1,2,1,+2 tourism category,
osm:1188707070,,osm,Jitaree Guest House,,,guest_house,guest_house,False,19.9140062,99.8342522,,,,,,,guest_house,,,,,1,2,1,+2 tourism category,
osm:1445536944,,osm,กรุงทอง,กรุงทอง,,hotel,hotel,False,19.9054207,99.8290222,,,,,,,hotel,,,,,1,2,1,+2 tourism category,
osm:1789540426,,osm,,,,bar,bar,True,19.8786676,99.8302687,,,,,,,bar,,,,,1,2,1,+2 tourism category,
osm:2140533976,,osm,Club BJ,,,nightclub,nightclub,False,19.8927412,99.8067974,,,,,,,nightclub,,,,,1,2,1,+2 tourism category,
osm:2148895479,,osm,Y.M.C.A. Chiang Rai,,,hostel,hostel,False,19.944505,99.8475298,,,,,,,hostel,,,,,1,2,1,+2 tourism category,
osm:2151144971,,osm,Gear Zix,,,pub,pub,True,19.9754132,99.8585448,,,,,,,pub,,,,,1,2,1,+2 tourism category,
osm:2316641264,,osm,Mae Hong Son Guest House,,,guest_house,guest_house,False,19.9136125,99.8341649,,,,,,,guest_house,,,,,1,2,1,+2 tourism category,
osm:2316646738,,osm,Sunantha House,,,guest_house,guest_house,False,19.9139127,99.833226,,,,,,,guest_house,,,,,1,2,1,+2 tourism category,
osm:2317829553,,osm,,,,bar,bar,True,19.9092488,99.8356728,,,,,,,bar,,,,,1,2,1,+2 tourism category,
osm:2317834209,,osm,,,,attraction,attraction,False,19.9079613,99.8351187,,,,,,,attraction,,,,,1,2,1,+2 tourism category,
osm:2326811260,,osm,Akha River House,,,guest_house,guest_house,False,19.9159406,99.8322139,,,,,,,guest_house,,,,,1,2,1,+2 tourism category,
osm:2328179585,,osm,The Indian,,,bar,bar,True,19.9030508,99.8324941,,,,,,,bar,,,,,1,2,1,+2 tourism category,
osm:2328179586,,osm,Hangover,,,bar,bar,True,19.9030388,99.8325742,,,,,,,bar,,,,,1,2,1,+2 tourism category,
osm:2448228278,,osm,,,Park Inn,hotel,hotel,False,19.9137037,99.8412556,,,,,,,hotel,,,,,1,2,1,+2 tourism category,
osm:2450214473,,osm,,,Hi 5 Bar,bar,bar,True,19.9065073,99.8311628,,,,,,,bar,,,,,1,2,1,+2 tourism category,
osm:2450215744,,osm,Moon House,,,hotel,hotel,False,19.9067053,99.8311691,,,,,,,hotel,,,,,1,2,1,+2 tourism category,
osm:3214076232,,osm,,,Huean Him Kok,guest_house,guest_house,False,19.9215405,99.8443892,,,,,,,guest_house,,,,,1,2,1,+2 tourism category,
osm:3339347495,,osm,Saikaew Resort,,,hotel,hotel,False,19.8948644,99.8171014,,,,,,,hotel,,,,,1,2,1,+2 tourism category,
osm:3339667075,,osm,Homey Dormy,,,hotel,hotel,False,19.8888157,99.8290081,,,,,,,hotel,,,,,1,2,1,+2 tourism category,
osm:3357655423,,osm,Waterfall,,,viewpoint,viewpoint,False,20.0329792,99.7536204,,,,,,,viewpoint,,,,,1,2,1,+2 tourism category,
osm:3864961253,,osm,เชียงราย ม่วนใจ๋,,Chiang Rai Muan Jai Homestay,hotel,hotel,False,19.9561759,99.7878928,,,,,,,hotel,,,,,1,2,1,+2 tourism category,
osm:3939947273,,osm,วัดถ้ำพระ,วัดถ้ำพระ,Wat Tham Phra,attraction,attraction,False,19.9176267,99.7888595,,,,,,,attraction,,,,,1,2,1,+2 tourism category,
osm:3997163853,,osm,Foreste Resort & Spa,,,hotel,hotel,False,19.892029,99.8185011,,,,,,,hotel,,,,,1,2,1,+2 tourism category,
osm:3997580491,,osm,Monfhasi Home Resort,,,hotel,hotel,False,19.9765769,99.8414159,,,,,,,hotel,,,,,1,2,1,+2 tourism category,
osm:4009706746,,osm,Na-Rak-O Resort,,,hotel,hotel,False,19.9023054,99.8349719,,Chiang Rai,,,,,hotel,,,,,1,2,1,+2 tourism category,
osm:4045350216,,osm,CR Rimkok Terminal Resort,,,guest_house,guest_house,False,19.9111394,99.7850991,,,,,,,guest_house,,,,,1,2,1,+2 tourism category,
osm:4096962288,,osm,Pan Kled Villa Eco Hill Resort,,,guest_house,guest_house,False,19.8893833,99.8196121,,,,,,,guest_house,,,,,1,2,1,+2 tourism category,
osm:4130584206,,osm,Yellow Black,,,bar,bar,True,19.9065669,99.8319723,,,,,,,bar,,,,,1,2,1,+2 tourism category,
osm:4130587107,,osm,Simple Night,,,bar,bar,True,19.9067365,99.8319935,,,,,,,bar,,,,,1,2,1,+2 tourism category,
osm:4224625389,,osm,The North Hotel,,,hotel,hotel,False,19.9054429,99.8354205,,,,,,,hotel,,,,,1,2,1,+2 tourism category,
osm:4229211891,,osm,Chiang Rai living ,,,hostel,hostel,False,19.9046533,99.8303016,,,,,,,hostel,,,,,1,2,1,+2 tourism category,
osm:4250901789,,osm,Malina Ville Hotel,,,hotel,hotel,False,19.9066935,99.8415691,,,,,,,hotel,,,,,1,2,1,+2 tourism category,
osm:4288390999,,osm,,,,guest_house,guest_house,False,19.8669864,99.7899222,,,,,,,guest_house,,,,,1,2,1,+2 tourism category,
osm:4308390491,,osm,Happynest inspiring hostel,,,hostel,hostel,False,19.8996397,99.8325708,,,,,,,hostel,,,,,1,2,1,+2 tourism category,
osm:4395544219,,osm,Hang Out Bar,,,bar,bar,True,19.9364757,99.8432718,,,,,,,bar,,,,,1,2,1,+2 tourism category,
osm:4465658389,,osm,,,Morning Dew Lodge,hotel,hotel,False,19.9081961,99.8241021,,,,,,,hotel,,,,,1,2,1,+2 tourism category,
osm:4525351173,,osm,DeHug Hotel,,,hotel,hotel,False,19.9023106,99.8143513,,,,,,,hotel,,,,,1,2,1,+2 tourism category,
osm:4525394592,,osm,Cabbages & Condoms,,,hotel,hotel,False,19.9770771,99.8577292,,,,,,,hotel,,,,,1,2,1,+2 tourism category,
osm:4525397710,,osm,Black Berry,,,bar,bar,True,19.9802004,99.8600279,,,,,,,bar,,,,,1,2,1,+2 tourism category,
osm:4526414289,,osm,,,,hotel,hotel,False,19.9981648,99.8657104,,,,,,,hotel,,,,,1,2,1,+2 tourism category,
osm:4530704330,,osm,Nine King Kong,,,bar,bar,True,19.9779504,99.8573705,,,,,,,bar,,,,,1,2,1,+2 tourism category,
osm:4530704331,,osm,The Jaz Avenue,,,hotel,hotel,False,19.9778443,99.8546594,,,,,,,hotel,,,,,1,2,1,+2 tourism category,
osm:4530704338,,osm,พงษ์CR1,พงษ์CR1,Phong CR1,bar,bar,True,19.9782435,99.8557596,,,,,,,bar,,,,,1,2,1,+2 tourism category,
osm:4530776858,,osm,โรงแรมนันทชัย อินน์,โรงแรมนันทชัย อินน์,Nantha Chai Inn,guest_house,guest_house,False,19.9766418,99.8596711,,,,,,,guest_house,,,,,1,2,1,+2 tourism category,
osm:4537064690,,osm,มอนิ่งไซค์รีสอร์ท,,Morning Side resort,hostel,hostel,False,19.9746785,99.8415444,,,,,,,hostel,,,,,1,2,1,+2 tourism category,
osm:4547477490,,osm,,,,viewpoint,viewpoint,False,19.9179032,99.8355827,,,,,,,viewpoint,,,,,1,2,1,+2 tourism category,
osm:4548801193,,osm,,,Wannarit resident,hotel,hotel,False,19.8988664,99.8372315,,,,,,,hotel,,,,,1,2,1,+2 tourism category,
osm:4561505498,,osm,สถานี บ้านดอยฮาง,สถานี บ้านดอยฮาง,,viewpoint,viewpoint,False,19.9350352,99.7543003,,,,,,,viewpoint,,,,,1,2,1,+2 tourism category,
osm:4561703091,,osm,,,,hotel,hotel,False,19.9071182,99.8245056,,,,,,,hotel,,,,,1,2,1,+2 tourism category,
osm:4601714799,,osm,ชีกกี้ ชิคเคน บาร์,,Cheeky Chicken Bar,bar,bar,True,19.9047902,99.8313613,,,,,,,bar,,,,,1,2,1,+2 tourism category,
osm:4607722490,,osm,,,Ploy poo residence,hotel,hotel,False,19.9057776,99.8530063,,,,,,,hotel,,,,,1,2,1,+2 tourism category,
osm:4639290891,,osm,,,,viewpoint,viewpoint,False,19.8818331,99.8099589,,,,,,,viewpoint,,,,,1,2,1,+2 tourism category,
osm:4677905094,,osm,,,Petch Siam Hotel,hotel,hotel,False,19.8986647,99.8375746,,,,,,,hotel,,,,,1,2,1,+2 tourism category,
osm:4709226957,,osm,,,Golden Triangle Inn,hotel,hotel,False,19.9070041,99.8344385,,"Chiang Rai, 57000",,,,,hotel,,,,,1,2,1,+2 tourism category,
osm:4726238590,,osm,,,Snake Bar,bar,bar,True,19.9063861,99.8313167,,,,,,,bar,,,,,1,2,1,+2 tourism category,
osm:4726937490,,osm,,,Bavarian Beer House,bar,bar,True,19.906136,99.8312184,,,,,,,bar,,,,,1,2,1,+2 tourism category,
osm:4787402026,,osm,Sabai Jai Guesthouse & Cafe,,,guest_house,guest_house,False,19.9061239,99.8313774,,,,,,,guest_house,,,,,1,2,1,+2 tourism category,
osm:4825505122,,osm,บ้านความสุข,บ้านความสุข,Sook Cafe and Hostel,hostel,hostel,False,19.9051009,99.8330111,,,,,,,hostel,,,,,1,2,1,+2 tourism category,
osm:4982000321,,osm,,,Connect,hostel,hostel,False,19.8980883,99.8320606,,,,,,,hostel,,,,,1,2,1,+2 tourism category,
osm:5025717523,,osm,,,,attraction,attraction,False,19.9089315,99.8350881,,,,,,,attraction,,,,,1,2,1,+2 tourism category,
osm:5119730826,,osm,,,Nung Chalong,bar,bar,True,19.9065702,99.8321884,,,,,,,bar,,,,,1,2,1,+2 tourism category,
osm:5172409621,,osm,บ้านกุลหล้า,,Ban Kullar,guest_house,guest_house,False,19.9041461,99.8321197,,,,,,,guest_house,,,,,1,2,1,+2 tourism category,
osm:5240681823,,osm,,,Aussie Sport Bar & Grill,bar,bar,True,19.906035,99.8328079,,,,,,,bar,,,,,1,2,1,+2 tourism category,
osm:5338160358,,osm,Grace Hostel & Cafe,,,hostel,hostel,False,19.9031091,99.815045,,"ถนนหน้าค่าย, เชียงราย",,,,,hostel,,,,,1,2,1,+2 tourism category,
osm:5340195121,,osm,Lub Moh,,,hostel,hostel,False,19.9050322,99.8359738,,,,,,,hostel,,,,,1,2,1,+2 tourism category,
osm:5405986403,,osm,เล็ก เฮาส,,Lek house,hotel,hotel,False,19.9073544,99.8243656,,"95, ถนน บรรณปราการ, เชียงราย, 57000",,,,,hotel,,,,,1,2,1,+2 tourism category,
osm:5416307821,,osm,,,Ozone Guest House,hostel,hostel,False,19.903367,99.8138266,,,,,,,hostel,,,,,1,2,1,+2 tourism category,
osm:5422202924,,osm,,,Kanapee Hotel,hotel,hotel,False,19.9684204,99.8469425,,,,,,,hotel,,,,,1,2,1,+2 tourism category,
osm:5437690525,,osm,Dinner Late,,,bar,bar,True,19.9039836,99.8328665,,,,,,,bar,,,,,1,2,1,+2 tourism category,
osm:5588708823,,osm,bura resort,,,hotel,hotel,False,20.0167618,99.8085444,,,,,,,hotel,,,,,1,2,1,+2 tourism category,
osm:5588726022,,osm,,,,hotel,hotel,False,20.0165497,99.8089026,,,,,,,hotel,,,,,1,2,1,+2 tourism category,
osm:5590213325,,osm,,,,hotel,hotel,False,20.0168108,99.8087246,,,,,,,hotel,,,,,1,2,1,+2 tourism category,
osm:5593597421,,osm,,,Yoosook Hotel,hotel,hotel,False,19.8982372,99.8299533,,,,,,,hotel,,,,,1,2,1,+2 tourism category,
osm:5709223440,,osm,Maeyao Resort,,,hotel,hotel,False,19.9530046,99.7917436,,"342 ซอย 1 บ้านดงเจริญ, แม่ยาว, แม่ยาว, 57100",,,,,hotel,,,,,1,2,1,+2 tourism category,
osm:5731457922,,osm,,,Baan Mai Kradan Hostel Chiang Rai,hotel,hotel,False,19.9109254,99.8374824,,"647/1 Srikerd road, Wiang Mueang",,,,,hotel,,,,,1,2,1,+2 tourism category,
osm:5744403325,,osm,,,Sound Brown Coffee,guest_house,guest_house,False,19.9036853,99.8365056,,,,,,,guest_house,,,,,1,2,1,+2 tourism category,
osm:5801544553,,osm,,,,hotel,hotel,False,19.9029393,99.8370733,,,,,,,hotel,,,,,1,2,1,+2 tourism category,
osm:6041743087,,osm,,,Winter house chiang rai,hotel,hotel,False,19.9033341,99.8423402,,,,,,,hotel,,,,,1,2,1,+2 tourism category,
osm:6088181788,,osm,Som apartment - Airbnb,,,apartment,apartment,False,19.8960466,99.8351308,,,,,,,apartment,,,,,1,2,1,+2 tourism category,
osm:6217979490,,osm,,,Walking Saturday Night Market,attraction,attraction,False,19.9089271,99.8360508,,,,,,,attraction,,,,,1,2,1,+2 tourism category,
osm:6218636593,,osm,Norn Nung Len,,,bar,bar,True,19.9053896,99.8328486,,,,,,,bar,,,,,1,2,1,+2 tourism category,
osm:6260982385,,osm,,,Painting gallery,museum,museum,False,19.9923887,99.8596422,,,,,,,museum,,,,,1,2,1,+2 tourism category,
osm:6278749085,,osm,TT Hostel,,,motel,motel,False,19.9034073,99.8352275,,,,,,,motel,,,,,1,2,1,+2 tourism category,
osm:6282254486,,osm,,,Stay In Chiangrai,hostel,hostel,False,19.9019525,99.8253864,,"139/25, ถนน สันโค้งน้อย, 57000",,,,,hostel,,,,,1,2,1,+2 tourism category,
osm:6387160135,,osm,PaiLin House Chiang Rai,,,hostel,hostel,False,19.8925804,99.8170051,,"693/47 Moo 24, Rop Wiang Sub-district, Mueang, 57000",,,,,hostel,,,,,1,2,1,+2 tourism category,
osm:6496889986,,osm,,,Sofia Hostel,hostel,hostel,False,19.9060587,99.8324613,,,,,,,hostel,,,,,1,2,1,+2 tourism category,
osm:6528045798,,osm,เยส อินดีด,,Yes Indeed,bar,bar,True,19.8893766,99.8349396,,,,,,,bar,,,,,1,2,1,+2 tourism category,
osm:6528047103,,osm,พาร์คลับ,,Par Club,nightclub,nightclub,False,19.8893901,99.8346536,,,,,,,nightclub,,,,,1,2,1,+2 tourism category,
osm:6538568086,,osm,Ann,,,guest_house,guest_house,False,19.9033322,99.8353395,,,,,,,guest_house,,,,,1,2,1,+2 tourism category,
osm:6553248187,,osm,,,night maket,attraction,attraction,False,19.9702291,99.8574381,,,,,,,attraction,,,,,1,2,1,+2 tourism category,
osm:6633501792,,osm,,,Live music and cabaret show,attraction,attraction,False,19.904992,99.8336312,,,,,,,attraction,,,,,1,2,1,+2 tourism category,
osm:6634989285,,osm,,,Chaiwut home stay,guest_house,guest_house,False,19.9158846,99.8356146,,,,,,,guest_house,,,,,1,2,1,+2 tourism category,
osm:6635204708,,osm,,,Music during sunday walking street,attraction,attraction,False,19.9021216,99.8193056,,,,,,,attraction,,,,,1,2,1,+2 tourism category,
osm:6635204710,,osm,,,Baan Tetikarn,guest_house,guest_house,False,19.9003734,99.8208795,,,,,,,guest_house,,,,,1,2,1,+2 tourism category,
osm:6635204787,,osm,,,Melt home cooking class,attraction,attraction,False,19.9177394,99.8358221,,,,,,,attraction,,,,,1,2,1,+2 tourism category,
osm:6976558585,,osm,,,Siam Sport Bar,bar,bar,True,19.9058835,99.832244,,,,,,,bar,,,,,1,2,1,+2 tourism category,
osm:6976569285,,osm,,,Sook Cafe and Hostel,hostel,hostel,False,19.9052404,99.8329734,,,,,,,hostel,,,,,1,2,1,+2 tourism category,
osm:6976725085,,osm,,,Bed and Bike Poshtel,hotel,hotel,False,19.9061193,99.8323196,,,,,,,hotel,,,,,1,2,1,+2 tourism category,
osm:6996393191,,osm,,,,hostel,hostel,False,19.910749,99.8442483,,,,,,,hostel,,,,,1,2,1,+2 tourism category,
osm:7068755685,,osm,,,Chai GUN,motel,motel,False,19.9085691,99.85477,,,,,,,motel,,,,,1,2,1,+2 tourism category,
osm:7068755785,,osm,,,Nakornchiangrai Shooting Range,attraction,attraction,False,19.8923122,99.8105939,,,,,,,attraction,,,,,1,2,1,+2 tourism category,
osm:7074541071,,osm,Glass Bar,,,bar,bar,True,19.8962288,99.827529,,,,,,,bar,,,,,1,2,1,+2 tourism category,
osm:7080222385,,osm,,,Chaow Nang Photo Studio,attraction,attraction,False,19.9100641,99.8377075,,,,,,,attraction,,,,,1,2,1,+2 tourism category,
osm:7085204619,,osm,,,Hong Luang Saengkaew,museum,museum,False,19.9115098,99.8276776,,,,,,,museum,,,,,1,2,1,+2 tourism category,
osm:7085629585,,osm,,,,apartment,apartment,False,19.9139589,99.8394834,,,,,,,apartment,,,,,1,2,1,+2 tourism category,
osm:7085638186,,osm,,,Like Condo apartments,apartment,apartment,False,19.9250533,99.8451097,,,,,,,apartment,,,,,1,2,1,+2 tourism category,
osm:7745698685,,osm,,,Tham Wai cave,attraction,attraction,False,19.9213051,99.792627,,,,,,,attraction,,,,,1,2,1,+2 tourism category,
osm:8076191924,,osm,,,Caucasian Beer House,bar,bar,True,19.9061959,99.8312075,,,,,,,bar,,,,,1,2,1,+2 tourism category,
osm:8953887605,,osm,โรงแรม มณีอินน์,โรงแรม มณีอินน์,Mani Inn Hotel,hotel,hotel,False,19.8981849,99.8227817,,,,,,,hotel,,,,,1,2,1,+2 tourism category,
osm:9134214516,,osm,หอพักเรณู,หอพักเรณู,Renu,guest_house,guest_house,False,19.9041258,99.8252273,,,,,,,guest_house,,,,,1,2,1,+2 tourism category,
osm:9134235588,,osm,บ้านลักกี,บ้านลักกี,Bann Lucky,guest_house,guest_house,False,19.9027441,99.825347,,,,,,,guest_house,,,,,1,2,1,+2 tourism category,
osm:9421721961,,osm,O'Kane's Irish Pub,,,pub,pub,True,19.9061142,99.8313147,,,,,,,pub,,,,,1,2,1,+2 tourism category,
osm:9424385523,,osm,ซูซูรัน,,,bar,bar,True,19.9047966,99.8314406,,,,,,,bar,,,,,1,2,1,+2 tourism category,
osm:9472984448,,osm,Nanadoo,,,guest_house,guest_house,False,19.9358283,99.8176623,,"หัวหิน 101 ถนนเขาเต่า, 57100",,https://facebook.com/BunnycafebyNanadoo/,,,guest_house,,,,,1,2,1,+2 tourism category,
osm:9472984451,,osm,Rose Bar,,,bar,bar,True,19.9052329,99.8317066,,,,,,,bar,,,,,1,2,1,+2 tourism category,
osm:9473041859,,osm,Tulip Bar,,,bar,bar,True,19.9052601,99.8318404,,,,,,,bar,,,,,1,2,1,+2 tourism category,
osm:9505272517,,osm,,,Oh My Place,hotel,hotel,False,19.9088807,99.8430336,,,,,,,hotel,,,,,1,2,1,+2 tourism category,
osm:9861861890,,osm,,,,bar,bar,True,19.8992362,99.8321786,,,,,,,bar,,,,,1,2,1,+2 tourism category,
osm:9906932217,,osm,,,Villa Mungkala Chiang Rai,hotel,hotel,False,19.9138237,99.8246715,,,,,,,hotel,,,,,1,2,1,+2 tourism category,
osm:10116571757,,osm,,,,museum,museum,False,19.9142358,99.8248757,,,,,,,museum,,,,,1,2,1,+2 tourism category,
osm:10159027921,,osm,,,Saturday night bazaar,attraction,attraction,False,19.9086384,99.8303572,,,,,,,attraction,,,,,1,2,1,+2 tourism category,
osm:10245740316,,osm,,,Open Kitchen,guest_house,guest_house,False,19.9939086,99.8662282,,"382, ถนนพหลโยธิน, 57100",,,,,guest_house,,,,,1,2,1,+2 tourism category,
osm:10245740317,,osm,,,The Library,guest_house,guest_house,False,19.9938199,99.8662175,,"382/1, ถนนพหลโยธิน, 57100",,,,,guest_house,,,,,1,2,1,+2 tourism category,
osm:10245740318,,osm,,,Kenta House,hostel,hostel,False,19.9153547,99.8407138,,"292/3, ถนนเกาะลอย, 57000",,,,,hostel,,,,,1,2,1,+2 tourism category,
osm:10245740319,,osm,,,The Unique Resident Chiang Rai,hotel,hotel,False,19.899744,99.8270826,,"124/13, ถนน สันโค้งหลวง, 57000",,,,,hotel,,,,,1,2,1,+2 tourism category,
osm:10245740612,,osm,,,Pornkasem House,guest_house,guest_house,False,19.8871096,99.8388707,,"131/2, เกษตรสมบูรณ์, 57000",,,,,guest_house,,,,,1,2,1,+2 tourism category,
osm:10245740613,,osm,,,Suree House,hostel,hostel,False,19.9060141,99.8327434,,"869/44, ถนนไทยวิวัฒ์, 57000",,,,,hostel,,,,,1,2,1,+2 tourism category,
osm:10245740614,,osm,,,Little One,hostel,hostel,False,19.9059671,99.8319319,,57000,,,,,hostel,,,,,1,2,1,+2 tourism category,
osm:10245740711,,osm,,,Cordelia Chiangrai,hotel,hotel,False,19.8992152,99.8204004,,"73/5, ถนนสันโค้งน้อย ซอย 9, 57000",,,,,hotel,,,,,1,2,1,+2 tourism category,
osm:10245740712,,osm,,,The Target Residence,hostel,hostel,False,19.8750363,99.8242615,,"137/8, 57000",,,,,hostel,,,,,1,2,1,+2 tourism category,
osm:10557036409,,osm,,,The Great Winter,hotel,hotel,False,19.890764,99.8317012,,,,,,,hotel,,,,,1,2,1,+2 tourism category,
osm:10970063605,,osm,,,Together Backpacker's Hostel,hostel,hostel,False,19.9088909,99.8332668,,,,,,,hostel,,,,,1,2,1,+2 tourism category,
osm:11343329069,,osm,,,The mantrini,hotel,hotel,False,19.8884608,99.8346829,,,,,,,hotel,,,,,1,2,1,+2 tourism category,
osm:11345485070,,osm,,,,hotel,hotel,False,19.8641373,99.8230554,,,,,,,hotel,,,,,1,2,1,+2 tourism category,
osm:11410724349,,osm,,,,attraction,attraction,False,20.0117294,99.8679999,,,,,,,attraction,,,,,1,2,1,+2 tourism category,
osm:11486686269,,osm,,,Palin Family Cottage Hotel,hotel,hotel,False,19.8873225,99.8205117,,,,,,,hotel,,,,,1,2,1,+2 tourism category,
osm:11561548952,,osm,Baan Mai Kradan Hostel,,,hostel,hostel,False,19.9103511,99.8377004,,,,,,,hostel,,,,,1,2,1,+2 tourism category,
osm:11675957570,,osm,บ้านลุงต๋อย เชียงราย,,,attraction,attraction,False,19.8994664,99.8416949,,,,,,,attraction,,,,,1,2,1,+2 tourism category,
osm:11736625016,,osm,Nak Nakara,,,hotel,hotel,False,19.9104521,99.8355071,,,,,,,hotel,,,,,1,2,1,+2 tourism category,
osm:12308941201,,osm,SuanTung Coffee & Guesthouse,,,guest_house,guest_house,False,19.9085222,99.8337381,,ถนนสวนตุง,,,,,guest_house,,,,,1,2,1,+2 tourism category,
osm:12325154501,,osm,Get Hi Hostel,,,hostel,hostel,False,19.9017934,99.8304906,,,,,,,hostel,,,,,1,2,1,+2 tourism category,
osm:12482416727,,osm,Happynest,,,hostel,hostel,False,19.89912,99.8324175,,,,,,,hostel,,,,,1,2,1,+2 tourism category,
osm:12482417078,,osm,Mira,,,hotel,hotel,False,19.8991546,99.8320742,,,,,,,hotel,,,,,1,2,1,+2 tourism category,
osm:12718282002,,osm,Rad bar,,,bar,bar,True,19.9068583,99.8321247,,,,,,,bar,,,,,1,2,1,+2 tourism category,
osm:12718284901,,osm,Swansong bar,,,bar,bar,True,19.9065001,99.8311949,,"ถนนบรรพปราการ, เวียง, เมืองเชียงราย, เชียงราย, 57000",,,,,bar,,,,,1,2,1,+2 tourism category,
osm:12718713901,,osm,Alley bar,,,bar,bar,True,19.9066038,99.8312063,,"528 24, ถนนเจ็ดยอด, รอบเวียง, เมืองเชียงราย, เชียงราย, 57000",,,,,bar,,,,,1,2,1,+2 tourism category,
osm:13261753745,,osm,My Gastro,,,bar,bar,True,19.9069757,99.8312653,,"528/26, ถนนบรรพปราการ, รอบเวียง, เมืองเชียงราย, เชียงราย, 57000",,,,,bar,,,,,1,2,1,+2 tourism category,
osm:13483083414,,osm,Roof Structure Of Ubosot,,Roof Structure Of Ubosot,attraction,attraction,False,19.9036101,99.7944625,,,,,,,attraction,,,,,1,2,1,+2 tourism category,
osm:13483083415,,osm,,,,viewpoint,viewpoint,False,19.9032172,99.7946601,,,,,,,viewpoint,,,,,1,2,1,+2 tourism category,
osm:13483087664,,osm,,,,gallery,gallery,False,19.9031378,99.7937502,,,,,,,gallery,,,,,1,2,1,+2 tourism category,
osm:13518302224,,osm,,,Animals made out of old tyres,attraction,attraction,False,20.0178641,99.8747105,,,,,,,attraction,,,,,1,2,1,+2 tourism category,
osm:13677521636,,osm,Riva Vista Riverfront Hotel,,,hotel,hotel,False,19.9214347,99.8435377,,,,,,,hotel,,,,,1,2,1,+2 tourism category,
osm:13677669478,,osm,Luk Swan Resort,,,hotel,hotel,False,19.9225228,99.8398647,,,,,,,hotel,,,,,1,2,1,+2 tourism category,
osm:13742818001,,osm,The Clock Tower Chiang Rai Hostel,,,hotel,hotel,False,19.9076326,99.8308105,,,,,,,hotel,,,,,1,2,1,+2 tourism category,
osm:168837654,,osm,Sport Inn Hotel,,,hotel,hotel,False,,,,,,,,,hotel,,,,,1,2,1,+2 tourism category,
osm:231636608,,osm,Imperial River House Resort,,,hotel,hotel,False,,,,,,,,,hotel,,,,,1,2,1,+2 tourism category,
osm:269747639,,osm,มหาวิหาร,มหาวิหาร,Main Sanctuary Hall,gallery,gallery,False,,,,,,,,,gallery,,,,,1,2,1,+2 tourism category,
osm:278765332,,osm,ม่อนแก้ว แมนชัน,ม่อนแก้ว แมนชัน,Monkaew Mansion,apartment,apartment,False,,,,,,,,,apartment,,,,,1,2,1,+2 tourism category,
osm:316043567,,osm,สวนไม้งามริมกก,,Garden Of Reeds,attraction,attraction,False,,,,,,,,,attraction,,,,,1,2,1,+2 tourism category,
osm:330739408,,osm,Boon Bun Dan,,,guest_house,guest_house,False,,,,,,,,,guest_house,,,,,1,2,1,+2 tourism category,
osm:330740632,,osm,Sugar Beat,,Sugar de Chiang Rai,nightclub,nightclub,False,,,,,,,,,nightclub,,,,,1,2,1,+2 tourism category,
osm:384837791,,osm,ลานอาหารไนท์บาร์ซา,ลานอาหารไนท์บาร์ซา,Night Bazaar Food Court,attraction,attraction,False,,,,,,,,,attraction,,,,,1,2,1,+2 tourism category,
osm:387048477,,osm,สไมล์บาร์,สไมล์บาร์,Smile Bar,bar,bar,True,,,,,,,,,bar,,,,,1,2,1,+2 tourism category,
osm:387048480,,osm,ชเวดดี้บาร์,ชเวดดี้บาร์,Shawaddy Bar & Restaurant,bar,bar,True,,,,,,,,,bar,,,,,1,2,1,+2 tourism category,
osm:387048483,,osm,69 Bar,,,bar,bar,True,,,,,,,,,bar,,,,,1,2,1,+2 tourism category,
osm:387049081,,osm,พาราไดซ์บาร์,พาราไดซ์บาร์,Paradise Bar,bar,bar,True,,,,,,,,,bar,,,,,1,2,1,+2 tourism category,
osm:387049085,,osm,พีซเฮาส์บาร์,,Peace House Bar,bar,bar,True,,,,,,,,,bar,,,,,1,2,1,+2 tourism category,
osm:387049086,,osm,มาลาบาร์,มาลาบาร์,Mala Bar,bar,bar,True,,,,,,,,,bar,,,,,1,2,1,+2 tourism category,
osm:387049087,,osm,ทูเกเธอร์บาร์,ทูเกเธอร์บาร์,2gether Bar,bar,bar,True,,,,,,,,,bar,,,,,1,2,1,+2 tourism category,
osm:387049088,,osm,อาร์แอนด์บี บาร์,อาร์แอนด์บี บาร์,R & B Bar,bar,bar,True,,,,,,,,,bar,,,,,1,2,1,+2 tourism category,
osm:387049090,,osm,ดรากอนส์ เบรธ ดับเบิลยู,ดรากอนส์ เบรธ ดับเบิลยู,Dragons Breath W,bar,bar,True,,,,,,,,,bar,,,,,1,2,1,+2 tourism category,
osm:387050245,,osm,Orchids Guesthouse,,,guest_house,guest_house,False,,,,,,,,,guest_house,,,,,1,2,1,+2 tourism category,
osm:387050247,,osm,Buan Bua Guesthouse,,,guest_house,guest_house,False,,,,,,,,,guest_house,,,,,1,2,1,+2 tourism category,
osm:387051581,,osm,อารียา อินน์,อารียา อินน์,Ariya Inn,hotel,hotel,False,,,,,,,,,hotel,,,,,1,2,1,+2 tourism category,
osm:387051726,,osm,Amon Inn,,,hotel,hotel,False,,,,,,,,,hotel,,,,,1,2,1,+2 tourism category,
osm:458258687,,osm,วัดร่องเสือเต้น,วัดร่องเสือเต้น,Wat Rong Suea Ten,attraction,attraction,False,,,,,,,,,attraction,,,,,1,2,1,+2 tourism category,
osm:462018626,,osm,ตะวันแดง,ตะวันแดง,Tawen Dang,nightclub,nightclub,False,,,,,,,,,nightclub,,,,,1,2,1,+2 tourism category,
osm:483841208,,osm,Baan Plubthong Hotel,,,hotel,hotel,False,,,,,,,,,hotel,,,,,1,2,1,+2 tourism category,
osm:484139931,,osm,บลูลากูน,บลูลากูน,Blue Lagoon,hotel,hotel,False,,,,,,,,,hotel,,,,,1,2,1,+2 tourism category,
osm:486075926,,osm,Buun Bun Dan Inn,,Boon Ban Dan,guest_house,guest_house,False,,,,,,,,,guest_house,,,,,1,2,1,+2 tourism category,
osm:487636026,,osm,Thailand Tour Hotel,,,guest_house,guest_house,False,,,,,,,,,guest_house,,,,,1,2,1,+2 tourism category,
osm:487637817,,osm,หอนาฬิกา,หอนาฬิกา,Clock Tower,attraction,attraction,False,,,,,,https://youtu.be/eaUjqcIIUok,,,attraction,,,,,1,2,1,+2 tourism category,
osm:541553869,,osm,Diamond Park Inn Chiang Rai Resort,,,hotel,hotel,False,,,,,,,,,hotel,,,,,1,2,1,+2 tourism category,
osm:541553985,,osm,บ้านรินลดา,,Rinlada House,hostel,hostel,False,,,,,,,,,hostel,,,,,1,2,1,+2 tourism category,
osm:545814482,,osm,Phowadol Resort & Spa,,,hotel,hotel,False,,,,,,,,,hotel,,,,,1,2,1,+2 tourism category,
osm:551459687,,osm,Maryo Hotel,,,hotel,hotel,False,,,,,,,,,hotel,,,,,1,2,1,+2 tourism category,
osm:558429807,,osm,Zan Pla Nade Hotel,,,hotel,hotel,False,,,,,,,,,hotel,,,,,1,2,1,+2 tourism category,
osm:558685259,,osm,โรงแรมเกาะลอย,,Kohloi Hotel,hotel,hotel,False,,,,,,,,,hotel,,,,,1,2,1,+2 tourism category,
osm:641784765,,osm,Hop Inn,,,hotel,hotel,False,,,,,,,,,hotel,,,,,1,2,1,+2 tourism category,
osm:653531282,,osm,Ban Khun Yom,บ้านขุนยม,,hotel,hotel,False,,,,,,,,,hotel,,,,,1,2,1,+2 tourism category,
osm:657755613,,osm,Teak Garden Resort,,,hotel,hotel,False,,,,,,,,,hotel,,,,,1,2,1,+2 tourism category,
osm:666388694,,osm,Yellow Duck Resort,,,hotel,hotel,False,,,,,,,,,hotel,,,,,1,2,1,+2 tourism category,
osm:711057885,,osm,Moon and Sun Hotel,โรงแรมมูนแอนด์ซัน,Moon and Sun Hotel,hotel,hotel,False,,,,,,,,,hotel,,,,,1,2,1,+2 tourism category,
osm:751055658,,osm,Green Park Resort,,,hotel,hotel,False,,,,,,,,,hotel,,,,,1,2,1,+2 tourism category,
osm:751059223,,osm,Sook Jai Guesthouse,,,guest_house,guest_house,False,,,,,,,,,guest_house,,,,,1,2,1,+2 tourism category,
osm:959652664,,osm,ตงเซียม,ตงเซียม,Tongsiam,hostel,hostel,False,,,,,,,,,hostel,,,,,1,2,1,+2 tourism category,
osm:959789780,,osm,ศูนย์วัฒนธรรมนิทัศน์และพิพิธภัณฑ์เมืองเชียงราย,ศูนย์วัฒนธรรมนิทัศน์และพิพิธภัณฑ์เมืองเชียงราย,Chiang Rai Culture Exhibition Center,museum,museum,False,,,,,,,,,museum,,,,,1,2,1,+2 tourism category,
osm:959789787,,osm,หอวัฒนธรรมเฉลิมพระเกียรติกาญจนาภิเษก,หอวัฒนธรรมเฉลิมพระเกียรติกาญจนาภิเษก,Chalermprakiat Karnchanapisek Cultural Hall,museum,museum,False,,,,,,,,,museum,,,,,1,2,1,+2 tourism category,
osm:959984436,,osm,โรงราชรถบุษษก,โรงราชรถบุษษก,Bussok Royal Chariot Garage,museum,museum,False,,,,,,,,,museum,,,,,1,2,1,+2 tourism category,
osm:960685161,,osm,Sann Sook Hotel,แสนสุข โฮเต็ล,,hotel,hotel,False,,,,,,,,,hotel,,,,,1,2,1,+2 tourism category,
osm:960771529,,osm,บ้านป้านันท์,,Baan Pha Nan,apartment,apartment,False,,,,,,,,,apartment,,,,,1,2,1,+2 tourism category,
osm:960934931,,osm,PAH,ผ้า,,hotel,hotel,False,,,,,,,,,hotel,,,,,1,2,1,+2 tourism category,
osm:960934932,,osm,Concept Yard,,,hostel,hostel,False,,,,,,,,,hostel,,,,,1,2,1,+2 tourism category,
osm:964921438,,osm,ข่วงศึกษาวิถีชีวิตวัฒนธรรมล้านนาและอาเซียน,,Lanna & Asean Culture Plaza,attraction,attraction,False,,,,,,,,,attraction,,,,,1,2,1,+2 tourism category,
osm:965305287,,osm,หอพักหญิง สุนันทา,Sunanta,,guest_house,guest_house,False,,,,,,,,,guest_house,,,,,1,2,1,+2 tourism category,
osm:967065402,,osm,โรงแรม แกรนวิสต้า,,Grand Vista Hotel,hotel,hotel,False,,,,,,,,,hotel,,,,,1,2,1,+2 tourism category,
osm:967070674,,osm,จันทร์สุภา คอร์ท,จันทร์สุภา คอร์ท,Jansupar Court,hotel,hotel,False,,,,,,,,,hotel,,,,,1,2,1,+2 tourism category,
osm:967461423,,osm,Chainarai Riverside Recreation Centre,,,hotel,hotel,False,,,,,,,,,hotel,,,,,1,2,1,+2 tourism category,
osm:997332316,,osm,SC Apertment,,,apartment,apartment,False,,,,,,,,,apartment,,,,,1,2,1,+2 tourism category,
osm:1019881352,,osm,เอเมน เฮาส์,เอเมน เฮาส์,Amen House,guest_house,guest_house,False,,,,"276/42, เด่นห้า ซอย 1, เชียงราย, 57000",,,,,guest_house,,,,,1,2,1,+2 tourism category,
osm:1066716210,,osm,พิพิธภัณฑ์หอบูรพาจารย์ 80 ปี,,,museum,museum,False,,,,,,,,,museum,,,,,1,2,1,+2 tourism category,
osm:1075480911,,osm,Le Petit,,Le Petit,bar,bar,True,,,,,,,,,bar,,,,,1,2,1,+2 tourism category,
osm:1107921051,,osm,Chezmoi Handcraft & Homestay,,Chezmoi Handcraft & Homestay,hotel,hotel,False,,,,"34/2, ถนน สันโค้งน้อย, เชียงราย, 57000",,,,,hotel,,,,,1,2,1,+2 tourism category,
osm:1115225397,,osm,เคนตะเฮาส์,เคนตะ เฮาส์,Kenta House,guest_house,guest_house,False,,,,,,,,,guest_house,,,,,1,2,1,+2 tourism category,
osm:1115228444,,osm,บ้าน นโม,บ้าน นโม,Baan Namo,guest_house,guest_house,False,,,,,,,,,guest_house,,,,,1,2,1,+2 tourism category,
osm:1125805651,,osm,โรงแรมโกลเด็นแลนด์,โรงแรมโกลเด็นแลนด์,Golden Land Hotel,hotel,hotel,False,,,,,,,,,hotel,,,,,1,2,1,+2 tourism category,
osm:1127661763,,osm,อีทสลีฟ คาเฟ่ แอนด์ เบด,อีทสลีฟ คาเฟ่ แอนด์ เบด,Eat Sleep Cafe and Bed,hostel,hostel,False,,,,,,,,,hostel,,,,,1,2,1,+2 tourism category,
osm:1295675148,,osm,คาเฟ่ อเมซอน,คาเฟ่ อเมซอน,Café Amazon,cafe,cafe,True,19.8749742,99.8290256,,,,,,,cafe,,,,,1,2,1,+2 tourism category,
osm:1484539846,,osm,,,Cham Cha,restaurant,restaurant,True,19.9123892,99.8309843,,,,,,,restaurant,,,,,1,2,1,+2 tourism category,
osm:1484561524,,osm,,,Chiang Rai Steak,restaurant,restaurant,True,19.9746216,99.8590459,,451/11,,,,,restaurant,,,,,1,2,1,+2 tourism category,
osm:1484561727,,osm,,,,restaurant,restaurant,True,19.9748288,99.8584033,,,,,,,restaurant,,,,,1,2,1,+2 tourism category,
osm:1485640531,,osm,,,,restaurant,restaurant,True,19.9776967,99.8591965,,,,,,,restaurant,,,,,1,2,1,+2 tourism category,
osm:1693702906,,osm,Le Barra,,,restaurant,restaurant,True,19.8951642,99.8272275,,,,,,,restaurant,,,,,1,2,1,+2 tourism category,
osm:2140597870,,osm,North Star Barbecue,,,restaurant,restaurant,True,19.9052974,99.8183375,,,,,,,restaurant,,,,,1,2,1,+2 tourism category,
osm:2148831301,,osm,ก๋วยเตี๋ยวเนื้อหมู อันเจริญ,,,restaurant,restaurant,True,19.9356914,99.8447274,,,,,,,restaurant,,,,,1,2,1,+2 tourism category,
osm:2151125549,,osm,ครัวต้นไม้,,Khrua Tonmai,restaurant,restaurant,True,19.9270837,99.8445351,,,,,,,restaurant,,,,,1,2,1,+2 tourism category,
osm:2277914393,,osm,,,,restaurant,restaurant,True,20.0455919,99.8934827,,,,,,,restaurant,,,,,1,2,1,+2 tourism category,
osm:2301371485,,osm,ร้านอาหารเจ โอเอซิส,ร้านอาหารเจ โอเอซิส,Oasis Vegetaurant,restaurant,restaurant,True,19.9054924,99.8351133,,,,,,,restaurant,,,,,1,2,1,+2 tourism category,
osm:2316640505,,osm,Porwin Vegetarian,,,restaurant,restaurant,True,19.9121526,99.8305992,,,,,,,restaurant,,,,,1,2,1,+2 tourism category,
osm:2317829554,,osm,Cabbages & Condoms,,,restaurant,restaurant,True,19.9090732,99.835859,,,,,,,restaurant,,,,,1,2,1,+2 tourism category,
osm:2319194977,,osm,Tamacha,,,restaurant,restaurant,True,19.9062301,99.8284961,,,,,,,restaurant,,,,,1,2,1,+2 tourism category,
osm:2321378618,,osm,,,,restaurant,restaurant,True,19.9179517,99.8254759,,,,,,,restaurant,,,,,1,2,1,+2 tourism category,
osm:2334898013,,osm,Fuji,,,restaurant,restaurant,True,19.886323,99.833326,,,,,,,restaurant,,,,,1,2,1,+2 tourism category,
osm:2449477285,,osm,เลอ เปอตี คาเฟ่,เลอ เปอตี คาเฟ่,Le Petit Café,cafe,cafe,True,19.9015731,99.824499,,,,,,,cafe,,,,,1,2,1,+2 tourism category,
osm:2450215492,,osm,Ti Amo House,ที อาโม่ เชียงราย เซ็นทรัล,Ti Amo Chiangrai Central,cafe,cafe,True,19.9066167,99.8311611,,,,,,,cafe,,,,,1,2,1,+2 tourism category,
osm:2622028415,,osm,โกฬด อาหารตามสั่ง,,,restaurant,restaurant,True,19.9009618,99.8349116,,,,,,,restaurant,,,,,1,2,1,+2 tourism category,
osm:2748851750,,osm,365 Coffee,,,cafe,cafe,True,19.9926433,99.860218,,,,,,,cafe,,,,,1,2,1,+2 tourism category,
osm:3022782391,,osm,Stardust Bar & Grill,,,restaurant,restaurant,True,19.9089563,99.8338961,,,,,,,restaurant,,,,,1,2,1,+2 tourism category,
osm:3214139849,,osm,,,Coffee Bright,cafe,cafe,True,19.9088037,99.8372692,,,,,,,cafe,,,,,1,2,1,+2 tourism category,
osm:3214139851,,osm,,,Hut House,cafe,cafe,True,19.899005,99.8199052,,,,,,,cafe,,,,,1,2,1,+2 tourism category,
osm:3496408599,,osm,Nangnon Coffee / Kalae Cafe,,Nangnon Coffee,cafe,cafe,True,19.9059557,99.8310735,,,,,,,cafe,,,,,1,2,1,+2 tourism category,
osm:3782975865,,osm,Chiang Rai Challenge,,,restaurant,restaurant,True,19.9481614,99.8102722,,,,,,,restaurant,,,,,1,2,1,+2 tourism category,
osm:3881555739,,osm,Good Belly b Tharnn,,,cafe,cafe,True,20.0433637,99.8850376,,"Mae Fah Luang University Rd. Moo1, Mueang, 57100",,,,,cafe,,,,,1,2,1,+2 tourism category,
osm:3966280907,,osm,Street food restaurant,,Street food restaurant,restaurant,restaurant,True,19.891168,99.8233706,,,,,,,restaurant,,,,,1,2,1,+2 tourism category,
osm:3966293758,,osm,,,,cafe,cafe,True,20.0175514,99.8822903,,,,,,,cafe,,,,,1,2,1,+2 tourism category,
osm:3966293759,,osm,,,Street food restaurant,restaurant,restaurant,True,20.0173758,99.8718753,,,,,,,restaurant,,,,,1,2,1,+2 tourism category,
osm:3981494578,,osm,Pang Pond,,,cafe,cafe,True,19.9056444,99.8284398,,,,,,,cafe,,,,,1,2,1,+2 tourism category,
osm:3991603977,,osm,,,,cafe,cafe,True,19.9102927,99.8396085,,,,,,,cafe,,,,,1,2,1,+2 tourism category,
osm:3997172264,,osm,Starters,,,restaurant,restaurant,True,19.8919317,99.8145642,,,,,,,restaurant,,,,,1,2,1,+2 tourism category,
osm:3999074379,,osm,Lung Eed,,,restaurant,restaurant,True,19.9063075,99.8424341,,,,,,,restaurant,,,,,1,2,1,+2 tourism category,
osm:4002104814,,osm,Dolce Cafe,,,cafe,cafe,True,19.9928129,99.8601883,,,,,,,cafe,,,,,1,2,1,+2 tourism category,
osm:4002104815,,osm,9Cafe,,,cafe,cafe,True,19.9928439,99.8600799,,,,,,,cafe,,,,,1,2,1,+2 tourism category,
osm:4005104602,,osm,,,,restaurant,restaurant,True,19.8951542,99.8191563,,,,,,,restaurant,,,,,1,2,1,+2 tourism category,
osm:4209107589,,osm,Uncle Dee Steak,,,restaurant,restaurant,True,19.8835064,99.8074605,,,,,,,restaurant,,,,,1,2,1,+2 tourism category,
osm:4225316290,,osm,VT name nuang ,,,restaurant,restaurant,True,19.8935991,99.8380102,,,,,,,restaurant,,,,,1,2,1,+2 tourism category,
osm:4236729489,,osm,OBH Coffee Corner,,,cafe,cafe,True,19.911707,99.8286801,,"17, ถนน สิงหไคล, 57000",,,,,cafe,,,,,1,2,1,+2 tourism category,
osm:4255699889,,osm,Manorom,,,cafe,cafe,True,19.9206623,99.8420064,,,,,,,cafe,,,,,1,2,1,+2 tourism category,
osm:4342148490,,osm,Coconut ice cream,,,cafe,cafe,True,19.9078915,99.8041482,,,,,,,cafe,,,,,1,2,1,+2 tourism category,
osm:4395542412,,osm,8080 Cafe,,,cafe,cafe,True,19.9340651,99.8414318,,,,,,,cafe,,,,,1,2,1,+2 tourism category,
osm:4395611691,,osm,Ban Kuhn Mae Coffee,,,cafe,cafe,True,19.9542611,99.7840029,,,,,,,cafe,,,,,1,2,1,+2 tourism category,
osm:4415950689,,osm,Jatujak,Jatujak,,restaurant,restaurant,True,19.9067548,99.8331555,,,,,,,restaurant,,,,,1,2,1,+2 tourism category,
osm:4415950789,,osm,Cat 'n' a cup,Cat 'n' a cup,,cafe,cafe,True,19.904497,99.8331818,,,,,,,cafe,,,,,1,2,1,+2 tourism category,
osm:4434021403,,osm,Thai Kitchen,,,restaurant,restaurant,True,19.9063171,99.8310006,,,,,,,restaurant,,,,,1,2,1,+2 tourism category,
osm:4434021404,,osm,Grace Bakery & Coffee,Grace Bakery & Coffee,,cafe,cafe,True,19.9118978,99.8298822,,,,,,,cafe,,,,,1,2,1,+2 tourism category,
osm:4439009490,,osm,,,Route 7,restaurant,restaurant,True,19.9079479,99.8545836,,,,,,,restaurant,,,,,1,2,1,+2 tourism category,
osm:4504116382,,osm,ข้าวซอยพอใจ,ข้าวซอยพอใจ,Khao Soi Phor Jai,restaurant,restaurant,True,19.9056763,99.8311307,,"Jetyod Rd, Chiang Rai, 57000",,,,,restaurant,,,,,1,2,1,+2 tourism category,
osm:4504122764,,osm,Phu Lae,,,restaurant,restaurant,True,19.9087675,99.8364039,,"Thanalai, Chiang Rai",,,,,restaurant,,,,,1,2,1,+2 tourism category,
osm:4525379869,,osm,ครัวศิลปิน,ครัวศิลปิน,Krua Silapin,restaurant,restaurant,True,19.9562573,99.8510984,,,,,,,restaurant,,,,,1,2,1,+2 tourism category,
osm:4525382278,,osm,The Pizza Company,,,restaurant,restaurant,True,19.9649509,99.8551767,,,,,,,restaurant,,,,,1,2,1,+2 tourism category,
osm:4527667890,,osm,Thai restaurant,,,restaurant,restaurant,True,19.9066594,99.8372957,,,,,,,restaurant,,,,,1,2,1,+2 tourism category,
osm:4530704329,,osm,Naphat,,,restaurant,restaurant,True,19.9780639,99.8566705,,,,,,,restaurant,,,,,1,2,1,+2 tourism category,
osm:4530704332,,osm,อมยิ้ม,อมยิ้ม,Omyim,cafe,cafe,True,19.9774205,99.8575097,,,,,,,cafe,,,,,1,2,1,+2 tourism category,
osm:4530704333,,osm,โกเฮง,โกเฮง,Ko Heng,restaurant,restaurant,True,19.9777226,99.855726,,,,,,,restaurant,,,,,1,2,1,+2 tourism category,
osm:4530704335,,osm,,,,restaurant,restaurant,True,19.9779673,99.8543434,,,,,,,restaurant,,,,,1,2,1,+2 tourism category,
osm:4530704339,,osm,ส้มตำหน้ามอ,ส้มตำหน้ามอ,Somtam Na Mo,restaurant,restaurant,True,19.9783257,99.8552523,,,,,,,restaurant,,,,,1,2,1,+2 tourism category,
osm:4530704340,,osm,หอพักชาย สุขสถิตย์,หอพักชาย สุขสถิตย์,,restaurant,restaurant,True,19.978463,99.8543051,,,,,,,restaurant,,,,,1,2,1,+2 tourism category,
osm:4537064789,,osm,ก๋วยเตี๋ยวกากหมูสูตรโบราณ,ก๋วยเตี๋ยวกากหมูสูตรโบราณ,,restaurant,restaurant,True,19.9245792,99.8165264,,,,,,,restaurant,,,,,1,2,1,+2 tourism category,
osm:4542752167,,osm,Good Friend Coffee,,,cafe,cafe,True,19.9499959,99.8090325,,,,,,,cafe,,,,,1,2,1,+2 tourism category,
osm:4554833089,,osm,,,,restaurant,restaurant,True,19.9035168,99.832054,,,,,,,restaurant,,,,,1,2,1,+2 tourism category,
osm:4556487389,,osm,Vegetarian Restaurant,,Boonsita,restaurant,restaurant,True,19.9014994,99.8306248,,,,,,,restaurant,,,,,1,2,1,+2 tourism category,
osm:4565079095,,osm,,,Tj Item,restaurant,restaurant,True,19.9067356,99.8284923,,,,,,,restaurant,,,,,1,2,1,+2 tourism category,
osm:4578404090,,osm,Dairy Queen,,Dairy Queen,fast_food,fast_food,True,19.8864755,99.8335673,,,,,,,fast_food,,,,,1,2,1,+2 tourism category,
osm:4623800307,,osm,,,Ocha,fast_food,fast_food,True,19.911012,99.8383644,,,,,,,fast_food,,,,,1,2,1,+2 tourism category,
osm:4631200289,,osm,Betty Coffee,Betty Coffee,Betty Coffee,cafe,cafe,True,19.910354,99.8327198,,ถนน รัตนเขต,,,,,cafe,,,,,1,2,1,+2 tourism category,
osm:4662987919,,osm,Aye's Restaurant,,,restaurant,restaurant,True,19.9047168,99.8328965,,,,,,,restaurant,,,,,1,2,1,+2 tourism category,
osm:4672231390,,osm,,,Eco Garden Restaurant,restaurant,restaurant,True,19.9924061,99.8586869,,,,,,,restaurant,,,,,1,2,1,+2 tourism category,
osm:4690123692,,osm,,,Pad Thai-Thai food,fast_food,fast_food,True,19.9031213,99.8346895,,,,,,,fast_food,,,,,1,2,1,+2 tourism category,
osm:4690179492,,osm,,,Vietnamese food,restaurant,restaurant,True,19.9032274,99.8338413,,,,,,,restaurant,,,,,1,2,1,+2 tourism category,
osm:4804773321,,osm,,,,cafe,cafe,True,19.9255598,99.7974726,,,,,,,cafe,,,,,1,2,1,+2 tourism category,
osm:4805513821,,osm,Lake Hill Resort,Lake Hill Resort,,cafe,cafe,True,20.0423874,99.8607639,,,,,,,cafe,,,,,1,2,1,+2 tourism category,
osm:4811264237,,osm,,,Hello coffee and noodles,restaurant,restaurant,True,19.9668971,99.8478883,,"525/2, ถนนพหลโยธิน, 57100",,https://m.facebook.com/HelloCoffeeAndNoodles/photos/a.1645915592370365.1073741827.1645909215704336/1646322885662969/?type=3&source=44,,,restaurant,,,,,1,2,1,+2 tourism category,
osm:4830028824,,osm,ส้มตำ อินเตอร์,ส้มตำ อินเตอร์,Somtam inter,restaurant,restaurant,True,19.8893785,99.8419321,,,,,,,restaurant,,,,,1,2,1,+2 tourism category,
osm:4832202421,,osm,,,Pa Ampei,restaurant,restaurant,True,19.8891935,99.8427806,,,,,,,restaurant,,,,,1,2,1,+2 tourism category,
osm:4834032124,,osm,,,,restaurant,restaurant,True,19.8896457,99.8370963,,,,,,,restaurant,,,,,1,2,1,+2 tourism category,
osm:4881417421,,osm,Somkhuan  Khao Soi,,,restaurant,restaurant,True,19.911285,99.836814,,,,,,,restaurant,,,,,1,2,1,+2 tourism category,
osm:4942422322,,osm,บิ๊กบอนค่าเฟ่,บิ๊กบอนค่าเฟ่,Big bon café,cafe,cafe,True,19.9037501,99.8317464,,,,,,,cafe,,,,,1,2,1,+2 tourism category,
osm:4991765121,,osm,,,@Home,cafe,cafe,True,19.9028043,99.8116363,,,,,,,cafe,,,,,1,2,1,+2 tourism category,
osm:5038499822,,osm,,,Crepe Corner,restaurant,restaurant,True,19.9037575,99.8300019,,,,,,,restaurant,,,,,1,2,1,+2 tourism category,
osm:5083461721,,osm,,,Laoma Express,restaurant,restaurant,True,19.9067785,99.8300162,,,,,,,restaurant,,,,,1,2,1,+2 tourism category,
osm:5182601121,,osm,,,The Box Cafe,cafe,cafe,True,19.9920433,99.8637764,,,,,,,cafe,,,,,1,2,1,+2 tourism category,
osm:5257379425,,osm,Time,,,cafe,cafe,True,20.0019481,99.8964286,,,,,,,cafe,,,,,1,2,1,+2 tourism category,
osm:5293790524,,osm,,,RPJ Café,restaurant,restaurant,True,19.9820131,99.8417372,,,,,,,restaurant,,,,,1,2,1,+2 tourism category,
osm:5316376421,,osm,คาเฟ่ป่า,,forest cafe,cafe,cafe,True,19.9114509,99.8373476,,,,,,,cafe,,,,,1,2,1,+2 tourism category,
osm:5321292210,,osm,,,Rabika Coffee,cafe,cafe,True,19.9548142,99.8789433,,,,,,,cafe,,,,,1,2,1,+2 tourism category,
osm:5327019121,,osm,,,Nanglae Coffee House,cafe,cafe,True,19.9924163,99.8602508,,,,,,,cafe,,,,,1,2,1,+2 tourism category,
osm:5338160355,,osm,Rabbit Hole,,,cafe,cafe,True,19.9012541,99.8220845,,,,,,,cafe,,,,,1,2,1,+2 tourism category,
osm:5338160370,,osm,,,Yayo Coffee & Bed,restaurant,restaurant,True,19.8750443,99.7828531,,,,,,,restaurant,,,,,1,2,1,+2 tourism category,
osm:5338160371,,osm,Doa Cafe,,Doa Coffee,cafe,cafe,True,19.8727589,99.7808763,,,,,,,cafe,,,,,1,2,1,+2 tourism category,
osm:5365369528,,osm,,,,cafe,cafe,True,19.9109823,99.7850918,,,,,,,cafe,,,,,1,2,1,+2 tourism category,
osm:5372494922,,osm,,,Sabai Steak House,restaurant,restaurant,True,19.8960494,99.8390691,,,,,,,restaurant,,,,,1,2,1,+2 tourism category,
osm:5382558541,,osm,,,Steak Bengal,restaurant,restaurant,True,19.9078983,99.8529634,,,,,,,restaurant,,,,,1,2,1,+2 tourism category,
osm:5382558543,,osm,S Panad,,,cafe,cafe,True,19.9037345,99.8356605,,,,,,,cafe,,,,,1,2,1,+2 tourism category,
osm:5398120821,,osm,,,,restaurant,restaurant,True,19.9020201,99.8256781,,,,,,,restaurant,,,,,1,2,1,+2 tourism category,
osm:5402694421,,osm,,,Beers & Restaurant,restaurant,restaurant,True,19.8578259,99.8207947,,,,,,,restaurant,,,,,1,2,1,+2 tourism category,
osm:5436937745,,osm,บาลาบ,บาลาบ,Barrab,restaurant,restaurant,True,19.9122792,99.8275828,,,,,,,restaurant,,,,,1,2,1,+2 tourism category,
osm:5436943031,,osm,,,Sawadee,restaurant,restaurant,True,19.9054646,99.8339552,,,,,,,restaurant,,,,,1,2,1,+2 tourism category,
osm:5470324922,,osm,,,Sound Brown Coffee,cafe,cafe,True,19.9037122,99.836612,,,,,,,cafe,,,,,1,2,1,+2 tourism category,
osm:5581495722,,osm,กาแฟรถเหลือง ไข่กระทะ,,,cafe,cafe,True,19.906774,99.8299235,,,,,,,cafe,,,,,1,2,1,+2 tourism category,
osm:5602855122,,osm,8080 Café,,,restaurant,restaurant,True,19.8967821,99.8278826,,,,,,,restaurant,,,,,1,2,1,+2 tourism category,
osm:5646661621,,osm,,,Bai Bon,restaurant,restaurant,True,19.90824,99.8219039,,,,,,,restaurant,,,,,1,2,1,+2 tourism category,
osm:5698819621,,osm,,,Laan Tim Cafe’s & Gallery,cafe,cafe,True,19.9072371,99.8267089,,,,,,,cafe,,,,,1,2,1,+2 tourism category,
osm:5699140822,,osm,,,Tid doi Tid din Cafe,restaurant,restaurant,True,20.049614,99.8757185,,,,,,,restaurant,,,,,1,2,1,+2 tourism category,
osm:5744397025,,osm,,,CoffeeEnergy,restaurant,restaurant,True,19.9097952,99.8423347,,,,,,,restaurant,,,,,1,2,1,+2 tourism category,
osm:5750601590,,osm,Full Moon Wellness,,,restaurant,restaurant,True,19.9014544,99.8237071,,,,,,,restaurant,,,,,1,2,1,+2 tourism category,
osm:5801544653,,osm,,,,restaurant,restaurant,True,19.9087944,99.8365014,,,,,,,restaurant,,,,,1,2,1,+2 tourism category,
osm:5864643598,,osm,ก๋วยเตี๋ยวเรือป่าแดงริมกก,,,restaurant,restaurant,True,19.9288983,99.8589098,,,,,,,restaurant,,,,,1,2,1,+2 tourism category,
osm:5995247340,,osm,One Café,,,cafe,cafe,True,19.9108089,99.8441651,,,,,,,cafe,,,,,1,2,1,+2 tourism category,
osm:6039288924,,osm,คาเฟ่ อเมซอน,คาเฟ่ อเมซอน,Café Amazon,cafe,cafe,True,20.0337491,99.8755671,,,,,,,cafe,,,,,1,2,1,+2 tourism category,
osm:6039357353,,osm,KFC,,,fast_food,fast_food,True,20.0118125,99.8696343,,,,,,,fast_food,,,,,1,2,1,+2 tourism category,
osm:6049078986,,osm,,,Tong Tung Restaurant,restaurant,restaurant,True,19.8983737,99.8277015,,,,,,,restaurant,,,,,1,2,1,+2 tourism category,
osm:6053723653,,osm,Madam Hill Coffee,,,cafe,cafe,True,19.9228619,99.7561219,,,,,,,cafe,,,,,1,2,1,+2 tourism category,
osm:6085458185,,osm,ก๋วยเตี๋ยวรสดีเด็ด,,Rod Dee Ded beef noodle soup,restaurant,restaurant,True,19.9011758,99.8218478,,,,,,,restaurant,,,,,1,2,1,+2 tourism category,
osm:6085895987,,osm,,,Swensen’s,fast_food,fast_food,True,19.9050671,99.8330074,,,,,,,fast_food,,,,,1,2,1,+2 tourism category,
osm:6101784086,,osm,,,Mordin Restaurant,restaurant,restaurant,True,19.908565,99.84858,,,,,,,restaurant,,,,,1,2,1,+2 tourism category,
osm:6108968718,,osm,Wijittra,,,restaurant,restaurant,True,19.9939488,99.8630686,,,,,,,restaurant,,,,,1,2,1,+2 tourism category,
osm:6140081585,,osm,,,Aek O Cha,restaurant,restaurant,True,19.9275332,99.8339568,,,,,,,restaurant,,,,,1,2,1,+2 tourism category,
osm:6151344885,,osm,Timothy,,,restaurant,restaurant,True,19.9072262,99.8249171,,,,,,,restaurant,,,,,1,2,1,+2 tourism category,
osm:6204637085,,osm,Wynn Coffee Shop,,,cafe,cafe,True,19.9014764,99.8304302,,,,,,,cafe,,,,,1,2,1,+2 tourism category,
osm:6224846188,,osm,,,Surf and Turf Bistro,restaurant,restaurant,True,19.9056371,99.8332806,,,,,,,restaurant,,,,,1,2,1,+2 tourism category,
osm:6246122785,,osm,,,ModNomSod,cafe,cafe,True,19.9121634,99.83495,,,,,,,cafe,,,,,1,2,1,+2 tourism category,
osm:6282356485,,osm,ออมละไม,,Om La-Mai (homemade ice cream),ice_cream,ice_cream,False,19.89912,99.8278681,,,,,,,ice_cream,,,,,1,2,1,+2 tourism category,
osm:6297199685,,osm,ป้าติ่ง,ป้าติ่ง,Pa Ting's,restaurant,restaurant,True,19.9154652,99.8371951,,,,,,,restaurant,,,,,1,2,1,+2 tourism category,
osm:6297472385,,osm,The Pizza Company,,pizza company,fast_food,fast_food,True,19.9050071,99.832915,,,,,,,fast_food,,,,,1,2,1,+2 tourism category,
osm:6351563585,,osm,ก๋วยเตี๋ยวปลาชาพ่อขุนหมื่นลี้,,,restaurant,restaurant,True,19.9148038,99.8448843,,,,,,,restaurant,,,,,1,2,1,+2 tourism category,
osm:6424540488,,osm,,,Lee Hu Doichang Coffee,cafe,cafe,True,19.9434741,99.8027261,,,,,,,cafe,,,,,1,2,1,+2 tourism category,
osm:6534645885,,osm,Green,,,restaurant,restaurant,True,19.9040122,99.8370631,,,,,,,restaurant,,,,,1,2,1,+2 tourism category,
osm:6548999285,,osm,,,local food,restaurant,restaurant,True,19.9056549,99.8331175,,,,,,,restaurant,,,,,1,2,1,+2 tourism category,
osm:6631610201,,osm,,,,cafe,cafe,True,19.8547312,99.7511439,,,,,,,cafe,,,,,1,2,1,+2 tourism category,
osm:6632610487,,osm,,,,cafe,cafe,True,19.8649265,99.7738186,,,,,,,cafe,,,,,1,2,1,+2 tourism category,
osm:6632610488,,osm,,,,fast_food,fast_food,True,19.8657588,99.7748262,,,,,,,fast_food,,,,,1,2,1,+2 tourism category,
osm:6632610505,,osm,,,,cafe,cafe,True,19.9078102,99.8404589,,,,,,,cafe,,,,,1,2,1,+2 tourism category,
osm:6632629686,,osm,,,,cafe,cafe,True,19.8574895,99.7605183,,,,,,,cafe,,,,,1,2,1,+2 tourism category,
osm:6632629696,,osm,,,Food market,fast_food,fast_food,True,19.8747268,99.830051,,,,,,,fast_food,,,,,1,2,1,+2 tourism category,
osm:6632629885,,osm,,,,restaurant,restaurant,True,19.856876,99.7589876,,,,,,,restaurant,,,,,1,2,1,+2 tourism category,
osm:6632634287,,osm,,,Chiangrai story,restaurant,restaurant,True,19.9284065,99.8446063,,,,,,,restaurant,,,,,1,2,1,+2 tourism category,
osm:6632634288,,osm,,,,cafe,cafe,True,19.9300621,99.84427,,,,,,,cafe,,,,,1,2,1,+2 tourism category,
osm:6632634294,,osm,,,,restaurant,restaurant,True,19.9829741,99.8608537,,,,,,,restaurant,,,,,1,2,1,+2 tourism category,
osm:6632634300,,osm,,,,restaurant,restaurant,True,20.0222276,99.8711577,,,,,,,restaurant,,,,,1,2,1,+2 tourism category,
osm:6632634385,,osm,,,,cafe,cafe,True,19.9143044,99.8435919,,,,,,,cafe,,,,,1,2,1,+2 tourism category,
osm:6632634510,,osm,,,,cafe,cafe,True,19.9788294,99.8596536,,,,,,,cafe,,,,,1,2,1,+2 tourism category,
osm:6632634785,,osm,,,,cafe,cafe,True,19.9745978,99.8582793,,,,,,,cafe,,,,,1,2,1,+2 tourism category,
osm:6633383691,,osm,,,night coffee,cafe,cafe,True,19.9051583,99.8334089,,,,,,,cafe,,,,,1,2,1,+2 tourism category,
osm:6634809485,,osm,,,,cafe,cafe,True,19.9092744,99.8308084,,,,,,,cafe,,,,,1,2,1,+2 tourism category,
osm:6634908585,,osm,,,,cafe,cafe,True,19.9153596,99.8337201,,,,,,,cafe,,,,,1,2,1,+2 tourism category,
osm:6635204695,,osm,,,Hand,cafe,cafe,True,19.9010336,99.8212348,,,,,,,cafe,,,,,1,2,1,+2 tourism category,
osm:6635204697,,osm,,,Blue box coffee,cafe,cafe,True,19.9011539,99.8210999,,,,,,,cafe,,,,,1,2,1,+2 tourism category,
osm:6635204699,,osm,,,,restaurant,restaurant,True,19.900739,99.821072,,,,,,,restaurant,,,,,1,2,1,+2 tourism category,
osm:6635204701,,osm,,,,restaurant,restaurant,True,19.9010571,99.8204056,,,,,,,restaurant,,,,,1,2,1,+2 tourism category,
osm:6635204702,,osm,,,Sushi Rocha,restaurant,restaurant,True,19.9010558,99.8202753,,,,,,,restaurant,,,,,1,2,1,+2 tourism category,
osm:6635204703,,osm,,,,restaurant,restaurant,True,19.9012118,99.8203959,,,,,,,restaurant,,,,,1,2,1,+2 tourism category,
osm:6635204706,,osm,,,,restaurant,restaurant,True,19.9014491,99.8185731,,,,,,,restaurant,,,,,1,2,1,+2 tourism category,
osm:6635204707,,osm,,,,restaurant,restaurant,True,19.901475,99.8184698,,,,,,,restaurant,,,,,1,2,1,+2 tourism category,
osm:6635204711,,osm,,,Vivien,cafe,cafe,True,19.9005004,99.8207404,,,,,,,cafe,,,,,1,2,1,+2 tourism category,
osm:6635204718,,osm,,,English Kafé,cafe,cafe,True,19.8974277,99.8201508,,,,,,,cafe,,,,,1,2,1,+2 tourism category,
osm:6635204723,,osm,,,,restaurant,restaurant,True,19.89533,99.8193471,,,,,,,restaurant,,,,,1,2,1,+2 tourism category,
osm:6635204724,,osm,,,,cafe,cafe,True,19.8954126,99.8191126,,,,,,,cafe,,,,,1,2,1,+2 tourism category,
osm:6635204727,,osm,,,,fast_food,fast_food,True,19.894488,99.8189247,,,,,,,fast_food,,,,,1,2,1,+2 tourism category,
osm:6635204809,,osm,,,,restaurant,restaurant,True,19.9014024,99.8188557,,,,,,,restaurant,,,,,1,2,1,+2 tourism category,
osm:6635204810,,osm,,,,restaurant,restaurant,True,19.9014286,99.818708,,,,,,,restaurant,,,,,1,2,1,+2 tourism category,
osm:6635204815,,osm,,,,restaurant,restaurant,True,19.8958459,99.8194714,,,,,,,restaurant,,,,,1,2,1,+2 tourism category,
osm:6635231387,,osm,,,,cafe,cafe,True,19.9012287,99.8196275,,,,,,,cafe,,,,,1,2,1,+2 tourism category,
osm:6635231487,,osm,,,,restaurant,restaurant,True,19.9010361,99.8208325,,,,,,,restaurant,,,,,1,2,1,+2 tourism category,
osm:6635231488,,osm,Big Brother Milk Bar,,Big Brother Milk Bar,cafe,cafe,True,19.9010563,99.8206057,,,,,,,cafe,,,,,1,2,1,+2 tourism category,
osm:6636006686,,osm,,,,restaurant,restaurant,True,19.9542801,99.8788727,,,,,,,restaurant,,,,,1,2,1,+2 tourism category,
osm:6636010585,,osm,,,,cafe,cafe,True,19.954634,99.8790535,,,,,,,cafe,,,,,1,2,1,+2 tourism category,
osm:6636010785,,osm,,,Black Canyon Coffee,cafe,cafe,True,19.9541473,99.8793234,,,,,,,cafe,,,,,1,2,1,+2 tourism category,
osm:6636010985,,osm,,,Variety bistro,cafe,cafe,True,19.9538486,99.8790919,,,,,,,cafe,,,,,1,2,1,+2 tourism category,
osm:6636023785,,osm,,,Arabitia,cafe,cafe,True,19.9537937,99.8791882,,,,,,,cafe,,,,,1,2,1,+2 tourism category,
osm:6690252085,,osm,,,22 grams coffee shop,cafe,cafe,True,19.8985816,99.827763,,,,,,,cafe,,,,,1,2,1,+2 tourism category,
osm:6690252086,,osm,,,Big Coffee,cafe,cafe,True,19.8982178,99.824661,,,,,,,cafe,,,,,1,2,1,+2 tourism category,
osm:6725738686,,osm,1:2 - กาดหลวง,,1:2 Chiang Rai Brew,cafe,cafe,True,19.9090783,99.8308314,,,,,,,cafe,,,,,1,2,1,+2 tourism category,
osm:6725744685,,osm,,,22grams Espresso Bar,cafe,cafe,True,19.8988548,99.8278598,,,,,,,cafe,,,,,1,2,1,+2 tourism category,
osm:6725748185,,osm,,,Blessed Cafe,cafe,cafe,True,19.9011486,99.8372076,,,,,,,cafe,,,,,1,2,1,+2 tourism category,
osm:6725750085,,osm,,,Prompt Cafe Micro Roasters,cafe,cafe,True,19.9041076,99.8331122,,,,,,,cafe,,,,,1,2,1,+2 tourism category,
osm:6919495008,,osm,San Fran,,Sanfran Burger & Beer,fast_food,fast_food,True,19.9064775,99.8314159,,,,,,,fast_food,,,,,1,2,1,+2 tourism category,
osm:7018618085,,osm,,,Stone Wall Cafe,cafe,cafe,True,19.9216535,99.8337023,,,,,,,cafe,,,,,1,2,1,+2 tourism category,
osm:7028962731,,osm,Cafe Amazon,,,cafe,cafe,True,19.9103252,99.8382845,,,,,,,cafe,,,,,1,2,1,+2 tourism category,
osm:7074459607,,osm,Bella Pizza,,,restaurant,restaurant,True,19.8991556,99.8277349,,,,,,,restaurant,,,,,1,2,1,+2 tourism category,
osm:7130093485,,osm,,,Alexta Coffee,cafe,cafe,True,19.8598233,99.8208398,,"544/1, ถนนพหลโยธิน, 57000",,,,,cafe,,,,,1,2,1,+2 tourism category,
osm:7170939886,,osm,ผัดไทยเจ็ดยอด,ผัดไทยเจ็ดยอด,Pad Thai Jed Yod,restaurant,restaurant,True,19.9036338,99.8317141,,,,,,,restaurant,,,,,1,2,1,+2 tourism category,
osm:7192396086,,osm,,,,cafe,cafe,True,19.9072238,99.8003697,,,,,,,cafe,,,,,1,2,1,+2 tourism category,
osm:7282279573,,osm,Greenhouse Cafe & Bistro,,,cafe,cafe,True,19.9031142,99.8509196,,,,,,,cafe,,,,,1,2,1,+2 tourism category,
osm:7288771385,,osm,,,Coffee Shop,cafe,cafe,True,19.9069178,99.8305383,,,,,,,cafe,,,,,1,2,1,+2 tourism category,
osm:7643122287,,osm,,,Delicious Kao Soi Restaurant,restaurant,restaurant,True,19.9750368,99.858454,,,,,,,restaurant,,,,,1,2,1,+2 tourism category,
osm:7694753787,,osm,Some Sunday Magic,,,restaurant,restaurant,True,19.9928725,99.8613154,,"280/13, 280/13 Soi Mu Ban Uea Athon Changwat, 57100",,,,,restaurant,,,,,1,2,1,+2 tourism category,
osm:7694781986,,osm,locus Native food lab,,,restaurant,restaurant,True,19.9439177,99.8341475,,"171/24, 171/24 b.santarnlhuang T.Rimkok",,,,,restaurant,,,,,1,2,1,+2 tourism category,
osm:8185761417,,osm,,,Churro Thai,fast_food,fast_food,True,19.9067568,99.8298001,,,,,,,fast_food,,,,,1,2,1,+2 tourism category,
osm:8266165017,,osm,,,1:2 Coffee Company,cafe,cafe,True,19.9036243,99.836175,,,,,,,cafe,,,,,1,2,1,+2 tourism category,
osm:8267020618,,osm,,,Shiba Yakiniku,restaurant,restaurant,True,19.9041485,99.8330836,,,,,,,restaurant,,,,,1,2,1,+2 tourism category,
osm:8797435998,,osm,Solao@Chiangmai,,,restaurant,restaurant,True,19.9279451,99.8440384,,Phahon Yothin Road,,,,,restaurant,,,,,1,2,1,+2 tourism category,
osm:8922379214,,osm,กั๊ดจัง คาเร,,,restaurant,restaurant,True,19.8983675,99.8249166,,,,,,,restaurant,,,,,1,2,1,+2 tourism category,
osm:8926304390,,osm,Mintaro,,Mintaro,cafe,cafe,True,19.9019739,99.8328878,,,,,,,cafe,,,,,1,2,1,+2 tourism category,
osm:8929779417,,osm,เต็มอิ่มเลิศรสข้าวมันไก่,,Dtem Im Lert Rot Chicken Rice,restaurant,restaurant,True,19.9071259,99.8353598,,,,,,,restaurant,,,,,1,2,1,+2 tourism category,
osm:8930769996,,osm,Yen Yen,,,cafe,cafe,True,19.9063835,99.8279061,,,,,,,cafe,,,,,1,2,1,+2 tourism category,
osm:8930799434,,osm,รัก กะเพรา,รัก กะเพรา,Rak Kraprow,restaurant,restaurant,True,19.9044999,99.8289845,,,,,,,restaurant,,,,,1,2,1,+2 tourism category,
osm:8932931825,,osm,ครัวลุงวัฒน์,,,restaurant,restaurant,True,19.9341917,99.841821,,,,,,,restaurant,,,,,1,2,1,+2 tourism category,
osm:8946453124,,osm,Bar-B-Q Plaza,,,restaurant,restaurant,True,19.8865728,99.8340541,,,,,,,restaurant,,,,,1,2,1,+2 tourism category,
osm:8946977328,,osm,ฮะจิบัง ราเมง,,Hachiban Ramen,restaurant,restaurant,True,19.8862676,99.8332984,,,,,,,restaurant,,,,,1,2,1,+2 tourism category,
osm:8946977329,,osm,Hot Pot Buffet,,,restaurant,restaurant,True,19.8860914,99.8330305,,,,,,,restaurant,,,,,1,2,1,+2 tourism category,
osm:8946977332,,osm,MK Restaurants,,,restaurant,restaurant,True,19.8865049,99.8336481,,,,,,,restaurant,,,,,1,2,1,+2 tourism category,
osm:8946980124,,osm,โออิชิ ราเมง,,Oishi Ramen,restaurant,restaurant,True,19.8886837,99.8376626,,,,,,,restaurant,,,,,1,2,1,+2 tourism category,
osm:8946980125,,osm,Daily Queen,,,ice_cream,ice_cream,False,19.8881628,99.8375715,,,,,,,ice_cream,,,,,1,2,1,+2 tourism category,
osm:8947728129,,osm,ส้มตำป้าเบ๊อะ,ส้มตำป้าเบ๊อะ,Pa Boe Somtam,restaurant,restaurant,True,19.9019658,99.8176155,,,,,,,restaurant,,,,,1,2,1,+2 tourism category,
osm:8950257762,,osm,โรงอาหาร,โรงอาหาร,Food Center,food_court,food_court,False,19.927849,99.8521942,,,,,,,food_court,,,,,1,2,1,+2 tourism category,
osm:8953875584,,osm,เวียงหลวงหมูกระทะ,เวียงหลวงหมูกระทะ,Wiangluang Mookata,restaurant,restaurant,True,19.9007725,99.8152239,,,,,,,restaurant,,,,,1,2,1,+2 tourism category,
osm:8953891125,,osm,ราดหน้าสนามบิน,ราดหน้าสนามบิน,Radnah Sanumbin,restaurant,restaurant,True,19.8996547,99.8276633,,,,,,,restaurant,,,,,1,2,1,+2 tourism category,
osm:8955693296,,osm,จีบ Dimsum,,Jeep Dimsum,restaurant,restaurant,True,19.903311,99.8321781,,,,,,,restaurant,,,,,1,2,1,+2 tourism category,
osm:8963043354,,osm,ข้าวต้มปลา 164,ข้าวต้มปลา 164,Khao Tom Pla 164,restaurant,restaurant,True,19.9021044,99.8281474,,,,,,,restaurant,,,,,1,2,1,+2 tourism category,
osm:9097753203,,osm,สเต็กลุงหนวด,สเต็กลุงหนวด,Steak Lung Nhuad,restaurant,restaurant,True,19.9090779,99.8379895,,,,,,,restaurant,,,,,1,2,1,+2 tourism category,
osm:9121752698,,osm,K-food K-pop,,K-food K-pop,restaurant,restaurant,True,19.9045739,99.8192624,,,,,,,restaurant,,,,,1,2,1,+2 tourism category,
osm:9131881434,,osm,ก๋วยเตี๋ยวต้มยำสุโขทัย,ก๋วยเตี๋ยวต้มยำสุโขทัย,Sukhothai Tom Yum Noodles,restaurant,restaurant,True,19.9110867,99.8382438,,,,,,,restaurant,,,,,1,2,1,+2 tourism category,
