src_id,src_id_alt,sources,name,name_thai,name_en,category_raw,subcategory,is_food,lat,lng,zipcode,address,phone,website,email,wongnai_categories,osm_subcategory,fb_ad_count,fb_check_status,fb_search_url,review_count,is_tourism,lead_raw,lead_quality,score_factors,detail_url
osm:1540338524,,osm,Noom Guesthouse,,,guest_house,guest_house,False,14.8003768,100.6140212,,,+66 36 427 693,https://noomguesthouse.com/,,,guest_house,,,,,1,7,5,+3 real website ; +2 tourism category ; +2 phone,
osm:4235345582,,osm,KFC,เค เอฟ ซี,KFC,fast_food,fast_food,True,14.8010493,100.6126173,,,1150,https://www.kfc.co.th/,,,fast_food,,,,,1,7,5,+3 real website ; +2 tourism category ; +2 phone,
osm:4791269122,,osm,Kannaree Massage,,Pee Guesthouse,guest_house,guest_house,False,14.8009858,100.6166017,,Soi Phromachan,0861642184,http://www.lopburimassage.com,,,guest_house,,,,,1,7,5,+3 real website ; +2 tourism category ; +2 phone,
osm:8909565464,,osm,Bitter*Sweet Lopburi,,,cafe,cafe,True,14.7730075,100.6999165,,,081 571 0440,https://www.bittersweeticecream.com/,,,cafe,,,,,1,7,5,+3 real website ; +2 tourism category ; +2 phone,
osm:424027473,,osm,Lopburi Inn Hotel,,,hotel,hotel,False,,,,,,http://lopburiinnhotel.com/,,,hotel,,,,,1,5,4,+3 real website ; +2 tourism category,
osm:3942692175,,osm,Ban Suan Rimnam Homestay,,,guest_house,guest_house,False,14.7949984,100.6072056,,,+66895241525,http://www.facebook.com/bansuanrimnamhomestay,,,guest_house,,,,,1,4,3,+2 tourism category ; +2 phone,
osm:8133364775,,osm,บัวลอยปริญญา สาขาลพบุรี,,,restaurant,restaurant,True,14.7938226,100.6319141,,"368/5, รามเดโช, ท่าหิน, 15000",0819972191,,,,restaurant,,,,,1,4,3,+2 tourism category ; +2 phone,
osm:8808188231,,osm,U Salad Cafe,,,restaurant,restaurant,True,14.7941097,100.6358383,,,061-614-9825,https://m.facebook.com/Usalad,,,restaurant,,,,,1,4,3,+2 tourism category ; +2 phone,
osm:8889731349,,osm,Bitter Sweet Dessert Cafe,,,cafe,cafe,True,14.7729928,100.6998482,,,+66 95 414 3452,https://m.facebook.com/SaraburiBitterSweet,,,cafe,,,,,1,4,3,+2 tourism category ; +2 phone,
osm:11002584787,,osm,มัดหมี่,มัดหมี่,Mudmee,restaurant,restaurant,True,14.7955863,100.6433532,,8/18,+66 36 412 883,,,,restaurant,,,,,1,4,3,+2 tourism category ; +2 phone,
osm:12959099500,,osm,Canteen 4 Yak Sai 3,แคนทีน 4แยกสาย3,,restaurant,restaurant,True,14.792657,100.6235049,,"ถนนรามเดโช, ตำบล ป่าตาล, อำเภอเมืองลพบุรี, ลพบุรี",+66 82 149 3057,,,,restaurant,,,,,1,4,3,+2 tourism category ; +2 phone,
osm:13310068370,,osm,อามอร์ กริลล์,อามอร์ กริลล์,Amore Grill,restaurant,restaurant,True,14.8005935,100.6128986,,,0944373798,,,,restaurant,,,,,1,4,3,+2 tourism category ; +2 phone,
osm:424274540,,osm,Hi So Resort Hotel,,,motel,motel,False,,,,,+66 86 9766404,https://www.facebook.com/hisobybeer/,,,motel,,,,,1,4,3,+2 tourism category ; +2 phone,
osm:259720002,,osm,Thepthani,,,hotel,hotel,False,14.8009788,100.6224885,,,,,,,hotel,,,,,1,2,1,+2 tourism category,
osm:423749888,,osm,,,,restaurant,restaurant,True,14.8104931,100.5688326,,,,,,,restaurant,,,,,1,2,1,+2 tourism category,
osm:423749890,,osm,,,,cafe,cafe,True,14.8105252,100.5683833,,,,,,,cafe,,,,,1,2,1,+2 tourism category,
osm:423749891,,osm,,,,hotel,hotel,False,14.8106831,100.5687159,,,,,,,hotel,,,,,1,2,1,+2 tourism category,
osm:493524936,,osm,,,,restaurant,restaurant,True,14.7906697,100.6010829,,,,,,,restaurant,,,,,1,2,1,+2 tourism category,
osm:2066042905,,osm,Noom's Bar,,,cafe,cafe,True,14.8003809,100.6140569,,,,,,,cafe,,,,,1,2,1,+2 tourism category,
osm:2066042907,,osm,Coffee House,,,cafe,cafe,True,14.8010071,100.6138255,,,,,,,cafe,,,,,1,2,1,+2 tourism category,
osm:2066042909,,osm,Hor Sophonsilp Museum,,,museum,museum,False,14.798588,100.6084715,,,,,,,museum,,,,,1,2,1,+2 tourism category,
osm:2066042910,,osm,Lopburi Asia Hotel,,,hotel,hotel,False,14.8006677,100.6120588,,,,,,,hotel,,,,,1,2,1,+2 tourism category,
osm:2066042911,,osm,Nett Hotel,,,hotel,hotel,False,14.8007653,100.612791,,,,,,,hotel,,,,,1,2,1,+2 tourism category,
osm:2066042912,,osm,Noom Guesthouse II,,,guest_house,guest_house,False,14.8007833,100.6129422,,,,,,,guest_house,,,,,1,2,1,+2 tourism category,
osm:2066043054,,osm,Matini,,,pub,pub,True,14.8005693,100.613804,,,,,,,pub,,,,,1,2,1,+2 tourism category,
osm:3457272700,,osm,Matini,,,guest_house,guest_house,False,14.8005992,100.6137779,,,,,,,guest_house,,,,,1,2,1,+2 tourism category,
osm:3942688410,,osm,Come on Bar,,,bar,bar,True,14.7994436,100.6140775,,,,,,,bar,,,,,1,2,1,+2 tourism category,
osm:3942688411,,osm,,ซูโฮ,Guardian Angel,cafe,cafe,True,14.7983515,100.609555,,,,,,,cafe,,,,,1,2,1,+2 tourism category,
osm:3942691996,,osm,The Little Lopburi Village,,,guest_house,guest_house,False,14.7961155,100.6078649,,,,,,,guest_house,,,,,1,2,1,+2 tourism category,
osm:3942692027,,osm,,,,cafe,cafe,True,14.7937063,100.6106005,,,,,,,cafe,,,,,1,2,1,+2 tourism category,
osm:4200399141,,osm,Windsor Resort,,,hotel,hotel,False,14.7928829,100.6174118,,,,,,,hotel,,,,,1,2,1,+2 tourism category,
osm:4235080454,,osm,,,,motel,motel,False,14.7891779,100.6803896,,,,,,,motel,,,,,1,2,1,+2 tourism category,
osm:4235112643,,osm,Dome Restaurant,,,restaurant,restaurant,True,14.7875028,100.6785943,,,,,,,restaurant,,,,,1,2,1,+2 tourism category,
osm:4235124911,,osm,Hizo Cafe,,,cafe,cafe,True,14.7915857,100.6787599,,,,,,,cafe,,,,,1,2,1,+2 tourism category,
osm:4235124912,,osm,Nok Eyan Restaurant,,,restaurant,restaurant,True,14.7916664,100.678491,,,,,,,restaurant,,,,,1,2,1,+2 tourism category,
osm:4235345580,,osm,Baan Sabai Bistro,,,pub,pub,True,14.7992969,100.6128828,,,,,,,pub,,,,,1,2,1,+2 tourism category,
osm:4235345581,,osm,Budsi's Place,,,pub,pub,True,14.8001054,100.61401,,,,,,,pub,,,,,1,2,1,+2 tourism category,
osm:4235345583,,osm,The Mellow Cafe,,,cafe,cafe,True,14.8007222,100.6138447,,,,,,,cafe,,,,,1,2,1,+2 tourism category,
osm:4235378463,,osm,Jay Coffee,,,cafe,cafe,True,14.7908562,100.6743422,,,,,,,cafe,,,,,1,2,1,+2 tourism category,
osm:4235378466,,osm,MDR Hotel,,,motel,motel,False,14.7861039,100.679834,,,,,,,motel,,,,,1,2,1,+2 tourism category,
osm:4235378468,,osm,Panom Wine & Bar Restaurant,,,pub,pub,True,14.7993751,100.6487171,,,,,,,pub,,,,,1,2,1,+2 tourism category,
osm:4235378472,,osm,Tasala Bar & Bistro,,,pub,pub,True,14.7870517,100.6792707,,,,,,,pub,,,,,1,2,1,+2 tourism category,
osm:4236472479,,osm,The Bank,,,bar,bar,True,14.7968738,100.6346341,,,,,,,bar,,,,,1,2,1,+2 tourism category,
osm:4236478999,,osm,Chill Out Bar & Restaurant,,,pub,pub,True,14.7886491,100.6349294,,,,,,,pub,,,,,1,2,1,+2 tourism category,
osm:4236479000,,osm,Last Night,,,bar,bar,True,14.788688,100.6352379,,,,,,,bar,,,,,1,2,1,+2 tourism category,
osm:4237294290,,osm,Cha Payom,,,cafe,cafe,True,14.8005396,100.6136993,,,,,,,cafe,,,,,1,2,1,+2 tourism category,
osm:4556609190,,osm,Muslim Halal Restaurant,Muslim Halal Restaurant,,restaurant,restaurant,True,14.7995765,100.6159944,,,,,,,restaurant,,,,,1,2,1,+2 tourism category,
osm:5012584021,,osm,,,Sri Indra Hotel,hotel,hotel,False,14.8020035,100.6143015,,,,,,,hotel,,,,,1,2,1,+2 tourism category,
osm:5242250921,,osm,Pannara,,,hotel,hotel,False,14.7934996,100.633106,,"188 Kunklongchonpratan, Thalaychupsorn, Lopburi City Center, Lopburi, Thailand 15000",,,,,hotel,,,,,1,2,1,+2 tourism category,
osm:5305015322,,osm,Wat San Paolo,,,attraction,attraction,False,14.7954629,100.6195567,,,,,,,attraction,,,,,1,2,1,+2 tourism category,
osm:5436780223,,osm,,,Entrance,museum,museum,False,14.8003632,100.6119804,,,,,,,museum,,,,,1,2,1,+2 tourism category,
osm:5484328681,,osm,,,,food_court,food_court,False,14.7985515,100.6635359,,,,,,,food_court,,,,,1,2,1,+2 tourism category,
osm:6053538215,,osm,,,,restaurant,restaurant,True,14.8056757,100.6116873,,,,,,,restaurant,,,,,1,2,1,+2 tourism category,
osm:6053538217,,osm,,,,restaurant,restaurant,True,14.8030364,100.6135644,,,,,,,restaurant,,,,,1,2,1,+2 tourism category,
osm:6053538218,,osm,โรงแรมเมืองทอง,,"Hotel Meuang Tong, Lopburi",hotel,hotel,False,14.802994,100.6135603,,,,,,,hotel,,,,,1,2,1,+2 tourism category,
osm:6053546279,,osm,,,,hotel,hotel,False,14.8053518,100.6115955,,,,,,,hotel,,,,,1,2,1,+2 tourism category,
osm:6053566402,,osm,,,,restaurant,restaurant,True,14.7984525,100.6173445,,,,,,,restaurant,,,,,1,2,1,+2 tourism category,
osm:6053566404,,osm,Tor,,,attraction,attraction,False,14.795344,100.614398,,,,,,,attraction,,,,,1,2,1,+2 tourism category,
osm:6053566407,,osm,,,,cafe,cafe,True,14.8001967,100.6121049,,,,,,,cafe,,,,,1,2,1,+2 tourism category,
osm:6053566408,,osm,,,,cafe,cafe,True,14.8004118,100.6120644,,,,,,,cafe,,,,,1,2,1,+2 tourism category,
osm:6053580288,,osm,,,,restaurant,restaurant,True,14.7991371,100.633617,,,,,,,restaurant,,,,,1,2,1,+2 tourism category,
osm:6053580293,,osm,,,,fast_food,fast_food,True,14.8018685,100.6154293,,,,,,,fast_food,,,,,1,2,1,+2 tourism category,
osm:6053580299,,osm,Nachtmarktessensstände,,,restaurant,restaurant,True,14.801351,100.6146937,,,,,,,restaurant,,,,,1,2,1,+2 tourism category,
osm:6053580301,,osm,night cook shops,,,fast_food,fast_food,True,14.8002489,100.614853,,,,,,,fast_food,,,,,1,2,1,+2 tourism category,
osm:6053580306,,osm,,,,restaurant,restaurant,True,14.7987198,100.6173877,,,,,,,restaurant,,,,,1,2,1,+2 tourism category,
osm:6053580308,,osm,,,,restaurant,restaurant,True,14.796092,100.6174084,,,,,,,restaurant,,,,,1,2,1,+2 tourism category,
osm:6053580311,,osm,Tor,,Gate,attraction,attraction,False,14.7952511,100.6144456,,,,,,,attraction,,,,,1,2,1,+2 tourism category,
osm:6053580312,,osm,,,,restaurant,restaurant,True,14.7955338,100.6125831,,,,,,,restaurant,,,,,1,2,1,+2 tourism category,
osm:6053580485,,osm,Ruinen,,,attraction,attraction,False,14.8005727,100.6143099,,,,,,,attraction,,,,,1,2,1,+2 tourism category,
osm:6053580486,,osm,,,,restaurant,restaurant,True,14.7954972,100.6127421,,,,,,,restaurant,,,,,1,2,1,+2 tourism category,
osm:6053580885,,osm,,,,cafe,cafe,True,14.7992195,100.6121978,,,,,,,cafe,,,,,1,2,1,+2 tourism category,
osm:6172168686,,osm,,,Buddha on the Hill,attraction,attraction,False,14.7954261,100.6943893,,,,,,,attraction,,,,,1,2,1,+2 tourism category,
osm:6342984996,,osm,,,,restaurant,restaurant,True,14.801243,100.612859,,,,,,,restaurant,,,,,1,2,1,+2 tourism category,
osm:6342985200,,osm,,,,restaurant,restaurant,True,14.8054541,100.611688,,,,,,,restaurant,,,,,1,2,1,+2 tourism category,
osm:6342985695,,osm,,,Amazon,cafe,cafe,True,14.800887,100.6121475,,,,,,,cafe,,,,,1,2,1,+2 tourism category,
osm:7076653585,,osm,,,Luan noodle shop,restaurant,restaurant,True,14.7990646,100.6335727,,,,,,,restaurant,,,,,1,2,1,+2 tourism category,
osm:7100508285,,osm,บ้านจันทร์เจ้าสหายพันตา,บ้านจันทร์เจ้าสหายพันตา,Baan Chanchao Sahai Panta,bar,bar,True,14.7991391,100.612886,,,,,,,bar,,,,,1,2,1,+2 tourism category,
osm:7174870787,,osm,,,Chef Daeng Asian Italian,restaurant,restaurant,True,14.7944277,100.6287704,,,,,,,restaurant,,,,,1,2,1,+2 tourism category,
osm:9704121217,,osm,,,HALAL FOOD,restaurant,restaurant,True,14.8241062,100.6303226,,,,,,,restaurant,,,,,1,2,1,+2 tourism category,
osm:11446241951,,osm,The Charlotte Smart Hotel Lopburi,,,hotel,hotel,False,14.7992071,100.6648997,,,,,,,hotel,,,,,1,2,1,+2 tourism category,
osm:11446370265,,osm,Café Amazon,,,cafe,cafe,True,14.8018368,100.6214126,,,,,,,cafe,,,,,1,2,1,+2 tourism category,
osm:11518338569,,osm,,,,restaurant,restaurant,True,14.796648,100.6143417,,,,,,,restaurant,,,,,1,2,1,+2 tourism category,
osm:11518338669,,osm,,,Padthaiburi,restaurant,restaurant,True,14.7953256,100.6144215,,,,,,,restaurant,,,,,1,2,1,+2 tourism category,
osm:11696375561,,osm,,,,restaurant,restaurant,True,14.8010564,100.6127321,,,,,,,restaurant,,,,,1,2,1,+2 tourism category,
osm:11696403769,,osm,,,,museum,museum,False,14.8000371,100.6099306,,,,,,,museum,,,,,1,2,1,+2 tourism category,
osm:11696418657,,osm,Inthanin,,,cafe,cafe,True,14.8001677,100.6118517,,,,,,,cafe,,,,,1,2,1,+2 tourism category,
osm:12009648769,,osm,,,HOP INN Lopburi,hotel,hotel,False,14.7929737,100.6695691,,,,,,,hotel,,,,,1,2,1,+2 tourism category,
osm:12011747870,,osm,,,Happy Cat Cafe,cafe,cafe,True,14.8038476,100.6015174,,,,,,,cafe,,,,,1,2,1,+2 tourism category,
osm:12058531869,,osm,,,,guest_house,guest_house,False,14.7999773,100.6146533,,,,,,,guest_house,,,,,1,2,1,+2 tourism category,
osm:12435025201,,osm,,,,restaurant,restaurant,True,14.7880588,100.6764058,,,,,,,restaurant,,,,,1,2,1,+2 tourism category,
osm:13072013429,,osm,ก๋วยเตี๋ยวเรือโกเฮง 2498,,,restaurant,restaurant,True,14.8999357,100.6107887,,,,,,,restaurant,,,,,1,2,1,+2 tourism category,
osm:13451821701,,osm,Tatiphop Hotel,,,hotel,hotel,False,14.8081843,100.6108005,,,,,,,hotel,,,,,1,2,1,+2 tourism category,
osm:13518302115,,osm,,,Chinese fishing nets,attraction,attraction,False,14.8042801,100.6083992,,,,,,,attraction,,,,,1,2,1,+2 tourism category,
osm:424026723,,osm,Lopburi Inn Resort,,,hotel,hotel,False,,,,,,,,,hotel,,,,,1,2,1,+2 tourism category,
osm:424274539,,osm,,,,motel,motel,False,,,,,,,,,motel,,,,,1,2,1,+2 tourism category,
osm:1110997143,,osm,P.B. Cafe,,,cafe,cafe,True,,,,,,,,,cafe,,,,,1,2,1,+2 tourism category,
osm:4235073889,,osm,Major Cineplex,,,cinema,cinema,False,14.793488,100.672115,,,,,,,cinema,,,,,0,0,0,,
osm:4236497449,,osm,,,,marketplace,marketplace,False,14.7844018,100.6778325,,,,,,,marketplace,,,,,0,0,0,,
osm:5023366821,,osm,,,Night Market,marketplace,marketplace,False,14.8012874,100.6325266,,,,,,,marketplace,,,,,0,0,0,,
osm:10316048096,,osm,,,,information,information,False,14.8026631,100.6140529,,,,,,,information,,,,,0,0,0,,
osm:11446300086,,osm,,,,marketplace,marketplace,False,14.7952142,100.674048,,,,,,,marketplace,,,,,0,0,0,,
osm:11696371590,,osm,,,,parking_space,parking_space,False,14.8004766,100.6118498,,,,,,,parking_space,,,,,0,0,0,,
osm:11696497788,,osm,,,,information,information,False,14.8027558,100.6102483,,,,,,,information,,,,,0,0,0,,
osm:12058531769,,osm,,,Night market,marketplace,marketplace,False,14.8004129,100.6136434,,,,,,,marketplace,,,,,0,0,0,,
osm:13455605161,,osm,SF Cinema,,,cinema,cinema,False,14.7756303,100.6932548,,,,,,,cinema,,,,,0,0,0,,
osm:40666878,,osm,,,,public_building,public_building,False,,,,,,,,,public_building,,,,,0,0,0,,
osm:424028031,,osm,,,,golf_course,golf_course,False,,,,,,,,,golf_course,,,,,0,0,0,,
osm:424062007,,osm,,,,marketplace,marketplace,False,,,,,,,,,marketplace,,,,,0,0,0,,
osm:543809865,,osm,โรงยิมกาฬวรรณดิส,,,fitness_centre,fitness_centre,False,,,,"ทะเลชุบศร, ทะเลชุบศร, 15000",,,,,fitness_centre,,,,,0,0,0,,
