src_id,src_id_alt,sources,name,name_thai,name_en,category_raw,subcategory,is_food,lat,lng,zipcode,address,phone,website,email,wongnai_categories,osm_subcategory,fb_ad_count,fb_check_status,fb_search_url,review_count,is_tourism,lead_raw,lead_quality,score_factors,detail_url
osm:5281374422,,osm,,,Baanchaokoh River Kwai,hotel,hotel,False,13.9916743,99.5069,,"76 moo 3 road soi, Baan Ta Huai village, Nongya, Muang, Kanchanaburi, 71000",+66819217644,http://www.baanchaokoh.com,baanchaokoh@gmail.com,,hotel,,,,,1,8,6,+3 real website ; +2 tourism category ; +2 phone ; +1 email,
osm:242566465,,osm,Death Railway Museum and Research Centre,,Death Railway Museum and Research Centre,museum,museum,False,,,,"73, ถนนเจ้าขนเณร, Kanchanaburi, 71000",+66 34 512721,http://www.tbrconline.com/,admin@tbrc.com,,museum,,,,,1,8,6,+3 real website ; +2 tourism category ; +2 phone ; +1 email,
osm:410081382,,osm,Thai Garden Inn,,,hotel,hotel,False,,,,"74/11 Moo 4, Tambon Thamakham, Amphoe Muang,, Kanchanaburi, 71000",+66858191686,https://www.thaigardeninn.com,info@thaigardeninn.com,,hotel,,,,,1,8,6,+3 real website ; +2 tourism category ; +2 phone ; +1 email,
osm:1034288963,,osm,KFC,เค เอฟ ซี,KFC,fast_food,fast_food,True,14.0228146,99.5346324,,,1150,https://www.kfc.co.th/,,,fast_food,,,,,1,7,5,+3 real website ; +2 tourism category ; +2 phone,
osm:1036540520,,osm,Tamarind,แทมมารี,Tamarind,hotel,hotel,False,14.0332198,99.5202561,,,+66-89-8377256,https://www.tamarindguesthouse.com/,,,hotel,,,,,1,7,5,+3 real website ; +2 tourism category ; +2 phone,
osm:3774705794,,osm,,,Kwai Riverside Resort,hotel,hotel,False,14.071485,99.4766926,,,+66 345 510 789,http://www.kwaeriversideresort.com/,,,hotel,,,,,1,7,5,+3 real website ; +2 tourism category ; +2 phone,
osm:4865820421,,osm,On's Thai Issan,,On's Thai-Issan Restaurant,restaurant,restaurant,True,14.0337403,99.5199276,,,+66 87 364 2264,,miss.on@hotmai.com,,restaurant,,,,,1,5,4,+2 tourism category ; +2 phone ; +1 email,
osm:5593962522,,osm,ลินส์ โฮสเทล,,Lynn's Hostel,hostel,hostel,False,14.0320261,99.5223601,,"9/4, Thetsabanbumrung 2 Road, 71000",0653835985,,travelyns11@gmail.com,,hostel,,,,,1,5,4,+2 tourism category ; +2 phone ; +1 email,
osm:6075210585,,osm,Bicycle Cafe,,,restaurant,restaurant,True,14.0306619,99.5253225,,"35, Chao Khun Nen Road, 71000",+66 86 164 2298,,bicyclecafe@hotmail.com,,restaurant,,,,,1,5,4,+2 tourism category ; +2 phone ; +1 email,
osm:6734162785,,osm,Kyllikki Hostel Cafe,,,hostel,hostel,False,14.0220666,99.5331219,,"160/61, U-Thong Soi 2 Rd, 71000",0655474400,https://m.facebook.com/Kyllikki.Kanchanaburi/,kyllikki.cafe@gmail.com,,hostel,,,,,1,5,4,+2 tourism category ; +2 phone ; +1 email,
osm:9320740317,,osm,Baan mama,,,hotel,hotel,False,13.9720666,99.4743346,,,,https://baanmama.com/,,,hotel,,,,,1,5,4,+3 real website ; +2 tourism category,
osm:631444719,,osm,Hop Inn Kanchanaburi,,,hotel,hotel,False,,,,,,https://hopinnhotel.com/,,,hotel,,,,,1,5,4,+3 real website ; +2 tourism category,
osm:1036459975,,osm,Noble Night,,,hotel,hotel,False,14.0345219,99.518571,,,+66-34-514769,,,,hotel,,,,,1,4,3,+2 tourism category ; +2 phone,
osm:1036675346,,osm,Ploy Resort,,,hotel,hotel,False,14.0344069,99.519063,,,034514437,,,,hotel,,,,,1,4,3,+2 tourism category ; +2 phone,
osm:1038806383,,osm,Blue Star Guest House,,,guest_house,guest_house,False,14.0347747,99.5171421,,,+66-34-512161;+66-1-6391688,,,,guest_house,,,,,1,4,3,+2 tourism category ; +2 phone,
osm:1038806449,,osm,River Kwai Bridge Resort,,,hotel,hotel,False,14.040554,99.5071337,,,+66-34-514522,,,,hotel,,,,,1,4,3,+2 tourism category ; +2 phone,
osm:3320410618,,osm,VN Guesthouse,,,hotel,hotel,False,14.0297235,99.5226985,,,006634514082,,,,hotel,,,,,1,4,3,+2 tourism category ; +2 phone,
osm:3792427838,,osm,,,Inchantree Kanchanaburi Hotel,hotel,hotel,False,14.0440539,99.5017334,,,+66 2 651 7677,,,,hotel,,,,,1,4,3,+2 tourism category ; +2 phone,
osm:3792429266,,osm,แพอาหารโฟลทติ้ง,,Floating Raft Restaurant,restaurant,restaurant,True,14.0415879,99.5035828,,"85, Kwaiyai Road, 71000",+6634512595,,,,restaurant,,,,,1,4,3,+2 tourism category ; +2 phone,
osm:4124782389,,osm,P&P Place,,,hotel,hotel,False,14.0348067,99.5195848,,40/6,034917557,,,,hotel,,,,,1,4,3,+2 tourism category ; +2 phone,
osm:4295462289,,osm,Sky Resort ,,,hotel,hotel,False,14.0303546,99.5223056,,,034518189,,,,hotel,,,,,1,4,3,+2 tourism category ; +2 phone,
osm:4547853093,,osm,,,D Hostel,hostel,hostel,False,14.0188733,99.5243933,,"23 Moo 1., Pak Phraek, 71000",+66804122298,,,,hostel,,,,,1,4,3,+2 tourism category ; +2 phone,
osm:4583486489,,osm,,,River Guest House,guest_house,guest_house,False,14.0290124,99.523357,,,034511637,,,,guest_house,,,,,1,4,3,+2 tourism category ; +2 phone,
osm:4744207939,,osm,,,Nita Rafthouse,guest_house,guest_house,False,14.0177648,99.5300215,,,+66 34 514521,,,,guest_house,,,,,1,4,3,+2 tourism category ; +2 phone,
osm:5064390129,,osm,VR KCB Mam,VR KCB Mam,VR KCB Mam,restaurant,restaurant,True,14.004359,99.546631,,,+66 34516072,,,,restaurant,,,,,1,4,3,+2 tourism category ; +2 phone,
osm:5464800821,,osm,ถุงเล็ก ร้านกาแฟและที่พัก,,ToongLek cafe&hostel,cafe,cafe,True,13.9723263,99.6346122,,"246/3, 71110",0864443700,http://facebook.com/toonglekcafe,,,cafe,,,,,1,4,3,+2 tourism category ; +2 phone,
osm:5549795729,,osm,รักษ์คันนา ก๋วยเตี๋ยวห้อยขา,,Rakkanna,attraction,attraction,False,13.9513633,99.6074932,,71110,0800616888,,,,attraction,,,,,1,4,3,+2 tourism category ; +2 phone,
osm:7158166186,,osm,,,The Balcony Restaurant and Cafe Lounge,restaurant,restaurant,True,14.0231884,99.5282338,,"196-198, Pak Prak Road, 71000",+66 87 829 8420,,,,restaurant,,,,,1,4,3,+2 tourism category ; +2 phone,
osm:9280534918,,osm,,,,restaurant,restaurant,True,14.0396223,99.5112819,,,+66810074533,,,,restaurant,,,,,1,4,3,+2 tourism category ; +2 phone,
osm:13774974816,,osm,Skypreme Fried Chicken,สกายพรีม ไก่ทอด,,food_court,food_court,False,13.9824801,99.6102614,,"31, ถนนแสงชูโต, Tha Muang, Tha Muang, Kanchanaburi, 71000",+66 87 017 8328,,,,food_court,,,,,1,4,3,+2 tourism category ; +2 phone,
osm:442871044,,osm,Kan Buri,,,restaurant,restaurant,True,,,,,66 819895664,,,,restaurant,,,,,1,4,3,+2 tourism category ; +2 phone,
osm:754029248,,osm,,,BH Place,apartment,apartment,False,,,,,0898950501,,,,apartment,,,,,1,4,3,+2 tourism category ; +2 phone,
osm:754034570,,osm,Natee,,Natee Hotel,hotel,hotel,False,,,,,034518777,,,,hotel,,,,,1,4,3,+2 tourism category ; +2 phone,
osm:759388165,,osm,Bussaba Coffee & Thai Restaurant,,,cafe,cafe,True,,,,,+66 98 302 8321,,,,cafe,,,,,1,4,3,+2 tourism category ; +2 phone,
osm:7278818651,,osm,SPORT PLUS,,,sports_centre,sports_centre,False,14.016314,99.5340248,,"223  225 227 229 231, แสงชูโต, บ้านใต้, 10700",081-015-9955,,sp.sportplus@gmail.com,,sports_centre,,,,,0,3,2,+2 phone ; +1 email,
osm:607519883,,osm,ร้านเตี๋ยวยำแม่แดง กาญจนบุรี,เตี๋ยวยำแม่แดง กาญจนบุรี,,restaurant,restaurant,True,,,,"65/23, เลี่ยงเมืองกาญจนบุรี, ปากแพรก, 71000",,,wittayathong@gmail.com,,restaurant,,,,,1,3,2,+2 tourism category ; +1 email,
osm:619336489,,osm,Bamboo House Guesthouse,,,hotel,hotel,False,14.0396289,99.5073548,,,,,,,hotel,,,,,1,2,1,+2 tourism category,
osm:619349790,,osm,,,,restaurant,restaurant,True,14.0020178,99.5465495,,,,,,,restaurant,,,,,1,2,1,+2 tourism category,
osm:694366744,,osm,Felix River Kwai Resort,,,hotel,hotel,False,14.0419945,99.4999352,,,,,,,hotel,,,,,1,2,1,+2 tourism category,
osm:949714991,,osm,Apples GH,,,hotel,hotel,False,14.0318048,99.5220673,,,,,,,hotel,,,,,1,2,1,+2 tourism category,
osm:1034436555,,osm,ครัวปู่เปี้ยก,ครัวปู่เปี้ยก,,restaurant,restaurant,True,14.0439827,99.5953745,,,,,,,restaurant,,,,,1,2,1,+2 tourism category,
osm:1036540547,,osm,Sugar Cane 1,,,hotel,hotel,False,14.0328207,99.5194571,,,,,,,hotel,,,,,1,2,1,+2 tourism category,
osm:1036588398,,osm,Luxury Hotel,,,hotel,hotel,False,14.0302678,99.528863,,,,,,,hotel,,,,,1,2,1,+2 tourism category,
osm:1036588399,,osm,Dollacha,,,restaurant,restaurant,True,14.0298771,99.5287128,,,,,,,restaurant,,,,,1,2,1,+2 tourism category,
osm:1036675327,,osm,Schluck,,,restaurant,restaurant,True,14.0335462,99.5204667,,,,,,,restaurant,,,,,1,2,1,+2 tourism category,
osm:1036675328,,osm,Magne & Tine,,,restaurant,restaurant,True,14.0341287,99.5197589,,,,,,,restaurant,,,,,1,2,1,+2 tourism category,
osm:1036675330,,osm,Pong Phen Guesthouse,,,hotel,hotel,False,14.0339627,99.518579,,,,,,,hotel,,,,,1,2,1,+2 tourism category,
osm:1036675333,,osm,Green View,,,hotel,hotel,False,14.034523,99.519372,,,,,,,hotel,,,,,1,2,1,+2 tourism category,
osm:1036675334,,osm,The Hut,,,restaurant,restaurant,True,14.0345279,99.5189449,,,,,,,restaurant,,,,,1,2,1,+2 tourism category,
osm:1036675335,,osm,Smiley Frog,,,hotel,hotel,False,14.0325044,99.5204671,,,,,,,hotel,,,,,1,2,1,+2 tourism category,
osm:1036675342,,osm,Tai-Thai,,,restaurant,restaurant,True,14.034618,99.5191677,,,,,,,restaurant,,,,,1,2,1,+2 tourism category,
osm:1036675343,,osm,Chitanun Guest House,,,hotel,hotel,False,14.0335889,99.5207495,,,,,,,hotel,,,,,1,2,1,+2 tourism category,
osm:1038806302,,osm,,,Blue Rice Restaurant,restaurant,restaurant,True,14.0337538,99.5138091,,,,,,,restaurant,,,,,1,2,1,+2 tourism category,
osm:1038806303,,osm,The Rabbit Café,,,cafe,cafe,True,14.0393142,99.5127276,,,,,,,cafe,,,,,1,2,1,+2 tourism category,
osm:1038806369,,osm,The Resort,,,hotel,hotel,False,14.039362,99.5124116,,,,,,,hotel,,,,,1,2,1,+2 tourism category,
osm:1038806375,,osm,Sugar Cane Guest House,,,hotel,hotel,False,14.0380523,99.5102736,,,,,,,hotel,,,,,1,2,1,+2 tourism category,
osm:1038806411,,osm,Apple's Guesthouse,,,guest_house,guest_house,False,14.033262,99.5136579,,,,,,,guest_house,,,,,1,2,1,+2 tourism category,
osm:1038806436,,osm,,,,restaurant,restaurant,True,14.0349536,99.5183729,,,,,,,restaurant,,,,,1,2,1,+2 tourism category,
osm:1038806437,,osm,Morning Guesthouse,,,guest_house,guest_house,False,14.0398187,99.5099052,,,,,,,guest_house,,,,,1,2,1,+2 tourism category,
osm:1038806445,,osm,Camelia Resort,,,hotel,hotel,False,14.0379984,99.5109745,,,,,,,hotel,,,,,1,2,1,+2 tourism category,
osm:1127234782,,osm,C&C Tour,,,guest_house,guest_house,False,14.0356133,99.5152423,,,,,,,guest_house,,,,,1,2,1,+2 tourism category,
osm:1130586249,,osm,Sunrise,,,restaurant,restaurant,True,14.0398836,99.5105324,,,,,,,restaurant,,,,,1,2,1,+2 tourism category,
osm:1834223743,,osm,Promittr Film Studios,,,attraction,attraction,False,14.1435527,99.4295979,,,,,,,attraction,,,,,1,2,1,+2 tourism category,
osm:2101774985,,osm,Tara Buree Restaurant,,,restaurant,restaurant,True,14.0187678,99.528281,,,,,,,restaurant,,,,,1,2,1,+2 tourism category,
osm:2168241899,,osm,หาคทรายสวย,,Hak Sai Suai Resort & Homestay,guest_house,guest_house,False,14.0357232,99.5102376,,,,,,,guest_house,,,,,1,2,1,+2 tourism category,
osm:2168253045,,osm,aajam,,,hotel,hotel,False,14.0372273,99.5115331,,,,,,,hotel,,,,,1,2,1,+2 tourism category,
osm:2500364978,,osm,,,World War II & Jeath Museum,museum,museum,False,14.0413645,99.5048847,,,,https://youtu.be/Bg5aU3rchhc,,,museum,,,,,1,2,1,+2 tourism category,
osm:3062461871,,osm,ก๋วยเตี๋ยวเรือโก๊ศักดิ์,,,restaurant,restaurant,True,14.0210676,99.5273247,,,,,,,restaurant,,,,,1,2,1,+2 tourism category,
osm:3144976435,,osm,Sam's House,,,hotel,hotel,False,14.0349164,99.5175464,,,,,,,hotel,,,,,1,2,1,+2 tourism category,
osm:3144976436,,osm,Tara Cafe,,,cafe,cafe,True,14.0347161,99.5186501,,,,,,,cafe,,,,,1,2,1,+2 tourism category,
osm:3237263941,,osm,Zab Zab Restaurant,,,restaurant,restaurant,True,14.032315,99.5233925,,"Don Ruk Road, Kanchanaburi",,,,,restaurant,,,,,1,2,1,+2 tourism category,
osm:3237264741,,osm,Baan Peek Mai Restaurant,,,restaurant,restaurant,True,14.0407125,99.5094478,,"Maenam Khwae Road, Kanchanaburi",,,,,restaurant,,,,,1,2,1,+2 tourism category,
osm:3263498264,,osm,Crowe's Nest Cafe,,,restaurant,restaurant,True,14.03368,99.52018,,,,,,,restaurant,,,,,1,2,1,+2 tourism category,
osm:3315619425,,osm,The Pickled Fish (Thai),,,restaurant,restaurant,True,14.0385514,99.5143446,,"Maenam Khwae Road, Kanchanaburi",,,,,restaurant,,,,,1,2,1,+2 tourism category,
osm:3315623739,,osm,Fai Coffee,,,cafe,cafe,True,14.031896,99.5237975,,,,,,,cafe,,,,,1,2,1,+2 tourism category,
osm:3315630600,,osm,Sabai @ Kan Resort,,,hotel,hotel,False,14.0390973,99.5119243,,"Maenam Khwae Road, Kanchanaburi",,,,,hotel,,,,,1,2,1,+2 tourism category,
osm:3320399319,,osm,Than Thip Kan Hotel,,,hotel,hotel,False,14.0251784,99.537123,,,,,,,hotel,,,,,1,2,1,+2 tourism category,
osm:3320400183,,osm,Mitreechit Bungalow,,,hotel,hotel,False,14.0270988,99.5412483,,,,,,,hotel,,,,,1,2,1,+2 tourism category,
osm:3320402548,,osm,Ban Bor Bungalow,,,hotel,hotel,False,14.0050413,99.5434155,,,,,,,hotel,,,,,1,2,1,+2 tourism category,
osm:3320402715,,osm,Baan Ma Feung Guest House,,,hotel,hotel,False,14.0251384,99.5313567,,,,,,,hotel,,,,,1,2,1,+2 tourism category,
osm:3320405470,,osm,Prasopsuk Hotel,,,hotel,hotel,False,14.0273086,99.5306111,,,,,,,hotel,,,,,1,2,1,+2 tourism category,
osm:3320407374,,osm,Rainbow Lodge Guesthouse,,,hotel,hotel,False,14.0243369,99.5278538,,,,,,,hotel,,,,,1,2,1,+2 tourism category,
osm:3320408417,,osm,V.L. Guest House,,,hotel,hotel,False,14.0269911,99.530772,,,,,,,hotel,,,,,1,2,1,+2 tourism category,
osm:3320408436,,osm,Modern Inn,,,hotel,hotel,False,14.0284432,99.5323599,,,,,,,hotel,,,,,1,2,1,+2 tourism category,
osm:3320410199,,osm,MK Hotel,,,hotel,hotel,False,14.0285004,99.5302946,,,,,,,hotel,,,,,1,2,1,+2 tourism category,
osm:3320410513,,osm,Si Ringrueang Bungalow,,,hotel,hotel,False,14.0317558,99.523876,,,,,,,hotel,,,,,1,2,1,+2 tourism category,
osm:3320411725,,osm,Rainbow Lodge,Rainbow homestay guesthouse,Rainbow homestay guesthouse,hotel,hotel,False,14.0301554,99.522205,,,,,,,hotel,,,,,1,2,1,+2 tourism category,
osm:3320412746,,osm,T and T Guest House,,,hotel,hotel,False,14.0321721,99.5202442,,,,,,,hotel,,,,,1,2,1,+2 tourism category,
osm:3320412750,,osm,Tamarind Guest House,,,hotel,hotel,False,14.0323309,99.5198205,,,,,,,hotel,,,,,1,2,1,+2 tourism category,
osm:3320415118,,osm,Thai Guesthouse,,,hotel,hotel,False,14.0330361,99.5221997,,,,,,,hotel,,,,,1,2,1,+2 tourism category,
osm:3320416374,,osm,My Home Guesthouse,,,hotel,hotel,False,14.0320212,99.5214004,,,,,,,hotel,,,,,1,2,1,+2 tourism category,
osm:3320417254,,osm,Thewin Town,,,hotel,hotel,False,14.0328279,99.5218456,,,,,,,hotel,,,,,1,2,1,+2 tourism category,
osm:3320419961,,osm,J Guest House,,J+J Guest House,hotel,hotel,False,14.0319249,99.5202254,,,,,,,hotel,,,,,1,2,1,+2 tourism category,
osm:3320421443,,osm,Shitanan,,,hotel,hotel,False,14.0333873,99.5206869,,,,,,,hotel,,,,,1,2,1,+2 tourism category,
osm:3320421894,,osm,Tara Bed and Breakfast,,,hotel,hotel,False,14.0348055,99.5185358,,,,,,,hotel,,,,,1,2,1,+2 tourism category,
osm:3320428478,,osm,Mister T Guest House,,,hotel,hotel,False,14.0372723,99.5124284,,,,,,,hotel,,,,,1,2,1,+2 tourism category,
osm:3320429581,,osm,Bamrungrak Hotel,,,hotel,hotel,False,14.0376626,99.5163337,,,,,,,hotel,,,,,1,2,1,+2 tourism category,
osm:3320434580,,osm,DhevaMantra Resort & Spa,,,hotel,hotel,False,14.0375716,99.4870466,,,,,,,hotel,,,,,1,2,1,+2 tourism category,
osm:3320436442,,osm,Bua Sawan Resort,,,hotel,hotel,False,14.0404651,99.4923789,,,,,,,hotel,,,,,1,2,1,+2 tourism category,
osm:3320440862,,osm,River Kwai Honey Well,,,hotel,hotel,False,14.0396845,99.4835007,,,,,,,hotel,,,,,1,2,1,+2 tourism category,
osm:3320441574,,osm,Honey Well Resort,,,hotel,hotel,False,14.0430718,99.4840442,,,,,,,hotel,,,,,1,2,1,+2 tourism category,
osm:3383971920,,osm,The Good Earth,,,restaurant,restaurant,True,14.0418809,99.499658,,,,,,,restaurant,,,,,1,2,1,+2 tourism category,
osm:3383974579,,osm,The Palm Garden Brasserie,,,restaurant,restaurant,True,14.0421258,99.4998143,,,,,,,restaurant,,,,,1,2,1,+2 tourism category,
osm:3383974580,,osm,The Rantee Lounge,,,bar,bar,True,14.0419773,99.4997411,,,,,,,bar,,,,,1,2,1,+2 tourism category,
osm:3383974581,,osm,The Green Wave Karaoke & Fun Pub,,,bar,bar,True,14.0418209,99.4997085,,,,,,,bar,,,,,1,2,1,+2 tourism category,
osm:3383974583,,osm,Sai Yok Pool Bar,,,bar,bar,True,14.0418035,99.4992053,,,,,,,bar,,,,,1,2,1,+2 tourism category,
osm:3604105106,,osm,ที เค ปาร์ค แอนด์ รึสอร์ท,,,hotel,hotel,False,14.0428531,99.5155029,,,,,,,hotel,,,,,1,2,1,+2 tourism category,
osm:3792192855,,osm,Century of Coffee,,,cafe,cafe,True,14.0321055,99.5226507,,,,,,,cafe,,,,,1,2,1,+2 tourism category,
osm:3792192856,,osm,,,Mangosteen Garden Restaurant,restaurant,restaurant,True,14.0327539,99.511605,,,,,,,restaurant,,,,,1,2,1,+2 tourism category,
osm:3792192857,,osm,Nut's Restaurant,,Nut's Restaurant,restaurant,restaurant,True,14.032138,99.5227101,,,,,,,restaurant,,,,,1,2,1,+2 tourism category,
osm:3792192858,,osm,Bela Rossa Italian,,,fast_food,fast_food,True,14.0321607,99.5227599,,,,,,,fast_food,,,,,1,2,1,+2 tourism category,
osm:3792213157,,osm,ระเบียงฟ้า,ระเบียงฟ้า,Rabiang Fa,restaurant,restaurant,True,14.0240566,99.5261992,,,,,,,restaurant,,,,,1,2,1,+2 tourism category,
osm:3792213172,,osm,,,,cafe,cafe,True,14.0196512,99.5277516,,,,,,,cafe,,,,,1,2,1,+2 tourism category,
osm:3792427836,,osm,,,Bridge Pop,cafe,cafe,True,14.0417799,99.5047619,,,,,,,cafe,,,,,1,2,1,+2 tourism category,
osm:3792427837,,osm,,,Grill House,restaurant,restaurant,True,14.0377545,99.5157357,,,,,,,restaurant,,,,,1,2,1,+2 tourism category,
osm:3792427839,,osm,,,Keeree Tara Restaurant,restaurant,restaurant,True,14.0424236,99.5031297,,,,,,,restaurant,,,,,1,2,1,+2 tourism category,
osm:3792427840,,osm,,,Loft Restaurant & Bar,restaurant,restaurant,True,14.0432007,99.5025228,,,,,,,restaurant,,,,,1,2,1,+2 tourism category,
osm:3792427841,,osm,,,River Kwai Restaurant,restaurant,restaurant,True,14.0411449,99.5041954,,,,,,,restaurant,,,,,1,2,1,+2 tourism category,
osm:3792440862,,osm,,,Makhamvilla,hotel,hotel,False,14.0442982,99.5013192,,,,,,,hotel,,,,,1,2,1,+2 tourism category,
osm:3792440863,,osm,,,Sudjai Resort,hotel,hotel,False,14.0335394,99.5143287,,,,,,,hotel,,,,,1,2,1,+2 tourism category,
osm:3792440864,,osm,,,Sudjai Restaurant,restaurant,restaurant,True,14.0333311,99.5145721,,,,,,,restaurant,,,,,1,2,1,+2 tourism category,
osm:3796286352,,osm,,,Ban Rim Nam Resort,hotel,hotel,False,14.0372943,99.479607,,,,,,,hotel,,,,,1,2,1,+2 tourism category,
osm:4109300393,,osm,River Kwai Mansion,,,hotel,hotel,False,14.0334601,99.5196383,,,,,,,hotel,,,,,1,2,1,+2 tourism category,
osm:4121371820,,osm,Friend Bar,,,bar,bar,True,14.0344077,99.5192982,,,,,,,bar,,,,,1,2,1,+2 tourism category,
osm:4121376214,,osm,Kanda,,,restaurant,restaurant,True,14.0338079,99.5194323,,,,,,,restaurant,,,,,1,2,1,+2 tourism category,
osm:4121376427,,osm,Bojangles,,,bar,bar,True,14.0341745,99.5196009,,,,,,,bar,,,,,1,2,1,+2 tourism category,
osm:4121381890,,osm,I Grill,,,restaurant,restaurant,True,14.0337747,99.5196452,,,,,,,restaurant,,,,,1,2,1,+2 tourism category,
osm:4121417489,,osm,Chapati Indian Food,,,restaurant,restaurant,True,14.0338542,99.5197083,,,,,,,restaurant,,,,,1,2,1,+2 tourism category,
osm:4121417490,,osm,Rome,,,restaurant,restaurant,True,14.0336694,99.5195768,,,,,,,restaurant,,,,,1,2,1,+2 tourism category,
osm:4122176390,,osm,Gravite,,,cafe,cafe,True,14.0325715,99.5231302,,,,,,,cafe,,,,,1,2,1,+2 tourism category,
osm:4122176890,,osm,The Nine,,,guest_house,guest_house,False,14.0325359,99.5230054,,,,,,,guest_house,,,,,1,2,1,+2 tourism category,
osm:4124782489,,osm,Cosy Guesthouse,,,guest_house,guest_house,False,14.0346124,99.5194538,,,,,,,guest_house,,,,,1,2,1,+2 tourism category,
osm:4199989890,,osm,,,Heritage Walk,attraction,attraction,False,14.0213959,99.5289874,,,,,,,attraction,,,,,1,2,1,+2 tourism category,
osm:4278025534,,osm,Bell's Pizzeria,,,restaurant,restaurant,True,14.0338422,99.520042,,,,,,,restaurant,,,,,1,2,1,+2 tourism category,
osm:4340705591,,osm,McDonald's 24th drive thru,,,fast_food,fast_food,True,14.0120063,99.5369716,,"แสงชูโต, 71000",,,,,fast_food,,,,,1,2,1,+2 tourism category,
osm:4342279696,,osm,A PA Bar-BQ,,,restaurant,restaurant,True,14.0101,99.539382,,,,,,,restaurant,,,,,1,2,1,+2 tourism category,
osm:4401940391,,osm,ซุ่นเฮงผัดไทย ลาดหญ้า,ซุ่นเฮงผัดไทย ลาดหญ้า,,restaurant,restaurant,True,14.099542,99.418597,,,,,,,restaurant,,,,,1,2,1,+2 tourism category,
osm:4464262089,,osm,,,Sium Carnival Funfair,attraction,attraction,False,14.0465903,99.5076435,,,,,,,attraction,,,,,1,2,1,+2 tourism category,
osm:4541589695,,osm,Tamarind guesthouse,Tamarind guesthouse,,guest_house,guest_house,False,14.0322621,99.5198219,,,,,,,guest_house,,,,,1,2,1,+2 tourism category,
osm:4551591895,,osm,,,,hotel,hotel,False,14.0249202,99.5257703,,,,,,,hotel,,,,,1,2,1,+2 tourism category,
osm:4558616290,,osm,Meat and cheese,Meat and cheese,,restaurant,restaurant,True,14.0393782,99.5120475,,,,,,,restaurant,,,,,1,2,1,+2 tourism category,
osm:4561119594,,osm,ครัวชุกโดน,ครัวชุกโดน,,restaurant,restaurant,True,14.0122845,99.5319311,,,,,,,restaurant,,,,,1,2,1,+2 tourism category,
osm:4568765978,,osm,KFC,,,fast_food,fast_food,True,14.0047315,99.5445199,,,,,,,fast_food,,,,,1,2,1,+2 tourism category,
osm:4568767304,,osm,MK,,,restaurant,restaurant,True,14.0044973,99.544874,,,,,,,restaurant,,,,,1,2,1,+2 tourism category,
osm:4572311991,,osm,สะพานข้ามแม่น้ำแคว,,River Kwai Bridge,attraction,attraction,False,14.0417974,99.5040471,,,,,,,attraction,,,,,1,2,1,+2 tourism category,
osm:4586537090,,osm,,,Gib & Guy Restaurant and Bike Rental,restaurant,restaurant,True,14.0336476,99.5202177,,,,,,,restaurant,,,,,1,2,1,+2 tourism category,
osm:4586724496,,osm,บ้าน,บ้าน,,hostel,hostel,False,13.9674199,99.6426354,,,,,,,hostel,,,,,1,2,1,+2 tourism category,
osm:4605179490,,osm,,,Canaan,guest_house,guest_house,False,14.0194258,99.5352262,,,,,,,guest_house,,,,,1,2,1,+2 tourism category,
osm:4623117992,,osm,,,Camp Surasee Zoo,attraction,attraction,False,14.1235401,99.4422041,,,,,,,attraction,,,,,1,2,1,+2 tourism category,
osm:4623135789,,osm,พิพิธภัณฑ์ทหารผ่านศึกเวียดนาม,,Vietman Veteran's Museum,museum,museum,False,14.1341564,99.4457339,,,,,,,museum,,,,,1,2,1,+2 tourism category,
osm:4676567392,,osm,Eurasia Resotel,Eurasia resotel,,hotel,hotel,False,14.0440659,99.6151562,,,,,,,hotel,,,,,1,2,1,+2 tourism category,
osm:4698583793,,osm,,,Oriental kwai resort,hotel,hotel,False,14.0798472,99.4191915,,,,,,,hotel,,,,,1,2,1,+2 tourism category,
osm:4828744024,,osm,,,Good house guest house,guest_house,guest_house,False,14.0318459,99.5216249,,,,,,,guest_house,,,,,1,2,1,+2 tourism category,
osm:4828756021,,osm,,,City gate and wall,attraction,attraction,False,14.0201254,99.5297046,,,,,,,attraction,,,,,1,2,1,+2 tourism category,
osm:4948041721,,osm,พิพิธภัณฑ์อักษะเชลยศึก,พิพิธภัณฑ์อักษะเชลยศึก,The JEATH War Museum,museum,museum,False,14.0163017,99.5305998,,,,,,,museum,,,,,1,2,1,+2 tourism category,
osm:4950270222,,osm,,,Cafe,cafe,cafe,True,13.957974,99.462924,,,,,,,cafe,,,,,1,2,1,+2 tourism category,
osm:5011390821,,osm,ต้นจามจุรียักษ์,ต้นจามจุรียักษ์,Giant Monkey Pod Tree,attraction,attraction,False,13.9552046,99.5270543,,,,,,,attraction,,,,,1,2,1,+2 tourism category,
osm:5013320223,,osm,,,Smile,restaurant,restaurant,True,14.0019992,99.5459439,,,,,,,restaurant,,,,,1,2,1,+2 tourism category,
osm:5014301223,,osm,Pizzeria Balla Napoli,Pizzeria Balla Napoli,,restaurant,restaurant,True,14.032031,99.5225099,,,,,,,restaurant,,,,,1,2,1,+2 tourism category,
osm:5031828024,,osm,,,Dejtosapak restaurant,restaurant,restaurant,True,14.0113454,99.5321886,,,,,,,restaurant,,,,,1,2,1,+2 tourism category,
osm:5064390130,,osm,VR KCB,VR KCB,VR food,restaurant,restaurant,True,14.0070514,99.5430252,,,,,,,restaurant,,,,,1,2,1,+2 tourism category,
osm:5077232624,,osm,VR KCB maenam,VR KCB maenam,,restaurant,restaurant,True,14.0321575,99.5225311,,,,,,,restaurant,,,,,1,2,1,+2 tourism category,
osm:5077232627,,osm,VR KCB early,VR KCB early,VR KCB early,restaurant,restaurant,True,14.0157121,99.5344771,,,,,,,restaurant,,,,,1,2,1,+2 tourism category,
osm:5102301822,,osm,,,,cafe,cafe,True,14.0507467,99.4392891,,,,,,,cafe,,,,,1,2,1,+2 tourism category,
osm:5102316121,,osm,,,ChanChala,restaurant,restaurant,True,14.0466827,99.5069821,,,,,,,restaurant,,,,,1,2,1,+2 tourism category,
osm:5162186125,,osm,,,Café Amazon,cafe,cafe,True,14.0014994,99.5189094,,,,,,,cafe,,,,,1,2,1,+2 tourism category,
osm:5166830021,,osm,,,Youta Vegetarian/Vegan Food,restaurant,restaurant,True,14.0324003,99.5229531,,,,,,,restaurant,,,,,1,2,1,+2 tourism category,
osm:5274763582,,osm,บ้านสิทธิสังข์,บ้านสิทธิสังข์,Sitthisang Coffee,cafe,cafe,True,14.0210761,99.5290196,,,,,,,cafe,,,,,1,2,1,+2 tourism category,
osm:5296943823,,osm,,,Baan Pladao,cafe,cafe,True,14.0536985,99.4257844,,,,,,,cafe,,,,,1,2,1,+2 tourism category,
osm:5297153823,,osm,มีนา Cafe,,,cafe,cafe,True,13.9502038,99.6282317,,,,,,,cafe,,,,,1,2,1,+2 tourism category,
osm:5350336122,,osm,ครัวธรรมชาติ,,,restaurant,restaurant,True,14.068336,99.4790036,,,,,,,restaurant,,,,,1,2,1,+2 tourism category,
osm:5360612124,,osm,,,Inchantreedoopool,hotel,hotel,False,14.0420917,99.5096471,,"India Road, 71000",,,,,hotel,,,,,1,2,1,+2 tourism category,
osm:5382615523,,osm,วัดถ้ำมุนีนาถ (วัดถ้ำฤาษี),,,attraction,attraction,False,13.960749,99.526218,,,,,,,attraction,,,,,1,2,1,+2 tourism category,
osm:5385175021,,osm,วัดถ้ำพุหว้า,,,attraction,attraction,False,13.9856213,99.403211,,,,,,,attraction,,,,,1,2,1,+2 tourism category,
osm:5385245021,,osm,วัดโพธิสัตว์บรรพตนิมิต,,,attraction,attraction,False,13.9928041,99.4828329,,,,,,,attraction,,,,,1,2,1,+2 tourism category,
osm:5489177821,,osm,,,Monkey Bar & Restaurant,restaurant,restaurant,True,14.0327077,99.5212101,,,,,,,restaurant,,,,,1,2,1,+2 tourism category,
osm:5550348732,,osm,คาเฟ่ อเมซอน,คาเฟ่ อเมซอน,Café Amazon,cafe,cafe,True,13.9811137,99.5973938,,,,,,,cafe,,,,,1,2,1,+2 tourism category,
osm:5550348735,,osm,,,Amazon Cafe,cafe,cafe,True,14.0930896,99.4222608,,,,,,,cafe,,,,,1,2,1,+2 tourism category,
osm:5550372027,,osm,,,32 Cafe,cafe,cafe,True,14.0633424,99.4922727,,,,,,,cafe,,,,,1,2,1,+2 tourism category,
osm:5580102123,,osm,Noodle shop,,,restaurant,restaurant,True,13.9938661,99.5359828,,,,,,,restaurant,,,,,1,2,1,+2 tourism category,
osm:5602827928,,osm,,,Kratom Dokkeao,restaurant,restaurant,True,13.9959488,99.4941293,,,,,,,restaurant,,,,,1,2,1,+2 tourism category,
osm:5607010922,,osm,,,Lynn's hostel,hostel,hostel,False,14.0320452,99.5224739,,,,,,,hostel,,,,,1,2,1,+2 tourism category,
osm:5672992721,,osm,ถ้ำแก้วกาญจนาภิเษก,ถ้ำแก้วกาญจนาภิเษก,Crystal Cave,attraction,attraction,False,13.9551105,99.5880142,,,,,,,attraction,,,,,1,2,1,+2 tourism category,
osm:5686366922,,osm,,,,attraction,attraction,False,14.1416752,99.4322359,,,,,,,attraction,,,,,1,2,1,+2 tourism category,
osm:5745343922,,osm,,,Pizza Bar,restaurant,restaurant,True,14.0329824,99.5209174,,,,,,,restaurant,,,,,1,2,1,+2 tourism category,
osm:5773685254,,osm,,,Noodle soup restaurant,restaurant,restaurant,True,14.0325431,99.5238439,,,,,,,restaurant,,,,,1,2,1,+2 tourism category,
osm:5784081253,,osm,manup dai ko gar,,,guest_house,guest_house,False,14.0153345,99.537548,,,,,,,guest_house,,,,,1,2,1,+2 tourism category,
osm:5784081254,,osm,manob dai ko gar,,,guest_house,guest_house,False,14.0153636,99.5370578,,,,,,,guest_house,,,,,1,2,1,+2 tourism category,
osm:5784081255,,osm,didiko gar,,,guest_house,guest_house,False,14.0402771,99.513058,,,,,,,guest_house,,,,,1,2,1,+2 tourism category,
osm:5824568653,,osm,,,,restaurant,restaurant,True,14.0416044,99.5035902,,,,,,,restaurant,,,,,1,2,1,+2 tourism category,
osm:5828723185,,osm,,,Stone Park,attraction,attraction,False,13.9915512,99.4546151,,,,,,,attraction,,,,,1,2,1,+2 tourism category,
osm:5833689489,,osm,,,Wat,viewpoint,viewpoint,False,13.9681756,99.5770075,,,,,,,viewpoint,,,,,1,2,1,+2 tourism category,
osm:5847664785,,osm,ชินโตะปาร์ค,,Shinto Park,museum,museum,False,14.099022,99.4132911,,,,,,,museum,,,,,1,2,1,+2 tourism category,
osm:5950958387,,osm,ฉางทองลอดท์,,,hotel,hotel,False,14.0294558,99.5530585,,,,,,,hotel,,,,,1,2,1,+2 tourism category,
osm:5950983586,,osm,,,One Tea Coffee and Bakery,cafe,cafe,True,14.0243452,99.5370047,,,,,,,cafe,,,,,1,2,1,+2 tourism category,
osm:5963289982,,osm,Cafe Amazon,,,cafe,cafe,True,14.0352231,99.5679129,,,,,,,cafe,,,,,1,2,1,+2 tourism category,
osm:6029796685,,osm,Inchantreedoopool,,,hotel,hotel,False,14.0422186,99.5099895,,India road,,,,,hotel,,,,,1,2,1,+2 tourism category,
osm:6118901875,,osm,,,,cafe,cafe,True,14.0322819,99.5248961,,,,,,,cafe,,,,,1,2,1,+2 tourism category,
osm:6119144387,,osm,,,Crua Sea Rung Rueng,restaurant,restaurant,True,14.0330741,99.5208538,,,,,,,restaurant,,,,,1,2,1,+2 tourism category,
osm:6122933485,,osm,Easy Bar,,,bar,bar,True,14.0335946,99.5203027,,,,,,,bar,,,,,1,2,1,+2 tourism category,
osm:6149107173,,osm,Fresh Coffee,,,restaurant,restaurant,True,14.0423697,99.5037173,,,,,,,restaurant,,,,,1,2,1,+2 tourism category,
osm:6194309585,,osm,,,"Rice, noodles, papaya salad",restaurant,restaurant,True,13.9710193,99.5779903,,,,,,,restaurant,,,,,1,2,1,+2 tourism category,
osm:6203093785,,osm,,,Jolly frog restaurant,restaurant,restaurant,True,14.0409373,99.5191314,,,,,,,restaurant,,,,,1,2,1,+2 tourism category,
osm:6207207585,,osm,Otop,,,cafe,cafe,True,14.0417455,99.5052395,,,,,,,cafe,,,,,1,2,1,+2 tourism category,
osm:6207224685,,osm,BAN lung Chuan,,,restaurant,restaurant,True,14.0454429,99.5094677,,,,,,,restaurant,,,,,1,2,1,+2 tourism category,
osm:6207224686,,osm,Paikan 2,,,restaurant,restaurant,True,14.0402166,99.509973,,,,,,,restaurant,,,,,1,2,1,+2 tourism category,
osm:6235305385,,osm,Start,,,attraction,attraction,False,14.0744222,99.5525312,,,,,,,attraction,,,,,1,2,1,+2 tourism category,
osm:6298516386,,osm,,,Ekanake,restaurant,restaurant,True,14.0711415,99.4864327,,,,,,,restaurant,,,,,1,2,1,+2 tourism category,
osm:6375975485,,osm,Home of river kwai,,,guest_house,guest_house,False,14.0109778,99.5358924,,,,,,,guest_house,,,,,1,2,1,+2 tourism category,
osm:6390549107,,osm,,,,hotel,hotel,False,14.0356356,99.5152101,,,,,,,hotel,,,,,1,2,1,+2 tourism category,
osm:6547190087,,osm,,,,restaurant,restaurant,True,14.0135467,99.5351611,,,,,,,restaurant,,,,,1,2,1,+2 tourism category,
osm:6565965386,,osm,,,After dawn café,cafe,cafe,True,14.0318795,99.5246187,,,,,,,cafe,,,,,1,2,1,+2 tourism category,
osm:6652530287,,osm,,,Keree Mantra Restaurant,restaurant,restaurant,True,14.0485017,99.4399119,,,,,,,restaurant,,,,,1,2,1,+2 tourism category,
osm:6685751886,,osm,,,River and Mountain Viewpoint,viewpoint,viewpoint,False,13.9967266,99.5052748,,,,,,,viewpoint,,,,,1,2,1,+2 tourism category,
osm:6752710585,,osm,,,Topae Hostel,hostel,hostel,False,14.0320737,99.5226114,,,,,,,hostel,,,,,1,2,1,+2 tourism category,
osm:6755745886,,osm,,,Mangosteen Cafe & Books,restaurant,restaurant,True,14.0327176,99.5210106,,,,,,,restaurant,,,,,1,2,1,+2 tourism category,
osm:6755747085,,osm,,,Duang Dee Cafe,restaurant,restaurant,True,14.0325367,99.5213884,,,,,,,restaurant,,,,,1,2,1,+2 tourism category,
osm:6755747089,,osm,,,Anchan Cuisine & Guest House,guest_house,guest_house,False,14.0344671,99.519193,,,,,,,guest_house,,,,,1,2,1,+2 tourism category,
osm:6755794788,,osm,,,Library Cafe,cafe,cafe,True,14.0382357,99.5152505,,,,,,,cafe,,,,,1,2,1,+2 tourism category,
osm:6755960185,,osm,,,Local Thai restaurant,restaurant,restaurant,True,14.041404,99.5076963,,,,,,,restaurant,,,,,1,2,1,+2 tourism category,
osm:6755975986,,osm,,,Cheap Thai restaurant,restaurant,restaurant,True,14.0389611,99.5129672,,,,,,,restaurant,,,,,1,2,1,+2 tourism category,
osm:6756012285,,osm,,,Cheap fresh coconuts,cafe,cafe,True,14.0320683,99.5222526,,,,,,,cafe,,,,,1,2,1,+2 tourism category,
osm:6757129085,,osm,,,M.A.S Stay-at-cafe,cafe,cafe,True,14.0159207,99.5344804,,,,,,,cafe,,,,,1,2,1,+2 tourism category,
osm:6758625785,,osm,,,Local restaurant shaped like a boat,restaurant,restaurant,True,13.9537396,99.5958553,,,,,,,restaurant,,,,,1,2,1,+2 tourism category,
osm:6758780785,,osm,,,Labkoff Cafe,cafe,cafe,True,14.0284146,99.5296527,,,,,,,cafe,,,,,1,2,1,+2 tourism category,
osm:6864865486,,osm,,,,attraction,attraction,False,14.0281935,99.5311798,,,,,,,attraction,,,,,1,2,1,+2 tourism category,
osm:6937274285,,osm,,,Jay (vegan) restaurant,restaurant,restaurant,True,14.0239552,99.5289362,,,,,,,restaurant,,,,,1,2,1,+2 tourism category,
osm:7035555985,,osm,Tapas Thai Bar,,,bar,bar,True,14.0337527,99.5193944,,,,,,,bar,,,,,1,2,1,+2 tourism category,
osm:7044154661,,osm,AP Grand Resort,,,hotel,hotel,False,14.0735372,99.4419468,,,,,,,hotel,,,,,1,2,1,+2 tourism category,
osm:7044461199,,osm,Day's Cafe,,,cafe,cafe,True,14.0584432,99.4650381,,,,,,,cafe,,,,,1,2,1,+2 tourism category,
osm:7044474278,,osm,คาเฟ่ อเมซอน,คาเฟ่ อเมซอน,Café Amazon,cafe,cafe,True,14.048228,99.5223973,,,,,,,cafe,,,,,1,2,1,+2 tourism category,
osm:7055949986,,osm,,,I GET coffee & bistro,restaurant,restaurant,True,14.0329536,99.5207758,,,,,,,restaurant,,,,,1,2,1,+2 tourism category,
osm:7059312985,,osm,,,,restaurant,restaurant,True,14.0231285,99.5272321,,,,,,,restaurant,,,,,1,2,1,+2 tourism category,
osm:7062431685,,osm,,,Jukruu restaurant Thai food reasonable price,restaurant,restaurant,True,14.0237115,99.5266229,,,,,,,restaurant,,,,,1,2,1,+2 tourism category,
osm:7079465485,,osm,Ubonkan,Ubon-kan Isan Kitchen,,restaurant,restaurant,True,14.0258967,99.534928,,,,,,,restaurant,,,,,1,2,1,+2 tourism category,
osm:7079465585,,osm,A&S Residence Kanchanaburi,,,hotel,hotel,False,14.0278601,99.5338916,,,,,,,hotel,,,,,1,2,1,+2 tourism category,
osm:7123939985,,osm,Hua Hong Coffee,,,cafe,cafe,True,14.0226252,99.5285161,,,,,,,cafe,,,,,1,2,1,+2 tourism category,
osm:7197198819,,osm,Nida,,,restaurant,restaurant,True,14.0300973,99.4952125,,,,,,,restaurant,,,,,1,2,1,+2 tourism category,
osm:7197198820,,osm,the Brook,,,restaurant,restaurant,True,14.0273395,99.5132697,,,,,,,restaurant,,,,,1,2,1,+2 tourism category,
osm:7197198821,,osm,,,,restaurant,restaurant,True,14.0268188,99.5135106,,,,,,,restaurant,,,,,1,2,1,+2 tourism category,
osm:7695536389,,osm,Santa Fe,,,restaurant,restaurant,True,14.0229751,99.5535854,,,,,,,restaurant,,,,,1,2,1,+2 tourism category,
osm:7695536390,,osm,Pizza Company,,,restaurant,restaurant,True,14.022923,99.5534459,,,,,,,restaurant,,,,,1,2,1,+2 tourism category,
osm:7695536391,,osm,KFC,,,fast_food,fast_food,True,14.0228606,99.5532689,,,,,,,fast_food,,,,,1,2,1,+2 tourism category,
osm:7695536392,,osm,Pancake,,,restaurant,restaurant,True,14.0227877,99.5531026,,,,,,,restaurant,,,,,1,2,1,+2 tourism category,
osm:7695536393,,osm,Bar B Q Plazza,,,restaurant,restaurant,True,14.0227253,99.5529577,,,,,,,restaurant,,,,,1,2,1,+2 tourism category,
osm:7695536394,,osm,MK Restaurants,,,restaurant,restaurant,True,14.0226732,99.5528343,,,,,,,restaurant,,,,,1,2,1,+2 tourism category,
osm:7695536395,,osm,Fuji Restaurant,,,restaurant,restaurant,True,14.022616,99.5527002,,,,,,,restaurant,,,,,1,2,1,+2 tourism category,
osm:7695536397,,osm,Dairy Queen,,,fast_food,fast_food,True,14.0227825,99.5526734,,,,,,,fast_food,,,,,1,2,1,+2 tourism category,
osm:7695536398,,osm,Mister Donut,,,restaurant,restaurant,True,14.0228137,99.5528022,,,,,,,restaurant,,,,,1,2,1,+2 tourism category,
osm:7695536399,,osm,Milk Land,,,restaurant,restaurant,True,14.0228918,99.5529416,,,,,,,restaurant,,,,,1,2,1,+2 tourism category,
osm:7966741104,,osm,,,,restaurant,restaurant,True,14.0980059,99.4119227,,,,,,,restaurant,,,,,1,2,1,+2 tourism category,
osm:8360998027,,osm,BIRU Izakaya & Yakiniku,,,restaurant,restaurant,True,14.0278121,99.5293643,,"277/110, แสงชูโต, ตำบลบ้านเหนือ, 71000",,https://www.facebook.com/biru.izakaya/settings/?tab=page_info,,,restaurant,,,,,1,2,1,+2 tourism category,
osm:8639254517,,osm,,,The Village Farm to Cafe’,cafe,cafe,True,14.0487204,99.438866,,,,,,,cafe,,,,,1,2,1,+2 tourism category,
osm:9279696719,,osm,Cinnamon Cafe,,,cafe,cafe,True,14.04147,99.5082351,,,,,,,cafe,,,,,1,2,1,+2 tourism category,
osm:10248609409,,osm,,,Thyme X Hostel,hostel,hostel,False,14.0323909,99.5231591,,,,,,,hostel,,,,,1,2,1,+2 tourism category,
osm:10562277072,,osm,Ting Tong Bar,,,bar,bar,True,14.0338071,99.5201085,,,,,,,bar,,,,,1,2,1,+2 tourism category,
osm:10585488514,,osm,Cafe Amazon,,,cafe,cafe,True,14.041531,99.5050284,,,,,,,cafe,,,,,1,2,1,+2 tourism category,
osm:10613194602,,osm,,,,cafe,cafe,True,13.9559364,99.5895526,,,,,,,cafe,,,,,1,2,1,+2 tourism category,
osm:10718148982,,osm,Cafe Amazon,,,cafe,cafe,True,13.9577557,99.6419005,,,,,,,cafe,,,,,1,2,1,+2 tourism category,
osm:11233618837,,osm,,,The Tavern Bar,bar,bar,True,14.035793,99.5174664,,,,,,,bar,,,,,1,2,1,+2 tourism category,
osm:11235575437,,osm,,,Bite 'n chew,restaurant,restaurant,True,14.0361099,99.5172816,,,,,,,restaurant,,,,,1,2,1,+2 tourism category,
osm:11235750737,,osm,,,IRIE Bar,bar,bar,True,14.0355446,99.5165682,,,,,,,bar,,,,,1,2,1,+2 tourism category,
osm:11235811838,,osm,,,Tapas Thai Bar Restaurant,restaurant,restaurant,True,14.0332012,99.5205557,,,,,,,restaurant,,,,,1,2,1,+2 tourism category,
osm:11237444437,,osm,,,Blue Hawaii Coffee,cafe,cafe,True,14.0276114,99.5305147,,,,,,,cafe,,,,,1,2,1,+2 tourism category,
osm:11404758782,,osm,,,,attraction,attraction,False,14.0664718,99.4179863,,,,,,,attraction,,,,,1,2,1,+2 tourism category,
osm:11765822200,,osm,Asleep hostel,,,hostel,hostel,False,14.034903,99.5235449,,,,,,,hostel,,,,,1,2,1,+2 tourism category,
osm:11773159549,,osm,Lokomotive,,,attraction,attraction,False,14.033459,99.5248952,,,,,,,attraction,,,,,1,2,1,+2 tourism category,
osm:11853835561,,osm,Tara Villa,,,resort,resort,False,14.0568512,99.4832425,,,,,,,resort,,,,,1,2,1,+2 tourism category,
osm:12350833101,,osm,Rien Maihom riverside cottage,,,hotel,hotel,False,14.0519781,99.4764609,,,,,,,hotel,,,,,1,2,1,+2 tourism category,
osm:12494461010,,osm,,,,restaurant,restaurant,True,14.0383599,99.5147094,,,,,,,restaurant,,,,,1,2,1,+2 tourism category,
osm:12497502857,,osm,Five Star,,Five Star,fast_food,fast_food,True,14.0422446,99.5137058,,,,,,,fast_food,,,,,1,2,1,+2 tourism category,
osm:12525256940,,osm,คาเฟ่ อเมซอน,คาเฟ่ อเมซอน,Café Amazon,cafe,cafe,True,14.0203722,99.534055,,,,,,,cafe,,,,,1,2,1,+2 tourism category,
osm:12551318617,,osm,Mutown,,,bar,bar,True,14.0332515,99.5207431,,,,,,,bar,,,,,1,2,1,+2 tourism category,
osm:12551318648,,osm,Bank Hun Yai,,,restaurant,restaurant,True,14.0185995,99.5132328,,,,,,,restaurant,,,,,1,2,1,+2 tourism category,
osm:12558547277,,osm,,,,viewpoint,viewpoint,False,13.9987111,99.5060485,,,,,,,viewpoint,,,,,1,2,1,+2 tourism category,
osm:12558557128,,osm,,,,viewpoint,viewpoint,False,13.9687363,99.5773893,,,,,,,viewpoint,,,,,1,2,1,+2 tourism category,
osm:12558659932,,osm,ร้านอาหาร แพหน้าเมือง,ร้านอาหาร แพหน้าเมือง,,restaurant,restaurant,True,14.0189507,99.5280538,,,,,,,restaurant,,,,,1,2,1,+2 tourism category,
osm:12655477351,,osm,Cafe du Kwai,,,restaurant,restaurant,True,14.0038554,99.5184388,,,,,,,restaurant,,,,,1,2,1,+2 tourism category,
osm:13174941340,,osm,โรงงานกระดาษไทย,โรงงานกระดาษไทย,Thai Paper Mill,museum,museum,False,14.018297,99.5320274,,,,,,,museum,,,,,1,2,1,+2 tourism category,
osm:13201926463,,osm,จุดชมวิว เขากระชาย กาญจนบุรี,,Khao Krachai Viewpoint,viewpoint,viewpoint,False,14.0412436,99.5458357,,,,,,,viewpoint,,,,,1,2,1,+2 tourism category,
osm:13201953915,,osm,โรงแรมกาญจนิกา,,Kanchanika Hotel,hotel,hotel,False,14.0256569,99.5293363,,,,,,,hotel,,,,,1,2,1,+2 tourism category,
osm:13288481093,,osm,ตำจีบริมคลอง,,,restaurant,restaurant,True,13.9635186,99.5915216,,,,,,,restaurant,,,,,1,2,1,+2 tourism category,
osm:13375784601,,osm,,,,restaurant,restaurant,True,14.0429051,99.5042865,,,,,,,restaurant,,,,,1,2,1,+2 tourism category,
osm:13380575802,,osm,สบายจิต,,,restaurant,restaurant,True,14.028417,99.5303802,,,,,,,restaurant,,,,,1,2,1,+2 tourism category,
osm:13423277482,,osm,จงเจริญสังขยานมซด,,,restaurant,restaurant,True,14.0454954,99.5111439,,,,,,,restaurant,,,,,1,2,1,+2 tourism category,
osm:13518302214,,osm,,,2 locomotives,attraction,attraction,False,14.043055,99.5050916,,,,,,,attraction,,,,,1,2,1,+2 tourism category,
osm:13754771019,,osm,Kin Khao Lam,,,restaurant,restaurant,True,14.036637,99.5168987,,,,,,,restaurant,,,,,1,2,1,+2 tourism category,
osm:13755598427,,osm,Teva Tara,,,cafe,cafe,True,14.0251783,99.52426,,,,,,,cafe,,,,,1,2,1,+2 tourism category,
osm:13757884812,,osm,,,,restaurant,restaurant,True,14.0099156,99.5329383,,,,,,,restaurant,,,,,1,2,1,+2 tourism category,
osm:255026323,,osm,Good Times Resort,,,hotel,hotel,False,,,,"265/5, Maenam Kwai Rd. Tha Makham , A. Muang, Kanchanaburi, 11000",,,,,hotel,,,,,1,2,1,+2 tourism category,
osm:375879439,,osm,The Glory River Kwai Hotel,,,hotel,hotel,False,,,,,,,,,hotel,,,,,1,2,1,+2 tourism category,
osm:375902779,,osm,,,Cafe @ Park,cafe,cafe,True,,,,,,,,,cafe,,,,,1,2,1,+2 tourism category,
osm:375902780,,osm,,,Phra Thart Kwae Yai,attraction,attraction,False,,,,,,,,,attraction,,,,,1,2,1,+2 tourism category,
osm:375902782,,osm,,,The Toto Bakery Cafe,cafe,cafe,True,,,,,,,,,cafe,,,,,1,2,1,+2 tourism category,
osm:375902788,,osm,,,River Kwai View Hotel,hotel,hotel,False,,,,,,,,,hotel,,,,,1,2,1,+2 tourism category,
osm:390631286,,osm,Pung Waan Resort & Spa,,,hotel,hotel,False,,,,"72/1, Moo 2, Kanchanaburi, 71000",,,,,hotel,,,,,1,2,1,+2 tourism category,
osm:442870848,,osm,UD Room & Coffee,,,hotel,hotel,False,,,,,,,,,hotel,,,,,1,2,1,+2 tourism category,
osm:442870862,,osm,Kanchanaburi City Hotel,,,hotel,hotel,False,,,,,,,,,hotel,,,,,1,2,1,+2 tourism category,
osm:631446841,,osm,The Bridge Hotel,,,hotel,hotel,False,,,,,,,,,hotel,,,,,1,2,1,+2 tourism category,
osm:754022963,,osm,Keree Mantra Hotel,,,hotel,hotel,False,,,,,,,,,hotel,,,,,1,2,1,+2 tourism category,
osm:754022967,,osm,Hotel,,,hotel,hotel,False,,,,,,,,,hotel,,,,,1,2,1,+2 tourism category,
osm:754032148,,osm,,,Just So Coffee & Bistro,bar,bar,True,,,,,,,,,bar,,,,,1,2,1,+2 tourism category,
osm:754034572,,osm,River Kwai Hotel,,,hotel,hotel,False,,,,,,,,,hotel,,,,,1,2,1,+2 tourism category,
osm:754034573,,osm,River Inn,,,hotel,hotel,False,,,,,,,,,hotel,,,,,1,2,1,+2 tourism category,
osm:792053809,,osm,West Wonder waterpark,West Wonder waterpark,West wonder waterpark,attraction,attraction,False,,,,,,,,,attraction,,,,,1,2,1,+2 tourism category,
osm:965057705,,osm,สะพานข้ามแม่น้ำแคว,สะพานข้ามแม่น้ำแคว,Death Railway viaduct,attraction,attraction,False,,,,,,,,,attraction,,,,,1,2,1,+2 tourism category,
osm:1135581465,,osm,,,Prisoner of War Camp Food Market,attraction,attraction,False,,,,,,,,,attraction,,,,,1,2,1,+2 tourism category,
osm:1148159347,,osm,Krua Anong,,,restaurant,restaurant,True,,,,,,,,,restaurant,,,,,1,2,1,+2 tourism category,
osm:1177267983,,osm,,,,restaurant,restaurant,True,,,,,,,,,restaurant,,,,,1,2,1,+2 tourism category,
osm:1232433648,,osm,Mittapan Hotel,,,hotel,hotel,False,,,,,,,,,hotel,,,,,1,2,1,+2 tourism category,
osm:1344354653,,osm,Royal River Khwae Resort,,,resort,resort,False,,,,,,,,,resort,,,,,1,2,1,+2 tourism category,
osm:1344354654,,osm,,,,hotel,hotel,False,,,,,,,,,hotel,,,,,1,2,1,+2 tourism category,
osm:1344354655,,osm,,,,hotel,hotel,False,,,,,,,,,hotel,,,,,1,2,1,+2 tourism category,
osm:1344354656,,osm,,,,hotel,hotel,False,,,,,,,,,hotel,,,,,1,2,1,+2 tourism category,
osm:1344354657,,osm,,,,hotel,hotel,False,,,,,,,,,hotel,,,,,1,2,1,+2 tourism category,
osm:1344354658,,osm,,,,hotel,hotel,False,,,,,,,,,hotel,,,,,1,2,1,+2 tourism category,
osm:1344354659,,osm,,,,hotel,hotel,False,,,,,,,,,hotel,,,,,1,2,1,+2 tourism category,
osm:1344354660,,osm,,,,hotel,hotel,False,,,,,,,,,hotel,,,,,1,2,1,+2 tourism category,
osm:1418266197,,osm,พิพิธภัณฑ์สงครามโลกครั้งที่ 2,,JEATH-Kriegsmuseum,museum,museum,False,,,,,,,,,museum,,,,,1,2,1,+2 tourism category,
osm:1446461262,,osm,สะพานสองแคว,สะพานสองแคว,,attraction,attraction,False,,,,,,,,,attraction,,,,,1,2,1,+2 tourism category,
osm:1473477987,,osm,KAAN Riverkwai,,,restaurant,restaurant,True,,,,,,,,,restaurant,,,,,1,2,1,+2 tourism category,
osm:1034436161,,osm,สำนักงานประชาสัมพันธ์เขต8 จังหวัดกาญจนบุรี,สำนักงานประชาสัมพันธ์เขต8 จังหวัดกาญจนบุรี,Public Relations Office Region 8,public_building,public_building,False,14.0395825,99.5818023,,,,,,,public_building,,,,,0,0,0,,
osm:1037807092,,osm,แขวงการทางกาญจนบุรี,แขวงการทางกาญจนบุรี,,public_building,public_building,False,14.0534857,99.5023423,,,,,,,public_building,,,,,0,0,0,,
osm:1037807112,,osm,สำนักงานขนส่งจังหวัดกาญจนบุรี,สำนักงานขนส่งจังหวัดกาญจนบุรี,Transport Office Kanchanaburi Province,public_building,public_building,False,14.0629599,99.4881009,,,,,,,public_building,,,,,0,0,0,,
osm:1037807144,,osm,สนามไดร์ฟกอล์ฟ,สนามไดร์ฟกอล์ฟ,Golf course,golf_course,golf_course,False,14.051999,99.505912,,,,,,,golf_course,,,,,0,0,0,,
osm:3793647868,,osm,Café Amazon,คาเฟ่ อเมซอน,Café Amazon,coffee,coffee,False,13.9793991,99.6238095,,,,,,,coffee,,,,,0,0,0,,
osm:3793647869,,osm,Café Amazon,คาเฟ่ อเมซอน,Café Amazon,coffee,coffee,False,13.9996906,99.551623,,,,,,,coffee,,,,,0,0,0,,
osm:6067987385,,osm,,,Tourism Authority Thailand Office Kanchanaburi,information,information,False,14.019673,99.5335156,,,,,,,information,,,,,0,0,0,,
osm:6755847487,,osm,,,Boxing training,fitness_centre,fitness_centre,False,14.0434401,99.5045863,,,,,,,fitness_centre,,,,,0,0,0,,
osm:6758523285,,osm,,,Bridge across the river,information,information,False,13.9815905,99.4888876,,,,,,,information,,,,,0,0,0,,
osm:12273620401,,osm,ตลาดชุกโดน,ตลาดชุกโดน,Chukdon Market,marketplace,marketplace,False,14.0128015,99.5337847,,,,,,,marketplace,,,,,0,0,0,,
osm:12499386666,,osm,Dee&Spa,,,massage,massage,False,14.0383369,99.5146384,,,,,,,massage,,,,,0,0,0,,
osm:13201926466,,osm,Major Cineplex TMK Park Kanchanaburi,,,cinema,cinema,False,14.0523809,99.5057653,,,,,,,cinema,,,,,0,0,0,,
osm:13295953256,,osm,Tourist Attraktion Map World War 2 History,,,information,information,False,14.0202402,99.5295847,,,,,,,information,,,,,0,0,0,,
osm:13518302603,,osm,,,no road up to the main road here,information,information,False,14.0361704,99.5193862,,,,,,,information,,,,,0,0,0,,
osm:13754771018,,osm,Jadran,,,massage,massage,False,14.0357081,99.5177838,,,,,,,massage,,,,,0,0,0,,
osm:242566464,,osm,Night Market,,,marketplace,marketplace,False,,,,,,,,,marketplace,,,,,0,0,0,,
osm:375902781,,osm,,,River Kwae Park,marketplace,marketplace,False,,,,,,,,,marketplace,,,,,0,0,0,,
osm:442872430,,osm,,,,sports_centre,sports_centre,False,,,,,,,,,sports_centre,,,,,0,0,0,,
osm:442872435,,osm,,,,sports_centre,sports_centre,False,,,,,,,,,sports_centre,,,,,0,0,0,,
osm:565116034,,osm,สนามกีฬาจังหวัด (กลีบบัว),สนามกีฬาจังหวัด (กลีบบัว),Provincial Stadium,sports_centre,sports_centre,False,,,,,,,,,sports_centre,,,,,0,0,0,,
osm:1355954386,,osm,,,night market,marketplace,marketplace,False,,,,,,,,,marketplace,,,,,0,0,0,,
osm:1356638202,,osm,,,,marketplace,marketplace,False,,,,,,,,,marketplace,,,,,0,0,0,,
osm:1433185623,,osm,Sim Golf Kanchanaburi,,,golf_course,golf_course,False,,,,,,,,,golf_course,,,,,0,0,0,,
osm:1433238980,,osm,สนามไดร์ฟกอล์ฟ มณฑลทหารบกที่ 17,,"Golf Driving Range, 17th Military District",golf_course,golf_course,False,,,,,,,,,golf_course,,,,,0,0,0,,
osm:1435613386,,osm,สนามไดร์ฟกอล์ฟ,,Full Swing Golf Driving Range,golf_course,golf_course,False,,,,,,,,,golf_course,,,,,0,0,0,,
osm:1435613699,,osm,Mae Klong Dam Golf Course,,,golf_course,golf_course,False,,,,,,,,,golf_course,,,,,0,0,0,,
osm:1446461261,,osm,ตลาดปากบ่อ,ตลาดปากบ่อ,,marketplace,marketplace,False,,,,,,,,,marketplace,,,,,0,0,0,,
