osm_id,osm_type,category,subcategory,name,name_en,name_th,lat,lng,phone,website,facebook,instagram,line_id,email,opening_hours,address_full,stars,cuisine,wheelchair,operator
619336489,node,tourism,hotel,Bamboo House Guesthouse,,,14.0396289,99.5073548,,,,,,,,,,,yes,
619349790,node,amenity,restaurant,,,,14.0020178,99.5465495,,,,,,,,,,,,
694366744,node,tourism,hotel,Felix River Kwai Resort,,,14.0419945,99.4999352,,,,,,,,,,,,
949714991,node,tourism,hotel,Apples GH,,,14.0318048,99.5220673,,,,,,,,,,,,
1034288963,node,amenity,fast_food,KFC,KFC,เค เอฟ ซี,14.0228146,99.5346324,1150,https://www.kfc.co.th/,,,,,,,,chicken,,Kentucky Fried Chicken
1034436161,node,amenity,public_building,สำนักงานประชาสัมพันธ์เขต8 จังหวัดกาญจนบุรี,Public Relations Office Region 8,สำนักงานประชาสัมพันธ์เขต8 จังหวัดกาญจนบุรี,14.0395825,99.5818023,,,,,,,,,,,,
1034436555,node,amenity,restaurant,ครัวปู่เปี้ยก,,ครัวปู่เปี้ยก,14.0439827,99.5953745,,,,,,,,,,,,
1036459975,node,tourism,hotel,Noble Night,,,14.0345219,99.518571,+66-34-514769,,,,,,,,,,,
1036540520,node,tourism,hotel,Tamarind,Tamarind,แทมมารี,14.0332198,99.5202561,+66-89-8377256,https://www.tamarindguesthouse.com/,,,,,,,,,,
1036540547,node,tourism,hotel,Sugar Cane 1,,,14.0328207,99.5194571,,,,,,,,,,,,
1036588398,node,tourism,hotel,Luxury Hotel,,,14.0302678,99.528863,,,,,,,,,,,,
1036588399,node,amenity,restaurant,Dollacha,,,14.0298771,99.5287128,,,,,,,,,,,,
1036675327,node,amenity,restaurant,Schluck,,,14.0335462,99.5204667,,,,,,,,,,,,
1036675328,node,amenity,restaurant,Magne & Tine,,,14.0341287,99.5197589,,,,,,,,,,,,
1036675330,node,tourism,hotel,Pong Phen Guesthouse,,,14.0339627,99.518579,,,,,,,,,,,,
1036675333,node,tourism,hotel,Green View,,,14.034523,99.519372,,,,,,,,,,,,
1036675334,node,amenity,restaurant,The Hut,,,14.0345279,99.5189449,,,,,,,,,,,,
1036675335,node,tourism,hotel,Smiley Frog,,,14.0325044,99.5204671,,,,,,,,,,,,
1036675342,node,amenity,restaurant,Tai-Thai,,,14.034618,99.5191677,,,,,,,,,,,,
1036675343,node,tourism,hotel,Chitanun Guest House,,,14.0335889,99.5207495,,,,,,,,,,,,
1036675346,node,tourism,hotel,Ploy Resort,,,14.0344069,99.519063,034514437,,,,,,,,,,,
1037807092,node,amenity,public_building,แขวงการทางกาญจนบุรี,,แขวงการทางกาญจนบุรี,14.0534857,99.5023423,,,,,,,,,,,,
1037807112,node,amenity,public_building,สำนักงานขนส่งจังหวัดกาญจนบุรี,Transport Office Kanchanaburi Province,สำนักงานขนส่งจังหวัดกาญจนบุรี,14.0629599,99.4881009,,,,,,,,,,,,
1037807144,node,leisure,golf_course,สนามไดร์ฟกอล์ฟ,Golf course,สนามไดร์ฟกอล์ฟ,14.051999,99.505912,,,,,,,,,,,,
1038806302,node,amenity,restaurant,,Blue Rice Restaurant,,14.0337538,99.5138091,,,,,,,,,,,,Apple's Retreat
1038806303,node,amenity,cafe,The Rabbit Café,,,14.0393142,99.5127276,,,,,,,,,,,,
1038806369,node,tourism,hotel,The Resort,,,14.039362,99.5124116,,,,,,,,,,,,
1038806375,node,tourism,hotel,Sugar Cane Guest House,,,14.0380523,99.5102736,,,,,,,,,,,,
1038806383,node,tourism,guest_house,Blue Star Guest House,,,14.0347747,99.5171421,+66-34-512161;+66-1-6391688,,,,,,,,,,,
1038806411,node,tourism,guest_house,Apple's Guesthouse,,,14.033262,99.5136579,,,,,,,,,,,,
1038806436,node,amenity,restaurant,,,,14.0349536,99.5183729,,,,,,,,,,regional,,
1038806437,node,tourism,guest_house,Morning Guesthouse,,,14.0398187,99.5099052,,,,,,,,,,,,
1038806445,node,tourism,hotel,Camelia Resort,,,14.0379984,99.5109745,,,,,,,,,,,,
1038806449,node,tourism,hotel,River Kwai Bridge Resort,,,14.040554,99.5071337,+66-34-514522,,,,,,,,,,,
1127234782,node,tourism,guest_house,C&C Tour,,,14.0356133,99.5152423,,,,,,,,,,,,
1130586249,node,amenity,restaurant,Sunrise,,,14.0398836,99.5105324,,,,,,,,,,thai;european,,
1834223743,node,tourism,attraction,Promittr Film Studios,,,14.1435527,99.4295979,,,,,,,,,,,,
2101774985,node,amenity,restaurant,Tara Buree Restaurant,,,14.0187678,99.528281,,,,,,,,,,thai,,
2168241899,node,tourism,guest_house,หาคทรายสวย,Hak Sai Suai Resort & Homestay,,14.0357232,99.5102376,,,,,,,,,,,,
2168253045,node,tourism,hotel,aajam,,,14.0372273,99.5115331,,,,,,,,,,,,
2500364978,node,tourism,museum,,World War II & Jeath Museum,,14.0413645,99.5048847,,https://youtu.be/Bg5aU3rchhc,,,,,,,,,,
3062461871,node,amenity,restaurant,ก๋วยเตี๋ยวเรือโก๊ศักดิ์,,,14.0210676,99.5273247,,,,,,,,,,,,
3144976435,node,tourism,hotel,Sam's House,,,14.0349164,99.5175464,,,,,,,,,,,,
3144976436,node,amenity,cafe,Tara Cafe,,,14.0347161,99.5186501,,,,,,,,,,,,
3237263941,node,amenity,restaurant,Zab Zab Restaurant,,,14.032315,99.5233925,,,,,,,,"Don Ruk Road, Kanchanaburi",,thai,,
3237264741,node,amenity,restaurant,Baan Peek Mai Restaurant,,,14.0407125,99.5094478,,,,,,,,"Maenam Khwae Road, Kanchanaburi",,thai,,
3263498264,node,amenity,restaurant,Crowe's Nest Cafe,,,14.03368,99.52018,,,,,,,,,,international,,
3315619425,node,amenity,restaurant,The Pickled Fish (Thai),,,14.0385514,99.5143446,,,,,,,Mo-Su 11:00-20:00,"Maenam Khwae Road, Kanchanaburi",,thai,,
3315623739,node,amenity,cafe,Fai Coffee,,,14.031896,99.5237975,,,,,,,,,,Thai_coffee_and_noodles,,
3315630600,node,tourism,hotel,Sabai @ Kan Resort,,,14.0390973,99.5119243,,,,,,,,"Maenam Khwae Road, Kanchanaburi",,,,
3320399319,node,tourism,hotel,Than Thip Kan Hotel,,,14.0251784,99.537123,,,,,,,,,,,,
3320400183,node,tourism,hotel,Mitreechit Bungalow,,,14.0270988,99.5412483,,,,,,,,,,,,
3320402548,node,tourism,hotel,Ban Bor Bungalow,,,14.0050413,99.5434155,,,,,,,,,,,,
3320402715,node,tourism,hotel,Baan Ma Feung Guest House,,,14.0251384,99.5313567,,,,,,,,,,,,
3320405470,node,tourism,hotel,Prasopsuk Hotel,,,14.0273086,99.5306111,,,,,,,,,,,,
3320407374,node,tourism,hotel,Rainbow Lodge Guesthouse,,,14.0243369,99.5278538,,,,,,,,,,,,
3320408417,node,tourism,hotel,V.L. Guest House,,,14.0269911,99.530772,,,,,,,,,,,,
3320408436,node,tourism,hotel,Modern Inn,,,14.0284432,99.5323599,,,,,,,,,,,,
3320410199,node,tourism,hotel,MK Hotel,,,14.0285004,99.5302946,,,,,,,,,,,,
3320410513,node,tourism,hotel,Si Ringrueang Bungalow,,,14.0317558,99.523876,,,,,,,,,,,,
3320410618,node,tourism,hotel,VN Guesthouse,,,14.0297235,99.5226985,006634514082,,,,,,,,,,,
3320411725,node,tourism,hotel,Rainbow Lodge,Rainbow homestay guesthouse,Rainbow homestay guesthouse,14.0301554,99.522205,,,,,,,,,,,,
3320412746,node,tourism,hotel,T and T Guest House,,,14.0321721,99.5202442,,,,,,,,,,,,
3320412750,node,tourism,hotel,Tamarind Guest House,,,14.0323309,99.5198205,,,,,,,,,,,,
3320415118,node,tourism,hotel,Thai Guesthouse,,,14.0330361,99.5221997,,,,,,,,,,,,
3320416374,node,tourism,hotel,My Home Guesthouse,,,14.0320212,99.5214004,,,,,,,,,,,,
3320417254,node,tourism,hotel,Thewin Town,,,14.0328279,99.5218456,,,,,,,,,,,,
3320419961,node,tourism,hotel,J Guest House,J+J Guest House,,14.0319249,99.5202254,,,,,,,24/7,,,,,
3320421443,node,tourism,hotel,Shitanan,,,14.0333873,99.5206869,,,,,,,,,,,,
3320421894,node,tourism,hotel,Tara Bed and Breakfast,,,14.0348055,99.5185358,,,,,,,,,,,,
3320428478,node,tourism,hotel,Mister T Guest House,,,14.0372723,99.5124284,,,,,,,,,,,,
3320429581,node,tourism,hotel,Bamrungrak Hotel,,,14.0376626,99.5163337,,,,,,,,,,,,
3320434580,node,tourism,hotel,DhevaMantra Resort & Spa,,,14.0375716,99.4870466,,,,,,,,,,,,
3320436442,node,tourism,hotel,Bua Sawan Resort,,,14.0404651,99.4923789,,,,,,,,,,,,
3320440862,node,tourism,hotel,River Kwai Honey Well,,,14.0396845,99.4835007,,,,,,,,,,,,
3320441574,node,tourism,hotel,Honey Well Resort,,,14.0430718,99.4840442,,,,,,,,,,,,
3383971920,node,amenity,restaurant,The Good Earth,,,14.0418809,99.499658,,,,,,,,,,chinese,,
3383974579,node,amenity,restaurant,The Palm Garden Brasserie,,,14.0421258,99.4998143,,,,,,,,,,thai,,
3383974580,node,amenity,bar,The Rantee Lounge,,,14.0419773,99.4997411,,,,,,,,,,,,
3383974581,node,amenity,bar,The Green Wave Karaoke & Fun Pub,,,14.0418209,99.4997085,,,,,,,,,,,,
3383974583,node,amenity,bar,Sai Yok Pool Bar,,,14.0418035,99.4992053,,,,,,,,,,,,
3604105106,node,tourism,hotel,ที เค ปาร์ค แอนด์ รึสอร์ท,,,14.0428531,99.5155029,,,,,,,,,,,,
3774705794,node,tourism,hotel,,Kwai Riverside Resort,,14.071485,99.4766926,+66 345 510 789,http://www.kwaeriversideresort.com/,,,,,,,,,,
3792192855,node,amenity,cafe,Century of Coffee,,,14.0321055,99.5226507,,,,,,,08:00-18:30,,,coffee_shop;bakery,,
3792192856,node,amenity,restaurant,,Mangosteen Garden Restaurant,,14.0327539,99.511605,,,,,,,,,,,,
3792192857,node,amenity,restaurant,Nut's Restaurant,Nut's Restaurant,,14.032138,99.5227101,,,,,,,,,,thai;american,yes,
3792192858,node,amenity,fast_food,Bela Rossa Italian,,,14.0321607,99.5227599,,,,,,,,,,italian;pizza,,
3792213157,node,amenity,restaurant,ระเบียงฟ้า,Rabiang Fa,ระเบียงฟ้า,14.0240566,99.5261992,,,,,,,,,,,,
3792213172,node,amenity,cafe,,,,14.0196512,99.5277516,,,,,,,,,,,,
3792427836,node,amenity,cafe,,Bridge Pop,,14.0417799,99.5047619,,,,,,,08:00-21:00,,,coffee_shop;smoothies,,
3792427837,node,amenity,restaurant,,Grill House,,14.0377545,99.5157357,,,,,,,,,,,,
3792427838,node,tourism,hotel,,Inchantree Kanchanaburi Hotel,,14.0440539,99.5017334,+66 2 651 7677,,,,,,,,,,,
3792427839,node,amenity,restaurant,,Keeree Tara Restaurant,,14.0424236,99.5031297,,,,,,,,,,thai,,
3792427840,node,amenity,restaurant,,Loft Restaurant & Bar,,14.0432007,99.5025228,,,,,,,,,,,,
3792427841,node,amenity,restaurant,,River Kwai Restaurant,,14.0411449,99.5041954,,,,,,,,,,thai,,
3792429266,node,amenity,restaurant,แพอาหารโฟลทติ้ง,Floating Raft Restaurant,,14.0415879,99.5035828,+6634512595,,,,,,Mo-Su 09:00-22:00,"85, Kwaiyai Road, 71000",,thai,,
3792440862,node,tourism,hotel,,Makhamvilla,,14.0442982,99.5013192,,,,,,,,,,,,
3792440863,node,tourism,hotel,,Sudjai Resort,,14.0335394,99.5143287,,,,,,,,,,,,
3792440864,node,amenity,restaurant,,Sudjai Restaurant,,14.0333311,99.5145721,,,,,,,10:00-22:00,,,thai,,
3793647868,node,shop,coffee,Café Amazon,Café Amazon,คาเฟ่ อเมซอน,13.9793991,99.6238095,,,,,,,,,,coffee_shop,,PTT
3793647869,node,shop,coffee,Café Amazon,Café Amazon,คาเฟ่ อเมซอน,13.9996906,99.551623,,,,,,,,,,coffee_shop,,PTT
3796286352,node,tourism,hotel,,Ban Rim Nam Resort,,14.0372943,99.479607,,,,,,,,,,,,
4109300393,node,tourism,hotel,River Kwai Mansion,,,14.0334601,99.5196383,,,,,,,,,,,,
4121371820,node,amenity,bar,Friend Bar,,,14.0344077,99.5192982,,,,,,,,,,,,
4121376214,node,amenity,restaurant,Kanda,,,14.0338079,99.5194323,,,,,,,,,,,,
4121376427,node,amenity,bar,Bojangles,,,14.0341745,99.5196009,,,,,,,,,,,,
4121381890,node,amenity,restaurant,I Grill,,,14.0337747,99.5196452,,,,,,,,,,seafood,,
4121417489,node,amenity,restaurant,Chapati Indian Food,,,14.0338542,99.5197083,,,,,,,,,,indian,,
4121417490,node,amenity,restaurant,Rome,,,14.0336694,99.5195768,,,,,,,,,,burger,,
4122176390,node,amenity,cafe,Gravite,,,14.0325715,99.5231302,,,,,,,,,,coffee_shop,,
4122176890,node,tourism,guest_house,The Nine,,,14.0325359,99.5230054,,,,,,,,,,,,
4124782389,node,tourism,hotel,P&P Place,,,14.0348067,99.5195848,034917557,,,,,,,40/6,,,,
4124782489,node,tourism,guest_house,Cosy Guesthouse,,,14.0346124,99.5194538,,,,,,,,,,,,
4199989890,node,tourism,attraction,,Heritage Walk,,14.0213959,99.5289874,,,,,,,,,,,,
4278025534,node,amenity,restaurant,Bell's Pizzeria,,,14.0338422,99.520042,,,,,,,Mo-Su 16:00-22:00,,,pizza,,
4295462289,node,tourism,hotel,Sky Resort ,,,14.0303546,99.5223056,034518189,,,,,,,,,,,
4340705591,node,amenity,fast_food,McDonald's 24th drive thru,,,14.0120063,99.5369716,,,,,,,24/7,"แสงชูโต, 71000",,hot_dog;tea;coffee_shop;ice_cream;breakfast;american;diner,,
4342279696,node,amenity,restaurant,A PA Bar-BQ,,,14.0101,99.539382,,,,,,,,,,,,
4401940391,node,amenity,restaurant,ซุ่นเฮงผัดไทย ลาดหญ้า,,ซุ่นเฮงผัดไทย ลาดหญ้า,14.099542,99.418597,,,,,,,,,,,,
4464262089,node,tourism,attraction,,Sium Carnival Funfair,,14.0465903,99.5076435,,,,,,,,,,,,
4541589695,node,tourism,guest_house,Tamarind guesthouse,,Tamarind guesthouse,14.0322621,99.5198219,,,,,,,,,,,,
4547853093,node,tourism,hostel,,D Hostel,,14.0188733,99.5243933,+66804122298,,,,,,,"23 Moo 1., Pak Phraek, 71000",,,,
4551591895,node,tourism,hotel,,,,14.0249202,99.5257703,,,,,,,,,,,,
4558616290,node,amenity,restaurant,Meat and cheese,,Meat and cheese,14.0393782,99.5120475,,,,,,,,,,,,
4561119594,node,amenity,restaurant,ครัวชุกโดน,,ครัวชุกโดน,14.0122845,99.5319311,,,,,,,,,,,,
4568765978,node,amenity,fast_food,KFC,,,14.0047315,99.5445199,,,,,,,,,,chicken,,
4568767304,node,amenity,restaurant,MK,,,14.0044973,99.544874,,,,,,,,,,,,
4572311991,node,tourism,attraction,สะพานข้ามแม่น้ำแคว,River Kwai Bridge,,14.0417974,99.5040471,,,,,,,,,,,,
4583486489,node,tourism,guest_house,,River Guest House,,14.0290124,99.523357,034511637,,,,,,,,,,,
4586537090,node,amenity,restaurant,,Gib & Guy Restaurant and Bike Rental,,14.0336476,99.5202177,,,,,,,,,,,,
4586724496,node,tourism,hostel,บ้าน,,บ้าน,13.9674199,99.6426354,,,,,,,,,,,,
4605179490,node,tourism,guest_house,,Canaan,,14.0194258,99.5352262,,,,,,,,,,,,
4623117992,node,tourism,attraction,,Camp Surasee Zoo,,14.1235401,99.4422041,,,,,,,,,,,,
4623135789,node,tourism,museum,พิพิธภัณฑ์ทหารผ่านศึกเวียดนาม,Vietman Veteran's Museum,,14.1341564,99.4457339,,,,,,,,,,,,
4676567392,node,tourism,hotel,Eurasia Resotel,,Eurasia resotel,14.0440659,99.6151562,,,,,,,,,,,,
4698583793,node,tourism,hotel,,Oriental kwai resort,,14.0798472,99.4191915,,,,,,,,,,,,
4744207939,node,tourism,guest_house,,Nita Rafthouse,,14.0177648,99.5300215,+66 34 514521,,,,,,,,,,,
4828744024,node,tourism,guest_house,,Good house guest house,,14.0318459,99.5216249,,,,,,,,,,,,
4828756021,node,tourism,attraction,,City gate and wall,,14.0201254,99.5297046,,,,,,,,,,,,
4865820421,node,amenity,restaurant,On's Thai Issan,On's Thai-Issan Restaurant,,14.0337403,99.5199276,+66 87 364 2264,,,,,miss.on@hotmai.com,Mo-Su 11:00-21:00,,,thai,,Miss On
4948041721,node,tourism,museum,พิพิธภัณฑ์อักษะเชลยศึก,The JEATH War Museum,พิพิธภัณฑ์อักษะเชลยศึก,14.0163017,99.5305998,,,,,,,,,,,,
4950270222,node,amenity,cafe,,Cafe,,13.957974,99.462924,,,,,,,,,,,,
5011390821,node,tourism,attraction,ต้นจามจุรียักษ์,Giant Monkey Pod Tree,ต้นจามจุรียักษ์,13.9552046,99.5270543,,,,,,,,,,,,
5013320223,node,amenity,restaurant,,Smile,,14.0019992,99.5459439,,,,,,,,,,,,
5014301223,node,amenity,restaurant,Pizzeria Balla Napoli,,Pizzeria Balla Napoli,14.032031,99.5225099,,,,,,,,,,,,
5031828024,node,amenity,restaurant,,Dejtosapak restaurant,,14.0113454,99.5321886,,,,,,,,,,,,
5064390129,node,amenity,restaurant,VR KCB Mam,VR KCB Mam,VR KCB Mam,14.004359,99.546631,+66 34516072,,,,,,,,,,,
5064390130,node,amenity,restaurant,VR KCB,VR food,VR KCB,14.0070514,99.5430252,,,,,,,,,,,,
5077232624,node,amenity,restaurant,VR KCB maenam,,VR KCB maenam,14.0321575,99.5225311,,,,,,,,,,,,
5077232627,node,amenity,restaurant,VR KCB early,VR KCB early,VR KCB early,14.0157121,99.5344771,,,,,,,,,,,,
5102301822,node,amenity,cafe,,,,14.0507467,99.4392891,,,,,,,,,,,,
5102316121,node,amenity,restaurant,,ChanChala,,14.0466827,99.5069821,,,,,,,,,,,,
5162186125,node,amenity,cafe,,Café Amazon,,14.0014994,99.5189094,,,,,,,,,,,,
5166830021,node,amenity,restaurant,,Youta Vegetarian/Vegan Food,,14.0324003,99.5229531,,,,,,,,,,,,
5274763582,node,amenity,cafe,บ้านสิทธิสังข์,Sitthisang Coffee,บ้านสิทธิสังข์,14.0210761,99.5290196,,,,,,,,,,thai,,
5281374422,node,tourism,hotel,,Baanchaokoh River Kwai,,13.9916743,99.5069,+66819217644,http://www.baanchaokoh.com,,,,baanchaokoh@gmail.com,24/7,"76 moo 3 road soi, Baan Ta Huai village, Nongya, Muang, Kanchanaburi, 71000",,,,
5296943823,node,amenity,cafe,,Baan Pladao,,14.0536985,99.4257844,,,,,,,,,,coffee_shop,,
5297153823,node,amenity,cafe,มีนา Cafe,,,13.9502038,99.6282317,,,,,,,,,,,,
5350336122,node,amenity,restaurant,ครัวธรรมชาติ,,,14.068336,99.4790036,,,,,,,,,,,,
5360612124,node,tourism,hotel,,Inchantreedoopool,,14.0420917,99.5096471,,,,,,,,"India Road, 71000",,,,
5382615523,node,tourism,attraction,วัดถ้ำมุนีนาถ (วัดถ้ำฤาษี),,,13.960749,99.526218,,,,,,,,,,,,
5385175021,node,tourism,attraction,วัดถ้ำพุหว้า,,,13.9856213,99.403211,,,,,,,,,,,,
5385245021,node,tourism,attraction,วัดโพธิสัตว์บรรพตนิมิต,,,13.9928041,99.4828329,,,,,,,,,,,,
5464800821,node,amenity,cafe,ถุงเล็ก ร้านกาแฟและที่พัก,ToongLek cafe&hostel,,13.9723263,99.6346122,0864443700,http://facebook.com/toonglekcafe,http://facebook.com/toonglekcafe,,,,Th-Tu 08:00-17:00,"246/3, 71110",,,,nopz
5489177821,node,amenity,restaurant,,Monkey Bar & Restaurant,,14.0327077,99.5212101,,,,,,,,,,burger;thai,,
5549795729,node,tourism,attraction,รักษ์คันนา ก๋วยเตี๋ยวห้อยขา,Rakkanna,,13.9513633,99.6074932,0800616888,,,,,,,71110,,,,
5550348732,node,amenity,cafe,คาเฟ่ อเมซอน,Café Amazon,คาเฟ่ อเมซอน,13.9811137,99.5973938,,,,,,,,,,coffee_shop,,
5550348735,node,amenity,cafe,,Amazon Cafe,,14.0930896,99.4222608,,,,,,,,,,,,
5550372027,node,amenity,cafe,,32 Cafe,,14.0633424,99.4922727,,,,,,,,,,,,
5580102123,node,amenity,restaurant,Noodle shop,,,13.9938661,99.5359828,,,,,,,,,,,,
5593962522,node,tourism,hostel,ลินส์ โฮสเทล,Lynn's Hostel,,14.0320261,99.5223601,0653835985,,,,,travelyns11@gmail.com,24/7,"9/4, Thetsabanbumrung 2 Road, 71000",,,,Lynn Nawawat
5602827928,node,amenity,restaurant,,Kratom Dokkeao,,13.9959488,99.4941293,,,,,,,,,,,,
5607010922,node,tourism,hostel,,Lynn's hostel,,14.0320452,99.5224739,,,,,,,,,,,,
5672992721,node,tourism,attraction,ถ้ำแก้วกาญจนาภิเษก,Crystal Cave,ถ้ำแก้วกาญจนาภิเษก,13.9551105,99.5880142,,,,,,,,,,,,
5686366922,node,tourism,attraction,,,,14.1416752,99.4322359,,,,,,,,,,,,
5745343922,node,amenity,restaurant,,Pizza Bar,,14.0329824,99.5209174,,,,,,,,,,,,
5773685254,node,amenity,restaurant,,Noodle soup restaurant,,14.0325431,99.5238439,,,,,,,Mo-Su 11:00-19:00,,,,,
5784081253,node,tourism,guest_house,manup dai ko gar,,,14.0153345,99.537548,,,,,,,,,,,,
5784081254,node,tourism,guest_house,manob dai ko gar,,,14.0153636,99.5370578,,,,,,,,,,,,
5784081255,node,tourism,guest_house,didiko gar,,,14.0402771,99.513058,,,,,,,,,,,,
5824568653,node,amenity,restaurant,,,,14.0416044,99.5035902,,,,,,,,,,,,
5828723185,node,tourism,attraction,,Stone Park,,13.9915512,99.4546151,,,,,,,,,,,,
5833689489,node,tourism,viewpoint,,Wat,,13.9681756,99.5770075,,,,,,,,,,,,
5847664785,node,tourism,museum,ชินโตะปาร์ค,Shinto Park,,14.099022,99.4132911,,,,,,,,,,,,
5950958387,node,tourism,hotel,ฉางทองลอดท์,,,14.0294558,99.5530585,,,,,,,,,,,,
5950983586,node,amenity,cafe,,One Tea Coffee and Bakery,,14.0243452,99.5370047,,,,,,,,,,,,
5963289982,node,amenity,cafe,Cafe Amazon,,,14.0352231,99.5679129,,,,,,,,,,coffee_shop,,
6029796685,node,tourism,hotel,Inchantreedoopool,,,14.0422186,99.5099895,,,,,,,,India road,,,,
6067987385,node,tourism,information,,Tourism Authority Thailand Office Kanchanaburi,,14.019673,99.5335156,,,,,,,,,,,,
6075210585,node,amenity,restaurant,Bicycle Cafe,,,14.0306619,99.5253225,+66 86 164 2298,,https://www.facebook.com/Bikezcafe/,,,bicyclecafe@hotmail.com,Mo-Sa 12:00-00:00; Su 18:00-00:00,"35, Chao Khun Nen Road, 71000",,friture;burger;american;thai;coffee_shop,,
6118901875,node,amenity,cafe,,,,14.0322819,99.5248961,,,,,,,,,,,,
6119144387,node,amenity,restaurant,,Crua Sea Rung Rueng,,14.0330741,99.5208538,,,,,,,,,,thai,,
6122933485,node,amenity,bar,Easy Bar,,,14.0335946,99.5203027,,,,,,,,,,,,
6149107173,node,amenity,restaurant,Fresh Coffee,,,14.0423697,99.5037173,,,,,,,,,,,,
6194309585,node,amenity,restaurant,,"Rice, noodles, papaya salad",,13.9710193,99.5779903,,,,,,,,,,,,
6203093785,node,amenity,restaurant,,Jolly frog restaurant,,14.0409373,99.5191314,,,,,,,,,,,,
6207207585,node,amenity,cafe,Otop,,,14.0417455,99.5052395,,,,,,,,,,,,
6207224685,node,amenity,restaurant,BAN lung Chuan,,,14.0454429,99.5094677,,,,,,,,,,,,
6207224686,node,amenity,restaurant,Paikan 2,,,14.0402166,99.509973,,,,,,,,,,,,
6235305385,node,tourism,attraction,Start,,,14.0744222,99.5525312,,,,,,,,,,,,
6298516386,node,amenity,restaurant,,Ekanake,,14.0711415,99.4864327,,,,,,,,,,,,
6375975485,node,tourism,guest_house,Home of river kwai,,,14.0109778,99.5358924,,,,,,,,,,,,
6390549107,node,tourism,hotel,,,,14.0356356,99.5152101,,,,,,,,,,,,
6547190087,node,amenity,restaurant,,,,14.0135467,99.5351611,,,,,,,,,,,,
6565965386,node,amenity,cafe,,After dawn café,,14.0318795,99.5246187,,,,,,,,,,,,
6652530287,node,amenity,restaurant,,Keree Mantra Restaurant,,14.0485017,99.4399119,,,,,,,,,,,,
6685751886,node,tourism,viewpoint,,River and Mountain Viewpoint,,13.9967266,99.5052748,,,,,,,,,,,,
6734162785,node,tourism,hostel,Kyllikki Hostel Cafe,,,14.0220666,99.5331219,0655474400,https://m.facebook.com/Kyllikki.Kanchanaburi/,https://m.facebook.com/Kyllikki.Kanchanaburi/,,,kyllikki.cafe@gmail.com,Mo-Sa 10:00-19:00,"160/61, U-Thong Soi 2 Rd, 71000",,,,
6752710585,node,tourism,hostel,,Topae Hostel,,14.0320737,99.5226114,,,,,,,,,,,,
6755745886,node,amenity,restaurant,,Mangosteen Cafe & Books,,14.0327176,99.5210106,,,,,,,,,,,,
6755747085,node,amenity,restaurant,,Duang Dee Cafe,,14.0325367,99.5213884,,,,,,,,,,,,
6755747089,node,tourism,guest_house,,Anchan Cuisine & Guest House,,14.0344671,99.519193,,,,,,,,,,,,
6755794788,node,amenity,cafe,,Library Cafe,,14.0382357,99.5152505,,,,,,,,,,,,
6755847487,node,leisure,fitness_centre,,Boxing training,,14.0434401,99.5045863,,,,,,,,,,,,
6755960185,node,amenity,restaurant,,Local Thai restaurant,,14.041404,99.5076963,,,,,,,,,,,,
6755975986,node,amenity,restaurant,,Cheap Thai restaurant,,14.0389611,99.5129672,,,,,,,,,,,,
6756012285,node,amenity,cafe,,Cheap fresh coconuts,,14.0320683,99.5222526,,,,,,,,,,,,
6757129085,node,amenity,cafe,,M.A.S Stay-at-cafe,,14.0159207,99.5344804,,,,,,,,,,,,
6758523285,node,tourism,information,,Bridge across the river,,13.9815905,99.4888876,,,,,,,,,,,,
6758625785,node,amenity,restaurant,,Local restaurant shaped like a boat,,13.9537396,99.5958553,,,,,,,,,,,,
6758780785,node,amenity,cafe,,Labkoff Cafe,,14.0284146,99.5296527,,,,,,,,,,,,
6864865486,node,tourism,attraction,,,,14.0281935,99.5311798,,,,,,,,,,,,
6937274285,node,amenity,restaurant,,Jay (vegan) restaurant,,14.0239552,99.5289362,,,,,,,,,,,,
7035555985,node,amenity,bar,Tapas Thai Bar,,,14.0337527,99.5193944,,,,,,,,,,,,
7044154661,node,tourism,hotel,AP Grand Resort,,,14.0735372,99.4419468,,,,,,,,,,,,
7044461199,node,amenity,cafe,Day's Cafe,,,14.0584432,99.4650381,,,,,,,,,,,,
7044474278,node,amenity,cafe,คาเฟ่ อเมซอน,Café Amazon,คาเฟ่ อเมซอน,14.048228,99.5223973,,,,,,,,,,coffee_shop,,
7055949986,node,amenity,restaurant,,I GET coffee & bistro,,14.0329536,99.5207758,,,,,,,,,,pizza;burger;breakfast;coffee_shop;local,,
7059312985,node,amenity,restaurant,,,,14.0231285,99.5272321,,,,,,,,,,,,
7062431685,node,amenity,restaurant,,Jukruu restaurant Thai food reasonable price,,14.0237115,99.5266229,,,,,,,,,,thai,,
7079465485,node,amenity,restaurant,Ubonkan,,Ubon-kan Isan Kitchen,14.0258967,99.534928,,,,,,,Mo-Su 09:00-22:00,,,thai,,
7079465585,node,tourism,hotel,A&S Residence Kanchanaburi,,,14.0278601,99.5338916,,,,,,,,,,,,
7123939985,node,amenity,cafe,Hua Hong Coffee,,,14.0226252,99.5285161,,,,,,,,,,,,
7158166186,node,amenity,restaurant,,The Balcony Restaurant and Cafe Lounge,,14.0231884,99.5282338,+66 87 829 8420,,,,,,Tu-Su 12:00 - 21:00,"196-198, Pak Prak Road, 71000",,american;burger;international;italian,,
7197198819,node,amenity,restaurant,Nida,,,14.0300973,99.4952125,,,,,,,,,,,,
7197198820,node,amenity,restaurant,the Brook,,,14.0273395,99.5132697,,,,,,,,,,,,
7197198821,node,amenity,restaurant,,,,14.0268188,99.5135106,,,,,,,,,,,,
7278818651,node,leisure,sports_centre,SPORT PLUS,,,14.016314,99.5340248,081-015-9955,,,,,sp.sportplus@gmail.com,,"223  225 227 229 231, แสงชูโต, บ้านใต้, 10700",,,,
7695536389,node,amenity,restaurant,Santa Fe,,,14.0229751,99.5535854,,,,,,,,,,,,
7695536390,node,amenity,restaurant,Pizza Company,,,14.022923,99.5534459,,,,,,,,,,,,
7695536391,node,amenity,fast_food,KFC,,,14.0228606,99.5532689,,,,,,,,,,chicken,,
7695536392,node,amenity,restaurant,Pancake,,,14.0227877,99.5531026,,,,,,,,,,,,
7695536393,node,amenity,restaurant,Bar B Q Plazza,,,14.0227253,99.5529577,,,,,,,,,,,,
7695536394,node,amenity,restaurant,MK Restaurants,,,14.0226732,99.5528343,,,,,,,,,,thai,,
7695536395,node,amenity,restaurant,Fuji Restaurant,,,14.022616,99.5527002,,,,,,,,,,,,
7695536397,node,amenity,fast_food,Dairy Queen,,,14.0227825,99.5526734,,,,,,,,,,ice_cream;burger,,
7695536398,node,amenity,restaurant,Mister Donut,,,14.0228137,99.5528022,,,,,,,,,,,,
7695536399,node,amenity,restaurant,Milk Land,,,14.0228918,99.5529416,,,,,,,,,,,,
7966741104,node,amenity,restaurant,,,,14.0980059,99.4119227,,,,,,,,,,,,
8360998027,node,amenity,restaurant,BIRU Izakaya & Yakiniku,,,14.0278121,99.5293643,,https://www.facebook.com/biru.izakaya/settings/?tab=page_info,https://www.facebook.com/biru.izakaya/settings/?tab=page_info,,,,Mo-Su 16:00-21:00,"277/110, แสงชูโต, ตำบลบ้านเหนือ, 71000",,japanese;grill,,
8639254517,node,amenity,cafe,,The Village Farm to Cafe’,,14.0487204,99.438866,,,,,,,,,,,,
9279696719,node,amenity,cafe,Cinnamon Cafe,,,14.04147,99.5082351,,,,,,,,,,,,
9280534918,node,amenity,restaurant,,,,14.0396223,99.5112819,+66810074533,,,,,,Mo-Su 16:00-21:00,,,,,
9320740317,node,tourism,hotel,Baan mama,,,13.9720666,99.4743346,,https://baanmama.com/,,,,,,,,,,
10248609409,node,tourism,hostel,,Thyme X Hostel,,14.0323909,99.5231591,,,,,,,,,,,,
10562277072,node,amenity,bar,Ting Tong Bar,,,14.0338071,99.5201085,,,,,,,,,,,,
10585488514,node,amenity,cafe,Cafe Amazon,,,14.041531,99.5050284,,,,,,,,,,coffee_shop,,
10613194602,node,amenity,cafe,,,,13.9559364,99.5895526,,,,,,,,,,,,
10718148982,node,amenity,cafe,Cafe Amazon,,,13.9577557,99.6419005,,,,,,,,,,,,
11233618837,node,amenity,bar,,The Tavern Bar,,14.035793,99.5174664,,,,,,,Mo-Su 15:00-00:00,,,international,,
11235575437,node,amenity,restaurant,,Bite 'n chew,,14.0361099,99.5172816,,,,,,,,,,italian;italian_pizza;pizza,,
11235750737,node,amenity,bar,,IRIE Bar,,14.0355446,99.5165682,,,,,,,Tu-Su 17:00-00:00,,,,,
11235811838,node,amenity,restaurant,,Tapas Thai Bar Restaurant,,14.0332012,99.5205557,,,,,,,Tu-Su 07:00-00:00,,,international;thai,,
11237444437,node,amenity,cafe,,Blue Hawaii Coffee,,14.0276114,99.5305147,,,,,,,We-Su 08:00-17:00,,,breakfast;coffee_shop,,
11404758782,node,tourism,attraction,,,,14.0664718,99.4179863,,,,,,,,,,,,
11765822200,node,tourism,hostel,Asleep hostel,,,14.034903,99.5235449,,,,,,,,,,,,
11773159549,node,tourism,attraction,Lokomotive,,,14.033459,99.5248952,,,,,,,,,,,,
11853835561,node,leisure,resort,Tara Villa,,,14.0568512,99.4832425,,,,,,,,,,,,
12273620401,node,amenity,marketplace,ตลาดชุกโดน,Chukdon Market,ตลาดชุกโดน,14.0128015,99.5337847,,,,,,,,,,,,
12350833101,node,tourism,hotel,Rien Maihom riverside cottage,,,14.0519781,99.4764609,,,,,,,,,,,,
12494461010,node,amenity,restaurant,,,,14.0383599,99.5147094,,,,,,,,,,,,
12497502857,node,amenity,fast_food,Five Star,Five Star,,14.0422446,99.5137058,,,,,,,,,,,,
12499386666,node,shop,massage,Dee&Spa,,,14.0383369,99.5146384,,,,,,,09:00-21:00,,,,,
12525256940,node,amenity,cafe,คาเฟ่ อเมซอน,Café Amazon,คาเฟ่ อเมซอน,14.0203722,99.534055,,,,,,,,,,coffee_shop,,
12551318617,node,amenity,bar,Mutown,,,14.0332515,99.5207431,,,,,,,,,,,,
12551318648,node,amenity,restaurant,Bank Hun Yai,,,14.0185995,99.5132328,,,,,,,,,,,,
12558547277,node,tourism,viewpoint,,,,13.9987111,99.5060485,,,,,,,,,,,,
12558557128,node,tourism,viewpoint,,,,13.9687363,99.5773893,,,,,,,,,,,,
12558659932,node,amenity,restaurant,ร้านอาหาร แพหน้าเมือง,,ร้านอาหาร แพหน้าเมือง,14.0189507,99.5280538,,,,,,,11:00-23:00,,,thai,,
12655477351,node,amenity,restaurant,Cafe du Kwai,,,14.0038554,99.5184388,,,,,,,,,,,,
13174941340,node,tourism,museum,โรงงานกระดาษไทย,Thai Paper Mill,โรงงานกระดาษไทย,14.018297,99.5320274,,,,,,,,,,,,
13201926463,node,tourism,viewpoint,จุดชมวิว เขากระชาย กาญจนบุรี,Khao Krachai Viewpoint,,14.0412436,99.5458357,,,,,,,,,,,,
13201926466,node,amenity,cinema,Major Cineplex TMK Park Kanchanaburi,,,14.0523809,99.5057653,,,,,,,,,,,,
13201953915,node,tourism,hotel,โรงแรมกาญจนิกา,Kanchanika Hotel,,14.0256569,99.5293363,,,,,,,,,,,,
13288481093,node,amenity,restaurant,ตำจีบริมคลอง,,,13.9635186,99.5915216,,,,,,,,,,,,
13295953256,node,tourism,information,Tourist Attraktion Map World War 2 History,,,14.0202402,99.5295847,,,,,,,,,,,,
13375784601,node,amenity,restaurant,,,,14.0429051,99.5042865,,,,,,,,,,,,
13380575802,node,amenity,restaurant,สบายจิต,,,14.028417,99.5303802,,,,,,,,,,,,
13423277482,node,amenity,restaurant,จงเจริญสังขยานมซด,,,14.0454954,99.5111439,,,,,,,,,,,,
13518302214,node,tourism,attraction,,2 locomotives,,14.043055,99.5050916,,,,,,,,,,,,
13518302603,node,tourism,information,,no road up to the main road here,,14.0361704,99.5193862,,,,,,,,,,,,
13754771018,node,shop,massage,Jadran,,,14.0357081,99.5177838,,,,,,,,,,,,
13754771019,node,amenity,restaurant,Kin Khao Lam,,,14.036637,99.5168987,,,,,,,,,,regional,,
13755598427,node,amenity,cafe,Teva Tara,,,14.0251783,99.52426,,,,,,,,,,,,
13757884812,node,amenity,restaurant,,,,14.0099156,99.5329383,,,,,,,,,,,,
13774974816,node,amenity,food_court,Skypreme Fried Chicken,,สกายพรีม ไก่ทอด,13.9824801,99.6102614,+66 87 017 8328,,,,,,Mo-Sa 01:30-07:00; Tu off,"31, ถนนแสงชูโต, Tha Muang, Tha Muang, Kanchanaburi, 71000",,,,
242566464,way,amenity,marketplace,Night Market,,,,,,,,,,,,,,,,
242566465,way,tourism,museum,Death Railway Museum and Research Centre,Death Railway Museum and Research Centre,,,,+66 34 512721,http://www.tbrconline.com/,,,,admin@tbrc.com,Mo-Su 09:00-17:00,"73, ถนนเจ้าขนเณร, Kanchanaburi, 71000",,,yes,
255026323,way,tourism,hotel,Good Times Resort,,,,,,,,,,,,"265/5, Maenam Kwai Rd. Tha Makham , A. Muang, Kanchanaburi, 11000",,,,
375879439,way,tourism,hotel,The Glory River Kwai Hotel,,,,,,,,,,,,,,,,
375902779,way,amenity,cafe,,Cafe @ Park,,,,,,,,,,,,,,,
375902780,way,tourism,attraction,,Phra Thart Kwae Yai,,,,,,,,,,,,,,,
375902781,way,amenity,marketplace,,River Kwae Park,,,,,,,,,,,,,,,
375902782,way,amenity,cafe,,The Toto Bakery Cafe,,,,,,,,,,,,,,,
375902788,way,tourism,hotel,,River Kwai View Hotel,,,,,,,,,,,,,,,
390631286,way,tourism,hotel,Pung Waan Resort & Spa,,,,,,,,,,,,"72/1, Moo 2, Kanchanaburi, 71000",,,,
410081382,way,tourism,hotel,Thai Garden Inn,,,,,+66858191686,https://www.thaigardeninn.com,,,,info@thaigardeninn.com,,"74/11 Moo 4, Tambon Thamakham, Amphoe Muang,, Kanchanaburi, 71000",,,,JFK Enterprises Co Ltd
442870848,way,tourism,hotel,UD Room & Coffee,,,,,,,,,,,,,,coffee_shop,,
442870862,way,tourism,hotel,Kanchanaburi City Hotel,,,,,,,,,,,,,,,,
442871044,way,amenity,restaurant,Kan Buri,,,,,66 819895664,,,,,,,,,,,
442872430,way,leisure,sports_centre,,,,,,,,,,,,,,,,,
442872435,way,leisure,sports_centre,,,,,,,,,,,,,,,,,
565116034,way,leisure,sports_centre,สนามกีฬาจังหวัด (กลีบบัว),Provincial Stadium,สนามกีฬาจังหวัด (กลีบบัว),,,,,,,,,,,,,,
607519883,way,amenity,restaurant,ร้านเตี๋ยวยำแม่แดง กาญจนบุรี,,เตี๋ยวยำแม่แดง กาญจนบุรี,,,,,,,,wittayathong@gmail.com,10:00-22:00,"65/23, เลี่ยงเมืองกาญจนบุรี, ปากแพรก, 71000",,thai;seafood;asian,,
631444719,way,tourism,hotel,Hop Inn Kanchanaburi,,,,,,https://hopinnhotel.com/,,,,,,,,,,
631446841,way,tourism,hotel,The Bridge Hotel,,,,,,,,,,,,,,,,
754022963,way,tourism,hotel,Keree Mantra Hotel,,,,,,,,,,,,,,,,
754022967,way,tourism,hotel,Hotel,,,,,,,,,,,,,,,,
754029248,way,tourism,apartment,,BH Place,,,,0898950501,,,,,,,,,,,
754032148,way,amenity,bar,,Just So Coffee & Bistro,,,,,,,,,,Mo-Su 17:00-00:00,,,,,
754034570,way,tourism,hotel,Natee,Natee Hotel,,,,034518777,,,,,,,,,,,
754034572,way,tourism,hotel,River Kwai Hotel,,,,,,,,,,,,,,,,
754034573,way,tourism,hotel,River Inn,,,,,,,,,,,,,,,,
759388165,way,amenity,cafe,Bussaba Coffee & Thai Restaurant,,,,,+66 98 302 8321,,,,,,,,,,,
792053809,way,tourism,attraction,West Wonder waterpark,West wonder waterpark,West Wonder waterpark,,,,,,,,,Mo-Su 09:00-18:00,,,,,
965057705,way,tourism,attraction,สะพานข้ามแม่น้ำแคว,Death Railway viaduct,สะพานข้ามแม่น้ำแคว,,,,,,,,,,,,,,
1135581465,way,tourism,attraction,,Prisoner of War Camp Food Market,,,,,,,,,,,,,,,
1148159347,way,amenity,restaurant,Krua Anong,,,,,,,,,,,,,,,,
1177267983,way,amenity,restaurant,,,,,,,,,,,,,,,,,
1232433648,way,tourism,hotel,Mittapan Hotel,,,,,,,,,,,,,,,,
1344354653,way,leisure,resort,Royal River Khwae Resort,,,,,,,,,,,,,,,,
1344354654,way,tourism,hotel,,,,,,,,,,,,,,,,,
1344354655,way,tourism,hotel,,,,,,,,,,,,,,,,,
1344354656,way,tourism,hotel,,,,,,,,,,,,,,,,,
1344354657,way,tourism,hotel,,,,,,,,,,,,,,,,,
1344354658,way,tourism,hotel,,,,,,,,,,,,,,,,,
1344354659,way,tourism,hotel,,,,,,,,,,,,,,,,,
1344354660,way,tourism,hotel,,,,,,,,,,,,,,,,,
1355954386,way,amenity,marketplace,,night market,,,,,,,,,,,,,,,
1356638202,way,amenity,marketplace,,,,,,,,,,,,,,,,,
1418266197,way,tourism,museum,พิพิธภัณฑ์สงครามโลกครั้งที่ 2,JEATH-Kriegsmuseum,,,,,,,,,,,,,,,
1433185623,way,leisure,golf_course,Sim Golf Kanchanaburi,,,,,,,,,,,,,,,,
1433238980,way,leisure,golf_course,สนามไดร์ฟกอล์ฟ มณฑลทหารบกที่ 17,"Golf Driving Range, 17th Military District",,,,,,,,,,,,,,,
1435613386,way,leisure,golf_course,สนามไดร์ฟกอล์ฟ,Full Swing Golf Driving Range,,,,,,,,,,,,,,,
1435613699,way,leisure,golf_course,Mae Klong Dam Golf Course,,,,,,,,,,,,,,,,
1446461261,way,amenity,marketplace,ตลาดปากบ่อ,,ตลาดปากบ่อ,,,,,,,,,,,,,,
1446461262,way,tourism,attraction,สะพานสองแคว,,สะพานสองแคว,,,,,,,,,,,,,,
1473477987,way,amenity,restaurant,KAAN Riverkwai,,,,,,,,,,,,,,,,
