osm_id,osm_type,category,subcategory,name,name_en,name_th,lat,lng,phone,website,facebook,instagram,line_id,email,opening_hours,address_full,stars,cuisine,wheelchair,operator
506429595,node,tourism,guest_house,Pai Phu Fah,,,19.3531516,98.4494879,,,,,,,,,,,,
506430322,node,amenity,nightclub,Be Bop,,,19.3551526,98.4354686,,,,,,,,,,,,
506430323,node,amenity,restaurant,Nong Beer,Nong Beer,,19.3608062,98.4398856,,,,,,,,,,thai,,
506430356,node,tourism,guest_house,Pai Herbs Resort,,,19.3632495,98.4283174,,,,,,,,,,,,
820323509,node,tourism,guest_house,Palm House,,,19.3588383,98.4414273,+6653699074,,,,,,,,,,,
820323529,node,tourism,guest_house,Ton Son Guest House,,,19.36053,98.44214,,,,,,,,,,,,
820323540,node,amenity,restaurant,,Nu Na,,19.3565,98.43686,,,,,,,,,,,,
820323602,node,tourism,guest_house,Phai Wa Le,,,19.37881,98.42845,,,,,,,,,,,,
820323631,node,amenity,restaurant,Sirinya,,,19.35551,98.43832,,,,,,,,,,,,
820323647,node,amenity,restaurant,โรงคั่วกาแฟโรสบาร์น โรงคั่วกาแฟ,RoastBarn Cafe & Roastery,,19.35838,98.43686,+66 85 033 4812,,,,,,,58130,,coffee_shop,,
820323664,node,amenity,restaurant,Lung Cha,,,19.38044,98.42781,,,,,,,,,,,,
820323695,node,tourism,guest_house,Belle Villa Resort & Restaurant,,,19.36898,98.43859,,,,,,,,,,,,
820323725,node,tourism,guest_house,Pai Hillside Resort,,,19.3907482,98.4233864,,,,,,,,,,,,
820323743,node,amenity,restaurant,Khrua Cha San,,,19.38555,98.42499,,,,,,,,,,,,
820323820,node,tourism,guest_house,Chan Guest House,,ชานเกสเฮาส์,19.35512,98.43853,,,,,,,,,,,,
820323874,node,tourism,guest_house,View Pai Hotel,,,19.356,98.43579,,,,,,,,,,,,
820323963,node,tourism,guest_house,At Ing Pai Resort,,,19.38752,98.42462,,,,,,,,,,,,
820323990,node,amenity,restaurant,,Ban Pai,,19.3596976,98.441483,,,,,,,,,,,,
820324020,node,amenity,restaurant,Shark Riverside,,,19.38817,98.43561,,,,,,,,,,,,
820324051,node,tourism,guest_house,Cabana,,,19.38276,98.43098,,,,,,,,,,,,
952076140,node,tourism,hotel,Abodaya,,,19.3593221,98.4422515,,,,,,,,,,,,
1188074508,node,tourism,guest_house,Pai Country,,,19.3597615,98.4413319,,,,,,,,,,,,
1250836227,node,tourism,hostel,Darling View Point Guesthouse,,,19.3605867,98.4487094,+66895596267,http://www.darlingthailand.com/,,,,darlingthailand@hotmail.com,,,,,no,Parichat Hampel
1532341167,node,tourism,guest_house,Happy House,,,19.3563146,98.4377739,,,,,,,,"227, Pai",,,,
2110316855,node,tourism,guest_house,Giant,,,19.3546237,98.4427432,,,,,,,,,,,,
2110584936,node,amenity,bar,Witching Well,,,19.3587415,98.4447108,,,,,,,,,,burger;international;breakfast;crepe,,
2122151179,node,tourism,attraction,Pam Bok Waterfall 盼布瀑布,Pembok Waterfall,น้ำตกแพมบก,19.3208456,98.4039468,,,,,,,,,,,,
2147398105,node,tourism,hotel,Unicorn,,,19.3572795,98.4425484,+66895596267,http://www.darlingpai.com/,,,,darlingthailand@hotmail.com,,,,,no,Parichat Hampel
2148903197,node,tourism,guest_house,Diamond Village Pai,D2 Pai / Diamond Village,,19.3540484,98.4298289,,,,,,,,,,,,
2148903198,node,tourism,guest_house,Mountain View,,,19.3528273,98.4302596,,,,,,,,,,,,
2482066611,node,tourism,hotel,Phu Pai Art Resort,,,19.394842,98.431371,+6653065111,http://www.phupai.com/,,,,info@phupai.com,,,,,,
2531911227,node,amenity,bar,,Hyenas Bar & Restaurant,,19.3806407,98.4282952,,,,,,,,,,,,
2531911230,node,tourism,guest_house,,Pai Cabana,,19.3828221,98.4253873,,,,,,,,,,,,
2531911233,node,tourism,guest_house,,Phu Pai Art Resort,,19.3867363,98.4276187,,http://www.phupai.com,,,,,,,,,,
2531925726,node,tourism,information,,Highway Information Service Center,,19.3711415,98.4309954,,,,,,,,,,,,
2531925727,node,tourism,hostel,Pai Buree,Chai Pang Guest House,บ้านใจแปง,19.3628246,98.4398762,,,,,,,,,,,,
2531925728,node,tourism,hotel,Pai Flora,,,19.3656035,98.4391288,,,,,,,,,,,,
2532018369,node,tourism,guest_house,,Ban Dalah,,19.3639069,98.4153577,,,,,,,,,,,,
2532018370,node,tourism,guest_house,,Ban Num Hoo Homestay,,19.3660653,98.4203622,,,,,,,,,,,,
2532018371,node,amenity,cafe,,Hillside Coffee House,,19.3346004,98.4314869,,,,,,,,,,,,
2532018372,node,amenity,restaurant,,Great Wall Restaurant,,19.3712468,98.4022297,,,,,,,,,,chinese,,
2532018373,node,tourism,hotel,,Le Mont,,19.3662606,98.4213351,,,,,,,,,,,,
2532018374,node,amenity,cafe,Coffee in Love,Coffee in love,,19.3385597,98.4332953,+6653698251,,,,,coffeeinlove_pai@hotmail.com,Mo-Su 07:00-17:00,"92, 58130",,,,
2532018375,node,tourism,hotel,,Montis Resort,,19.3661444,98.4268902,,,,,,,,,,,,
2532018376,node,amenity,cafe,,Pai Coffee,,19.3351164,98.4314744,,,,,,,,,,,,
2532018378,node,tourism,guest_house,,Pai Phaya Resort,,19.3357756,98.4322956,,,,,,,,,,,,
2532018379,node,tourism,guest_house,Ta Yai,,,19.3580016,98.4425444,,,,,,,,,,,,
2532128195,node,amenity,cafe,คาเฟ่ อเมซอน,Café Amazon,คาเฟ่ อเมซอน,19.3551933,98.4371838,,,,,,,,,,coffee_shop,,
2532128196,node,amenity,restaurant,,IP Burger,,19.3594337,98.4423198,,,,,,,,,,burger,,
2532128198,node,amenity,restaurant,,Mama Falafel,,19.358977,98.4420665,,,,,,,,,,,,
2532128199,node,tourism,hotel,,Sweet Memories @ Pai,,19.333822,98.4318246,,,,,,,,,,,,
2532128202,node,shop,coffee,Cafe Amazon,,,19.3552744,98.4371399,,,,,,,,,,,,
2668138986,node,amenity,restaurant,,,,19.37087,98.4033706,,,,,,,,,,chinese,,
2676578445,node,amenity,restaurant,Ann Naemnueng,Ann Naemnueng,,19.3613766,98.4399052,,,,,,,,,,thai,,
2676578479,node,amenity,restaurant,,,,19.3707113,98.4038667,,,,,,,,,,chinese,,
2690658256,node,tourism,guest_house,Baan Sangheaun,,,19.359356,98.4434497,,,,,,,,,,,,
2826288752,node,tourism,hotel,Mountain Blues Cottage,,,19.3639178,98.4309932,,,,,,,,"174 Moo 1, Chaisongkharm Road, Pai, 58130",,,,
2948454150,node,tourism,motel,Pai Klang Mok Resort,,,19.3541594,98.4320101,,,,,,,,,,,,
3076168533,node,amenity,restaurant,Pai Jaidee,,,19.3609802,98.4399818,+66 816712247,www.paijaidee.com,,,,,,,,german,,
3076168862,node,amenity,cafe,Madam Ju Coffee,,,19.360836,98.4397206,,,,,,,,,,,,
3076230348,node,tourism,hotel,Bulunburi Pai Resort,,,19.3795353,98.4420762,+660536983023,www.bulunburi.com,,,,,,,,,,
3076260933,node,amenity,restaurant,TTK Restaurant,TTK Restaurant,TTK Restaurant,19.3579007,98.4411489,,,,,,ttkrestaurant@gmail.com,,,,kebab;asian;thai;mediterranean,,
3150825461,node,tourism,hostel,Cody Backpackers,,,19.3512507,98.4481037,,,,,,,,,,,,
3195078883,node,tourism,guest_house,Brook View,,,19.3631048,98.4400491,+6653699366;+66819924900,http://www.paibrookview.com/,,,,paibrookview@hotmail.com,,"132, Moo 1, Wiangtai",,,,
3195570529,node,shop,massage,,,,19.3612387,98.4399972,,,,,,,Mo-Su 10:00-23:00,,,,,
3195572747,node,shop,massage,Pai Massage Centre,,,19.3612645,98.4390117,,,,,,,,,,,,
3199685211,node,tourism,guest_house,2001,,,19.3586895,98.443978,,,,,,,,,,,,
3199856361,node,amenity,cafe,Cafe de Pai,Cafe de Pai,คาเฟ่ เดอ ปาย,19.3588661,98.4435642,,,,,,,,,,burger;pizza;italian;american,,
3201010261,node,amenity,restaurant,The House,,,19.3588396,98.4440387,,,,,,,,,,bavarian,,
3222746042,node,amenity,restaurant,Da Cristina Italian Restaurant,,,19.356502,98.443968,,,,,,,,,,italian,,
3222746048,node,tourism,hotel,Rim Pai Cottage,,,19.3590234,98.4446307,,,,,,,,,,,,
3222746053,node,amenity,restaurant,Peak Restaurant,,,19.3588867,98.444577,,,,,,,,,,thai,,
3222746054,node,tourism,guest_house,Soi 1 Rooms,,,19.3588096,98.4446387,,,,,,,,,,,,
3222746161,node,tourism,guest_house,Sawasdee Pai,,,19.3563571,98.4441321,,,,,,,,,,,,
3222746162,node,amenity,bar,Humble Bar,,,19.3568598,98.4440071,,,,,,,,,,,,
3222746163,node,amenity,restaurant,,The Blue Ox Bar & Grill,,19.3585261,98.4449807,,,,,,,,,,steak_house,,
3222753165,node,amenity,cafe,Cake Go O @ Pai Bakery,,,19.3588895,98.4409401,,,,,,,Mo-Su 10:00-22:00,,,international,,
3253489153,node,tourism,hotel,Pai River Villa,,,19.361136,98.443274,,,,,,,,Pai,,,,
3379411783,node,tourism,guest_house,Hakku Guest House,,,19.361175,98.4391573,,,,,,,,,,,,
3458643595,node,tourism,guest_house,Pai Country Hut,,,19.3603879,98.4453553,,,,,,,,,,,,
3830558212,node,amenity,restaurant,บ้านเบญจรงค์,Baan Benjarong,บ้านเบญจรงค์,19.3553815,98.4357831,+66 89 954 2191;+66 53 698 010,,,,,,11:00-13:30; 17:00-20:30,,,,,
3859105917,node,amenity,cafe,Chang Puak Coffee House,,,19.3495651,98.4523508,+66-84-101-8099,,,,,,Mo-Su 09:00-15:00,,,,,
3884323557,node,tourism,guest_house,Cozy Pai,Cozy Pai,,19.3623837,98.4468419,,,,,,,,,,,,
3921439129,node,tourism,guest_house,Pai Nam Now,,,19.3614598,98.4458815,,,,,,,,,,,,
3922067347,node,amenity,bar,Easy Garden,,,19.3583957,98.4416408,,,,,,,,,,,,
3922070162,node,amenity,cafe,Art in Chai,,,19.3582594,98.4417607,,,,,,,,,,,,
3928753145,node,tourism,hotel,Ai Pai,,,19.3608435,98.4402326,,,,,,,,,,,,
3928753148,node,amenity,restaurant,Bebe Spice,,,19.3567936,98.4436036,,,,,,,,,,indian,,
3928753149,node,amenity,restaurant,Betagro,,,19.3582893,98.4399587,,,,,,,,,,,,
3928753150,node,tourism,guest_house,Blue House,Blue House,,19.3589401,98.443348,,,,,,,Mo-Su 09:00-22:00,,,,,
3928753151,node,amenity,fast_food,Burger House,,,19.3578145,98.4404165,,,,,,,,,,burger,,
3928753152,node,tourism,hotel,Canary,,,19.3610083,98.444093,,,,,,,,,,,,
3928753153,node,tourism,guest_house,Charlie's House,,,19.3592576,98.4412507,,,,,,,,,,,,
3928753154,node,amenity,bar,So Cool Bar,,Don't Cry club wo alle hin gehen,19.3558997,98.445479,,,,,,,,,,,,
3928753155,node,amenity,bar,Edible,Edible Jazz Garden,,19.3599177,98.4436025,,,,,,,Mo-Su 10:00-23:00,,,,,
3928753156,node,tourism,guest_house,Family House,,,19.3603429,98.4438942,,,,,,,,,,,,
3928754557,node,tourism,guest_house,Farmer Home,,,19.3550823,98.4499511,,,,,,,,,,,,
3928754558,node,amenity,cafe,Fruit Factory,,,19.3523514,98.4423398,,,,,,,,,,,,
3928754559,node,amenity,bar,G Day,,,19.3573419,98.444093,,,,,,,,,,,,
3928754560,node,tourism,hotel,Golden Hut,,,19.3605656,98.4436635,,,,,,,,,,,,
3928754563,node,amenity,bar,Irie,,,19.3583908,98.4418132,,,,,,,,,,,,
3928754564,node,amenity,bar,Jikko,,,19.3591452,98.4429291,,,,,,,,,,,,
3928754571,node,tourism,hostel,Lazy,,,19.353759,98.4483602,,,,,,,,,,,,
3928754577,node,tourism,guest_house,Oor-U-Pai,,,19.3593999,98.4393065,,,,,,,,,,,,
3928754578,node,amenity,restaurant,Pad Thai Na-Win,,,19.3605181,98.439569,,,,,,,,,,thai,,
3928754580,node,tourism,guest_house,Pai Circus School,Pai Circus School,,19.3619514,98.4482505,,,,,,,,,,,,
3928754583,node,tourism,hotel,Pai Loess Resort,,,19.3613485,98.4460869,,,,,,,,,,,,
3928754584,node,tourism,hotel,Pai My Guest,,,19.354602,98.4498212,,,,,,,,,,,,
3928754585,node,tourism,hotel,MJ Bar,,MJ Bar,19.3606631,98.4444112,,,,,,,,,,,,
3928754586,node,tourism,hotel,Pai Park,,,19.3620164,98.4441832,,,,,,,,,,,,
3928754587,node,amenity,cafe,Pai Siam Bistro,,,19.3602959,98.440881,,,,,,,,,,,,
3928754590,node,tourism,hotel,Pai in Town,,,19.3574866,98.4405156,,,,,,,,,,,,
3928754591,node,amenity,cafe,Prathom 1,,,19.3607558,98.4403933,,,,,,,,,,,,
3928754592,node,tourism,hotel,Payi Resort,,,19.3585694,98.4394364,,,,,,,,,,,,
3928754593,node,amenity,restaurant,ข้าวดอยมันไก่,Khao Doi Mun Kai,,19.3604481,98.4395345,0882677083,,,,,,Mo-Su 09:00-22:00,"1095, Wiang Tai, Pai, Mae Hong Son, 58130",,thai,,
3928754594,node,tourism,guest_house,Phu View,,,19.3611134,98.4456388,,,,,,,,,,,,
3928754595,node,amenity,restaurant,Porjay,,,19.3536689,98.4482223,,,,,,,,,,thai,,
3928754596,node,amenity,cafe,Puripai,,,19.3605969,98.440294,,,,,,,,,,,,
3928754597,node,tourism,hostel,Purple Monkey Backpackers,,,19.3553349,98.4394221,,,,,,,,,,,,
3928754598,node,tourism,guest_house,Rainbow,,,19.3537262,98.447252,,,,,,,,,,,,
3928754600,node,amenity,bar,Spirit,,,19.3592175,98.4424291,,,,,,,,,,,,
3928754602,node,amenity,restaurant,Sunset View,,,19.3505382,98.4514488,,,,,,,,,,,,
3928754603,node,amenity,bar,Sunset Bar,Sunset,,19.3518252,98.4471803,,,,,,,,,,,,
3928754604,node,tourism,hotel,The Oia Pai Resort,The Oia Pai Resort,,19.3529759,98.4471167,+66817559968,https://www.theoiaresort.com/,,,,oiapaitook@hotmail.com,24/7,"254, 58130",,,,
3928754607,node,amenity,fast_food,Tik Kitchen,,,19.3590827,98.4430325,,,,,,,,,,thai,,
3928754610,node,tourism,hotel,Unicorn Pai Resort,,,19.3574127,98.4426625,,,,,,,,,,,,
3928754612,node,amenity,bar,Why Not,,,19.3592191,98.4427775,,,,,,,,,,,,
3928754819,node,tourism,guest_house,,Ice House,,19.3580691,98.4435071,,,,,,,Mo-Su 09:00-22:00,,,,,
3928754822,node,tourism,guest_house,,Mr. Jan's,,19.3583254,98.4434779,,,,,,,,,,,,
3928755084,node,amenity,restaurant,1 in Pai,,,19.3610559,98.4398049,,,,,,,,,,,,
4000009956,node,amenity,restaurant,Fat Cat,,,19.3519238,98.4509442,,,,,,,,,,,,
4033064341,node,amenity,restaurant,,,,19.3612781,98.4623929,,,,,,,,,,,,
4139962195,node,amenity,restaurant,Earth Tone Cafe & Health Shop,,,19.3508631,98.4506977,,,,,,,Su-Fr 09:30-16:00,,,,limited,
4152507593,node,tourism,guest_house,Ming Guesthouse,,,19.3627767,98.4371579,,,,,,,Mo-Su 08:00-22:00,ถนนเขตเขลางค์,,,,
4156743094,node,tourism,guest_house,UP 2 U,,,19.3660149,98.4395586,,,,,,,,,,,,
4169924189,node,tourism,hostel,Nine House,,,19.364246,98.4358895,,,,,,,,,,,,
4207244318,node,tourism,hostel,Mari Pai Resort,,,19.340594,98.43356,+66840424932,http://www.maripairesort.com,,,,mari_pai_resort@yahoo.com,,"97, 58130",,,,
4212325390,node,amenity,restaurant,Karsa Long Thai Food,,,19.3581991,98.4416848,,,,,,,,เขตเขลางค์ซอย2,,,,
4212344189,node,tourism,guest_house,BaanTawan Guesthouse Pai,,,19.3555394,98.4439589,66818831083,www.baantawan-pai.com,,,,,,เขตเขลางค์ซอย2,,,,
4227933114,node,tourism,guest_house,Duang Guest House,,,19.3597999,98.4417918,,,,,,,,,,,,
4245436491,node,tourism,hotel,Pai Water House,,,19.3539042,98.4483205,,,,,,,,,,,,
4247701389,node,tourism,hostel,Common Grounds,,,19.3606603,98.4418542,,https://commongroundspai.com/,,,,,,,,,,
4264124595,node,tourism,guest_house,Easy Guesthouse,,,19.3526012,98.4423152,,,,,,,Mo-Su 09:00-20:00,,,,,
4271621189,node,tourism,attraction,The Land Split,,,19.3214262,98.4234453,,,,,,,,,,,,
4281460990,node,tourism,guest_house,Breeze Of Pai,,,19.36005,98.4438076,,,,,,,,,,,,
4283510789,node,amenity,restaurant;cafe,Charlie & Lek,,,19.3572446,98.4403456,,,,,,,Mo-Su 11:30-22:00; We-Mo 09:00-17:00,,,thai;coffee_shop,,
4283511089,node,amenity,restaurant,Na's Kitchen,,,19.3576024,98.4414621,,,,,,,Mo-Sa 17:00-22:00,,,thai,,
4294198389,node,tourism,guest_house,Odour Pai,,,19.3735959,98.4459989,,,,,,,,,,,,
4296398404,node,tourism,attraction,The Land Split,,,19.3214078,98.423248,,,,,,,,,,,,
4305658309,node,tourism,hotel,Baan Dao Son,,,19.350817,98.453,,,,,,,,,,,,
4316658989,node,tourism,attraction,Pai Landsplit,,,19.3213735,98.4236097,,,,,,,,,,,,
4326841090,node,amenity,restaurant,Thai and Vegetarian Food,Aorim Pai Thai Food,,19.3578742,98.4408798,,,,,,,,,,thai,,
4326846690,node,amenity,restaurant,Chew Xin Jai,,,19.3570415,98.4394579,+66 85 7173628,,,,,chewxinjai@gmail.com,Mo-Su 08:00-17:00; 08:00-19:00,58130,,thai,no,
4326846990,node,tourism,hostel,Wake Up In Pai (Real location),,,19.3578615,98.4406261,,,,,,,,,,,,
4358271204,node,amenity,restaurant,Mittaphap Pai,,,19.3712721,98.4021224,,,,,,,,,,,,
4367390989,node,amenity,fast_food,Happy Pizza,I'm Fine Food & Coffee,,19.359683,98.4420345,,,,,,,,,,breakfast;tea;coffee_shop;american;pasta;sandwich;burger;pancake,,
4369471991,node,amenity,cafe,,Barista Corazon Café,,19.3588204,98.4437552,,,,,,,,,,coffee_shop;tea;breakfast;american;sandwich,,
4369608490,node,tourism,guest_house,Top Stay Hostel,Paimanee Home,,19.3615928,98.4403079,,,,,,,,58130,,,,
4370835974,node,amenity,bar,,Pai Tara Resort Bar,,19.3493794,98.4436849,,,,,,,,,,,,
4382759191,node,tourism,guest_house,,The Moon,,19.3356254,98.4359779,,,,,,,,,,,,
4386468389,node,amenity,bar,,Mystic Bar,,19.3494247,98.4438994,,,,,,,,,,,,
4388528993,node,tourism,hostel,,Chil,,19.3580563,98.4415389,,,,,,,,,,,,
4401932589,node,tourism,guest_house,บานาน่าเฮ้าส์,Banana House,บานาน่าเฮ้าส์,19.36255,98.43768,,,,,,,,,,,,
4421968377,node,amenity,cafe,Art Farm Studio,,,19.3873903,98.4480476,,,,,,,,,,,,
4445034490,node,amenity,cafe,,On The Way Coffee,,19.3577021,98.4384658,,,,,,,,,,,,
4460197992,node,amenity,restaurant,,Plernpai Vegetarian Café,,19.3618528,98.4495379,,,,,,,,,,thai,,
4486230290,node,tourism,hotel,,Pai Cherkaew Boutique House,,19.3584928,98.4434838,053699050,,,,,,,,,,,
4487848089,node,amenity,cafe,,Pad thai,,19.3684788,98.406878,,,,,,,,,,,,
4487866992,node,tourism,hotel,,B2 Pai Premier Hotel,,19.3603008,98.4364768,,https://www.b2hotel.com,,,,,,"76 M.2, Viengtai",,,,
4516461790,node,tourism,guest_house,,Phu View,,19.3617249,98.4463556,,,,,,,,,,,,
4520237690,node,tourism,hotel,,Pavee House,,19.3586275,98.4419601,,,,,,,,,,,,
4524211590,node,amenity,cafe,,Cafecito mexican cafe,,19.3521984,98.4420504,,http://fb.com/CafecitoPai,,,,,Mo-Su 09:00-18:00,Khet Khelang Rd,,,,
4525500905,node,tourism,motel,,Pai Chan Cottage,,19.354935,98.4469222,+66 (0) 811803064,http://www.paichan.com,,,,info@paichan.com,,191 moo 1 Mae Hee Pai Mae Hong Son 58130,,,,
4533012690,node,tourism,hostel,Suandoi resort,Suan doi resort,Suan doi resort,19.3595882,98.4508419,,,,,,,,,,,,
4550639711,node,tourism,hostel,,Re-wild House,,19.3490324,98.4509377,0991566745,http://www.re-wildhouse.com,,,,chonsamoe@Gmail.com,,,,,,Milk chonsamoe
4557107090,node,tourism,attraction,,Natural swiming pool,,19.3208862,98.4037954,,,,,,,,,,,,
4563028489,node,tourism,hostel,Famous Circus hostel,,Famous Circus hostel,19.3618976,98.4480236,,,,,,,,,,,,
4565079094,node,tourism,hostel,,Sunset BackpackerHostel,,19.3487596,98.444845,,,,,,,,,,,,
4566225489,node,amenity,restaurant,,PAI LANNA Restorant&Resort,,19.3555947,98.4454495,,,,,,,,,,breakfast;chicken;coffee_shop;thai,,
4591793015,node,amenity,restaurant,,Higheland,,19.356792,98.440642,,,,,,,,,,,,
4591850190,node,amenity,restaurant,,Highland,,19.3575875,98.4418121,,,,,,,,,,,,
4603131792,node,tourism,hostel,,Mon' Far - Pai Cottages,,19.3697843,98.4492679,,,,,,,,,,,,
4607436518,node,tourism,hostel,My World Backpacker Hostel,,,19.3578689,98.4532201,,,,,,,,"259, Moo 1, Pai, 58130",,,,
4612008293,node,tourism,guest_house,,Shanquest house,,19.3545329,98.4391004,,,,,,,,,,,,
4630411890,node,leisure,fitness_centre,,Charnchai Muay Thai,,19.3628737,98.4344277,+66849181498,https://www.charnchaimuaythai.com,,,,charnchaimuaythai@gmail.com,Mo-Sa 08:00-17:00,"174 Moo 1, Chaisongkharm Road, Pai, 58130",,,,
4631469289,node,tourism,guest_house,,,,19.3584598,98.4416106,,,,,,,,,,,,
4634731296,node,tourism,guest_house,,MoonVillage (eco community),,19.3864715,98.4667198,,,,,,,24/7,,,,,
4638109490,node,amenity,bar,G'day Live Music Bar,G'day Live Music Bar,G'day Live Music Bar,19.3573441,98.4422928,,,,,,,,,,,,
4646468393,node,tourism,guest_house,,Pai Walking Street Guesthouse,,19.3605275,98.4404292,,,,,,,,"99, Moo 1 T. Viengtai",,,,
4646608613,node,amenity,cafe,,Game zone internet cafe,,19.3584551,98.4388577,,,,,,,,,,,,
4655063592,node,amenity,restaurant,Grunge Burger,Bean Burger,Bean Burger,19.358658,98.4441361,,,,,,,,,,,,
4663108489,node,tourism,hostel,ปายสวรรค์,Abodaya Paradise,,19.3553925,98.4384064,,,,,,,,,,,,
4666558593,node,amenity,bar,,,,19.3524049,98.4420273,,,,,,,,,,,,
4674414791,node,tourism,guest_house,Nadia's House & Café,,Nadia's House & Café,19.3584182,98.4416901,0908932071,,,,,,Mo-Su 10:00-22:00,,,,,
4675882989,node,tourism,viewpoint,,Viewpoint,,19.3316119,98.4544242,,,,,,,,,,,,
4686850489,node,amenity,bar,Whats Up Bar,,,19.3593186,98.4429604,,,,,,,,,,,,
4688890417,node,amenity,restaurant,,Aunt Dang's,,19.3556302,98.445551,,,,,,,,,,thai,,
4693003489,node,tourism,guest_house,Churn Yuen Pai by Gampanat Guesthouse,Churn Yuen Pai by Gampanat Guesthouse,เชิญเยือนปาย บายกัมปนาท เกสเฮ้าส์,19.3768921,98.4413848,0836145765,,,,,bygampanat@hotmail.com,,"74, Moo 5, Wiang Nuea, Pai, Mae Hong Son, Thailand, 58130., 58130",,,,
4693513392,node,tourism,guest_house,,,,19.376163,98.4411358,,,,,,,,,,,,
4723443989,node,amenity,cafe,,Tulip,,19.3946987,98.4481799,0916355642,,,,,,,"no 129 ban tanjedton, 58130",,,,
4736344138,node,amenity,restaurant,Paicy Pai,Joy Cafe,,19.3630133,98.4354686,+66 81 568 1853,,,,,,,,,american;breakfast;burger;chicken;coffee_shop;noodles;sandwich;thai,,
4744061302,node,amenity,restaurant,,Amido's Pizza,,19.357851,98.4412649,,,,,,,,,,,,
4744982124,node,amenity,restaurant,,Savoei (A taste of Pai) Restaurant and Cooking School,,19.3589158,98.4434153,,,,,,,,,,,,
4747960621,node,amenity,bar,,Giant House,,19.3550133,98.443369,,,,,,,,,,,,
4788131023,node,tourism,guest_house,,Pai Modaen House,,19.3606067,98.4456416,0925916232,,,,,,,,,,,
4794363121,node,tourism,hostel,Familyhouse riverside guesthouse,,,19.3612742,98.4445488,,,,,,,,,,,,
4801359728,node,tourism,hostel,,the Jazz House,,19.3599321,98.4436413,+660643700182,https://www.facebook.com/paijazzhouse,https://www.facebook.com/paijazzhouse,,,,24/7,"24/1 moo3, 58130",,,,
4812802721,node,leisure,fitness_centre,,Muay Thai Camp,,19.3632114,98.4449125,,,,,,,,,,,,
4819543223,node,amenity,restaurant,,Samoe Jai,,19.3574947,98.4419473,,,,,,,Mo-Sa 10:00-20:00,,,thai,,
4819728323,node,amenity,restaurant,,,,19.3614514,98.440138,,,,,,,,,,,,
4819736027,node,amenity,restaurant,,,,19.3600477,98.4393568,,,,,,,,,,,,
4819736136,node,tourism,hostel,,,,19.3661187,98.4335201,,,,,,,,,,,,
4843222222,node,amenity,cafe,フルーツ15バーツ,The sun,,19.3611248,98.4396332,,,,,,,,,,,,
4859722522,node,tourism,guest_house,The nest house,,,19.3611604,98.4459128,,,,,,,,,,,,
4873409222,node,amenity,cafe,,Plan B,,19.3578945,98.4404478,,,,,,,,,,italian_pizza;breakfast,,
4877129821,node,amenity,restaurant,,"Hey Mom, I'm IN PAI CAFE",,19.3581789,98.4407942,,,,,,,,,,bagel;breakfast;pancake;ice_cream;coffee_shop;thai,,
4882662823,node,amenity,restaurant,Ganesh Café,,Ganesh Café,19.3571964,98.4441161,,,,,,,,,,,,
4887037723,node,tourism,hostel,Deejai Pai Backpackers,,,19.3471983,98.4480432,,,,,,,,,,,,
4893696622,node,tourism,attraction,,,,19.3617023,98.4242118,,,,,,,,,,,,
4920374821,node,amenity,fast_food,,Big's Little Cafe,,19.3590225,98.4444747,,,,,,,,,,,,
4926231621,node,tourism,hotel,Pura Vida Resort,,Pura Vida Resort,19.3932103,98.4483774,,http://www.puravidapai.com,,,,,," 65 Moo 3, Tambon Viengnuor, Amphur Pai, Mae Hong Son 58130, Thailand",,,,
4929668528,node,amenity,restaurant,Nong Nung Thai Food,nong nung thai food,Nong Nung Thai Food,19.3568254,98.4399059,,,,,,,,,,thai,,
4936637121,node,tourism,hotel,Reuanfaet 2,,Reuanfaet 2,19.3504111,98.4355017,,,,,,,,,,,,
4984232421,node,amenity,cafe,,Little Big's Cafe,,19.3589939,98.4443682,,,,,,,,,,,,
5047324321,node,tourism,hostel,,Buzzas Backpackers Hostel and Restaurant,,19.3526377,98.4494057,,,,,,,24/7,67 moo 1 Maehee Pai maehongson,,,,
5081118744,node,tourism,guest_house,Oasis Pai Resort,,,19.3598231,98.4347868,,,,,,,,,2,,,
5083464921,node,tourism,hostel,,Nadia's House & Café,,19.3582389,98.4415219,,,,,,,,,,,,
5175678321,node,amenity,restaurant,,Nong best,,19.364973,98.4393933,,,,,,,07:00-22:00,ถนนเขตเขลางค์,,regional,,
5201794121,node,tourism,guest_house,,Baan Ing Na,,19.3520161,98.4490084,,,,,,,,"150 Moo. 1 T. Maehee, Pai",,,,
5236034221,node,amenity,restaurant,,Being healthy,,19.358637,98.4408269,,,,,,,,,,,,
5242227261,node,tourism,guest_house,Pho Rak Nah Pai Guesthouse,,,19.3527903,98.4517082,,,,,,,,"251, Moo 1, Tambon Mae Hee, Amphoe Pai, 58130",,,,
5257012221,node,amenity,restaurant,,Pai Center Indy Restaurant,,19.3598569,98.4419793,,,,,,,,,,,,
5267414322,node,tourism,guest_house,Green House Pai,,,19.3663798,98.4500562,,,,,,,,"195 Moo 1 Tambon Maehee, Mae Hong Son, Mae Hi, Pai, Thailand 58130",,,,
5285394680,node,tourism,guest_house,Ruan Mai Hom Kiniman,,,19.3592614,98.4503732,,,,,,,,"367, Moo 1 Maehee, Pai, Mae Hong Son, 58130",,,,
5285614560,node,tourism,hotel,Lilu Hotel,,,19.3576268,98.44055,+66 53 064 351,https://www.lilu-hotel.com/,,,,info.liluhotel@gmail.com,,,,,,
5286977427,node,tourism,guest_house,,Chilling Hill gueshouse,,19.3632456,98.4498781,,,,,,,,,,,,
5301580722,node,tourism,hostel,Pai Friendly Resort,,,19.360986,98.4354812,,,,,,,,,,,,
5307908521,node,amenity,cafe,,i love u pai café,,19.3348172,98.4321626,,,,,,,,,,coffee_shop;tea,,
5317413622,node,tourism,viewpoint,,Rice paddies,,19.3356127,98.436313,,,,,,,,,,,,
5367773424,node,tourism,guest_house,,Golden House,,19.3552503,98.4430197,,,,,,,,,,,,
5394585421,node,tourism,guest_house,,The Heart of Pai Resort,,19.3558188,98.4379703,+66-53-699984,http://www.heartofpai.com/,,,,,,,,,,
5402707221,node,tourism,guest_house,,Pai Talay Guest House,,19.3426441,98.4488233,+66855565888,,,,,,,"100 Moo 5 Maehee, Thung Yao, Pai, 58130",,,,
5403594931,node,amenity,bar,,Sundown Playground,,19.3343238,98.452748,,,,,,,,,,,,
5412760021,node,amenity,cafe,,bom bowls,,19.3619113,98.4495457,,,,,,,,,,,,
5418075422,node,amenity,restaurant,Best noodles,,,19.3583154,98.4387875,,,,,,,,,,,,
5419314421,node,amenity,restaurant,James Noodle & Rice,,Numchai Beefball,19.3567088,98.4398352,,,,,,,,,,,,
5426141921,node,amenity,restaurant,ข้าวซอยพี่น้อง,Khao Soi Zister's,,19.3675108,98.4389954,+66 99 269 2244,https://www.facebook.com/KhaosoiZisters,https://www.facebook.com/KhaosoiZisters,,,,Mo-Su 08:00-18:00,"58, Wiang Tai, Pai, Mae Hong Son, 58130",,,,
5440065921,node,amenity,restaurant,,A Taste Of Joy,,19.3528563,98.4420682,,,,,,,,,,burger;pasta;diner;coffee_shop,,
5440065922,node,amenity,cafe,,Easy Garden Cafe,,19.3525498,98.4420405,,,,,,,,,,pasta;breakfast;coffee_shop,,
5442032121,node,tourism,attraction,Pai mini golf,,,19.3930568,98.431119,,,,,,,,,,,,
5444490922,node,amenity,fast_food,,Noodle cart,,19.3599479,98.441786,,,,,,,,,,chinese;noodles;thai,,
5444494621,node,amenity,cafe,Saigon Crust,Saigon Crust,,19.3585938,98.4446372,,,,,,,Mo-Su 23:00-19:00,,,,,
5446832948,node,amenity,fast_food,,Falafel Stand,,19.3589175,98.4438042,,,,,,,Mo-Su 18:00-22:00,,,,,
5456111425,node,amenity,cafe,Toast Office,,ปังษณีย์,19.3517197,98.4414904,+66918783860,,,,,dompai99@gmail.com,Mo-Su 10:00-19:00,"450/34-35, Moo 8, Weing Tai, Pai, Maehongson, 58130",,thai;coffee_shop;pizza;ice_cream;steak_house;dessert,yes,Domo
5470214723,node,tourism,apartment,,Goodmorning Pai,,19.365993,98.4352317,,,,,,,,,,,,
5500119921,node,amenity,cafe,,Ticha cakes,,19.3569529,98.4392718,,,,,,,,,,,,
5505539621,node,amenity,restaurant,,The Link Food Pharmacy,,19.3703237,98.4392074,+66 89-766-4456,,,,,,Fr-We 14:00-19:30; Th 11:30-19:30,"144, 144 Khet Khelang 3 Road, Mae Hong Son, 58130",,thai,,Link
5519685923,node,tourism,guest_house,,Pai River Bridge,,19.3557562,98.4450685,,,,,,,,,,,,
5539561962,node,tourism,hotel,The Sylvana Pai,,,19.359881,98.4435474,,,,,,,,ถนนศรีภูมิ,,,,The Sylvana Pai
5556244626,node,tourism,hostel,Monkey House 2,,,19.3684209,98.4387867,,,,,,,,"112, 112 moo 1, Wiengtai, 58130",,,,
5558356223,node,tourism,guest_house,ปายเจ้าขา,Pai Chao Kha Guesthouse,ปายเจ้าขาเกสต์เฮาส์,19.364378,98.449618,,,,,,paichaokhaguesthouse@gmail.com,Mo-Su 08:00-20:00,290 M.1 Maehee,,,,
5573952921,node,amenity,bar,ปายซี่บาร์,Paizy bar,Paizy bar,19.3593988,98.4425085,,,,,,,,,,,,
5583880421,node,tourism,attraction,Long,Long Neck Karen Villa in Pai,,19.3589054,98.4562192,,,,,,,Mo-Su 08:30-17:00,,,,,
5587222722,node,amenity,restaurant,Mama's place,,,19.3590611,98.4380445,,,,,,,,,,curry,,
5600193122,node,tourism,hostel,,Pai in the sky,,19.360319,98.4423855,,,,,,,,เขตเขลางค์ซอย2,,,,
5622016521,node,amenity,restaurant,Tub-p,,,19.3521332,98.4426803,084 809 9769,,,,,,,,,thai,,
5643058257,node,amenity,bar,Nolo Hub Pai,,,19.3511052,98.4421595,,,,,,,Mo-Su 08:00-22:00,"Residential Road, Pai, 58130",,,,Nolo Hub
5779361453,node,amenity,restaurant,,Larp Knom Huay Poo,,19.3684819,98.4380629,,,,,,,,,,,,
5893901585,node,amenity,restaurant,,Yellow noodle restaurant,,19.357843,98.438518,,,,,,,,,,thai,,
5963872498,node,tourism,hostel,,Super Joe Homestay,,19.3668417,98.4496944,,,,,,,,,,,,
5989286889,node,shop,massage,,,,19.3577333,98.4413732,,,,,,,,,,,,
6036170986,node,amenity,restaurant,,Balé Bar & Restaurant,,19.3583547,98.4406883,,,,,,,,,,,,
6036171086,node,amenity,fast_food,,Pai Kebab,,19.3589336,98.4409647,,,,,,,,,,,,
6057571588,node,tourism,hostel,Jikko Harem,,,19.3523023,98.4420297,,,,,,,,,,,,
6070521385,node,tourism,hostel,,Sleepy Hut,,19.3620261,98.4492286,,,,,,,,,,,,
6070763285,node,amenity,cafe,May's,,,19.3590555,98.4433981,,,,,,,,,,,,may
6103599685,node,amenity,restaurant,,Thai food,,19.3754695,98.4287137,,,,,,,,,,,,
6121062525,node,amenity,restaurant,,Kome Maun Kitchen,,19.358794,98.4424677,,,https://www.facebook.com/profile.php?id=100067006232833,,,,Mo-Sa 11:00-22:00,"52/1 M3 T. Viangtai, 58130",,thai;indian,,
6136383085,node,amenity,fast_food,Bamboo drink stall,,,19.3588733,98.4410475,,,,,,,,,,,,
6139074286,node,tourism,hostel,,,,19.3586954,98.4437072,,,,,,,,,,,,
6139075085,node,tourism,hostel,Mama Noi Hostel,,,19.3587509,98.4436482,,,,,,,,,,,,
6140845486,node,tourism,attraction,พระพุทธโลกุตระมหามุนี,White Buddha,,19.3501265,98.4561495,,,,,,,Mo-Su 08:00-18:00,,,,no,
6144265785,node,tourism,viewpoint,,Bridge,,19.360373,98.4443021,,,,,,,,,,,,
6147300685,node,tourism,hotel,โรงแรม อ้ายปาย,Ai Pai Hotel,,19.3613154,98.4400657,6653699952,http://www.aipaihotels.com,,,,info@aioli.com,24/7,"288 Moo 1, R1095, 58130",,,,
6175996685,node,amenity,restaurant,,Cooking Love - Thai food,,19.3580112,98.4408333,,,,,,,,,,thai,,
6183076886,node,tourism,guest_house,,Yoga House,,19.377205,98.4446784,,,,,,,,,,,,
6185298887,node,amenity,restaurant,Good life,,,19.3522339,98.4425193,,,,,,,,,,,,
6185745685,node,tourism,hotel,,Good time pai,,19.3651237,98.438412,,,,,,,,,,,,
6222430885,node,amenity,restaurant,,Food Truck Thai food bar,,19.3592259,98.4435856,,,,,,,,,,thai,,
6233133585,node,amenity,restaurant,,Sai Num Pai Restaurant,,19.3492477,98.4310935,,,,,,,,,,thai;fish,,
6235238285,node,amenity,cafe,,Chang Puak Coffeehouse,,19.350378,98.4519726,,,,,,,,,,,,
6237270685,node,amenity,bar,,Sabai Bar,,19.3598937,98.4418921,,,,,,,,,,,,
6237636685,node,amenity,restaurant,โจ๊กสมุนไพรลุงอ๊อด,Lung Aod Rice Soup with Herbs Pai,,19.3609754,98.4396969,+66 97 948 7858,,,,,,,"Wiang Tai, Pai, Mae Hong Son, 58130",,regional;noodles;thai;local,,
6249043485,node,tourism,guest_house,Baanyod,,,19.3572426,98.4439132,,,,,,,,,,,,
6262947085,node,tourism,hostel,,Carrot To The Moon Hostel,,19.3630806,98.4393241,,,,,,,,,,,,
6279980685,node,tourism,hotel,,Baan Cheewa,,19.3642024,98.4496362,,,,,,,,,,,,
6328375385,node,tourism,information,,Check point. Free entry,,19.3887656,98.4674645,,,,,,,,,,,,
6332498803,node,tourism,information,Pai Let‘s Go Tour,,,19.3588113,98.4409182,+61 (0)8 6455 1567,https://www.pailetsgo.com/,,,,info@pailetsgo.com,08:00-22:00,,,,,
6333172485,node,amenity,cafe,,Analog Cafè,,19.3581049,98.4446266,,,,,,,Mo-Sa 10:00-15:00,ถนนเขตเขลางค์,,,,
6336775684,node,amenity,cafe,Madam Ju Coffee,,,19.3476055,98.4357786,,,,,,,Mo-Su 10:00-16:00,,,coffee_shop,,
6337441806,node,tourism,guest_house,Good Life Dacha,,,19.3520878,98.4428679,,,,,,,,,,,,
6337441810,node,tourism,hotel,Art de Pai,,,19.3511408,98.4429682,094 289 3646,,,,,,,,,,,
6337470396,node,amenity,restaurant,Silhouette by Reverie Siam,,,19.3487597,98.4422208,,,,,,,,,,international,,
6337470398,node,tourism,hotel,Reverie Siam Resort,,,19.3486593,98.442377,,,,,,,,,,,,
6337601160,node,tourism,hotel,บ้านปายในเวียง,Baan Pai Nai Wieng,บ้านปายในเวียง,19.3595859,98.4395704,+66 616234693,https://www.baanpainaiwieng.com/en-gb,,,,papimolpa@gmail.com,,"51/1, เขตเขลางค์ซอย2, Pai, 58130",4,,,
6338964906,node,amenity,restaurant,,,,19.3597431,98.4422468,,,,,,,,,,chinese,,
6366977612,node,amenity,restaurant,Ganita Cafe,,,19.3577873,98.4410029,,,,,,ganitacafepai@gmail.com,Fr-We 10:30-21:00,,,asian;burger;indian;international;sandwich,no,
6387066385,node,tourism,hostel,Pai Cat Hut Guesthouse,,,19.3603356,98.4393243,,,,,,,24/7,"1095, Rd. 42/1Moo.1 Moobaan Muangprao T.Wiang Tai, 58130",,,,
6401978185,node,amenity,cafe,Blossom Vegan Café,,,19.3621371,98.4492434,,,,,,,,,,,,
6461633886,node,amenity,restaurant,Khun Si,Local food,,19.357568,98.4412577,,,,,,,,,,,,
6493313986,node,tourism,guest_house,Eden guesthouse,,,19.3518107,98.4506636,,,,,,,,,,,,
6493314185,node,shop,beverages,Fruit juice,,,19.3595327,98.4423433,,,,,,,,,,,,
6496901585,node,leisure,fitness_centre,Journey Into Oneself,Journey Into Oneself,,19.3670758,98.4349532,,https://www.journeyintooneself.world/,,journeyintooneself.world,,info@journeyintooneself.world,,"6, Moo, 58130",,,,
6583597485,node,tourism,attraction,,Shekina garden in pai,,19.3613995,98.4450744,,,,,,,,,,,,
6622087798,node,amenity,cafe,,,,19.3710719,98.4030655,,,,,,,,,,,,
6622087799,node,tourism,attraction,,Arrow shooting,,19.370808,98.4027921,,,,,,,,,,,,
6622087800,node,tourism,attraction,กำแพงเมืองจีนจำลอง,Great Wall Replica,กำแพงเมืองจีนจำลอง,19.3712475,98.4020451,,,,,,,,,,,,
6622107791,node,tourism,information,,map,,19.3714563,98.4033056,,,,,,,,,,,,
6622112392,node,tourism,museum,,Santichon History,,19.3707607,98.4026728,,,,,,,,,,,,
6622113587,node,tourism,attraction,,Shooting,,19.3707171,98.4026097,,,,,,,,,,,,
6622114085,node,amenity,cafe,,,,19.3713131,98.4033187,,,,,,,,,,,,
6622689886,node,amenity,restaurant,,,,19.3605092,98.440465,,,,,,,,,,,,
6622782387,node,amenity,cafe,,,,19.3589116,98.445302,,,,,,,,,,,,
6622782388,node,amenity,cafe,,Coffee,,19.3597975,98.4415478,,,,,,,,,,,,
6622782390,node,amenity,restaurant,,,,19.3595942,98.4414211,,,,,,,,,,thai,,
6622843485,node,amenity,cafe,,,,19.3609103,98.4401101,,,,,,,,,,,,
6622843590,node,amenity,cafe,,,,19.3603656,98.4407452,,,,,,,,,,,,
6622844086,node,amenity,cafe,,Thai coffee,,19.3595446,98.4414075,,,,,,,,,,,,
6626984486,node,amenity,cafe,,Tea Tea's,,19.3606457,98.4396527,,,,,,,,,,thai,,
6626993085,node,amenity,cafe,,,,19.3590714,98.4389319,,,,,,,,,,,,
6634584687,node,tourism,attraction,,Fluid Pool & Bar,,19.3545285,98.4481887,,,,,,,,,,,,
6697251385,node,amenity,cafe,The Green Room,,,19.358903,98.444531,,https://www.facebook.com/The-Green-Room-700409250420410/,https://www.facebook.com/The-Green-Room-700409250420410/,,,jasonshooster@yahoo.com,Mo-Su 09:00-00:00,,,thai;asian,,"Supawinee, Nate, Jason"
6712180289,node,amenity,restaurant,,Adventure Rafting,,19.3612663,98.4393169,,,,,,,,,,thai,,
6717724885,node,amenity,cafe,,KHAOTHA CAFE,,19.3520694,98.4420209,,http://khaotha.com,,,,service@khaothacafe.com,,58130,,coffee_shop,,"Best coffee Beans From Pai, Mae Hong Son, Thailand"
6717878386,node,amenity,cafe,,The Container Pai,,19.3345512,98.4321185,,,,,,,,,,,,
6717883585,node,amenity,cafe,,The Pedlar,,19.3608932,98.4397387,,,,,,,,,,,,
6717890086,node,amenity,cafe,,Tham Ma Daa Cafe,,19.3522167,98.4500219,,,,,,,Mo-Su 10:00-21:00,,,,,
6717996485,node,amenity,cafe,,The Pedlar,,19.3608935,98.4398051,,,,,,,Mo-Su 08:00-17:00,,,coffee_shop,,
6718160987,node,tourism,viewpoint,,viewpoint,,19.3809143,98.4275598,,,,,,,,,,,,
6720208786,node,amenity,cafe,The House,,,19.3535694,98.4522768,,,,,,,,,,,,
6720788186,node,amenity,restaurant,,Local Thai restaurant,,19.368126,98.4349089,,,,,,,,,,,,
6720788187,node,amenity,restaurant,,Nadia’s Pad Thai 30฿,,19.3583119,98.4416574,,,,,,,,,,,,
6720815285,node,amenity,restaurant,,Thai barbecue restaurant,,19.3692283,98.4347198,,,,,,,,,,,,
6722625285,node,amenity,restaurant,,Local Thai restaurant,,19.3654374,98.4191055,,,,,,,,,,,,
6722818311,node,amenity,cafe,,Khao Tha Cafe,,19.363275,98.4345654,,,,,,,,,,,,
6723635885,node,amenity,restaurant,,Green restaurant,,19.3612654,98.4393494,,,,,,,,,,,,
6741737285,node,tourism,information,,Start trail to Waterfall,,19.3618273,98.4624517,,,,,,,,,,,,
6801385354,node,tourism,hotel,Pai Vintage Garden,,,19.3671839,98.436517,,,,,,,,,,,,
6801497685,node,amenity,restaurant,Air Thai food,,,19.3622,98.4497942,,,,,,,Mo-Su 10:00-20:00,,,thai;curry;local,,
6812340985,node,tourism,hostel,Sunny hostel pai,,,19.3526312,98.4422496,+66645166004,,,,,sunnyhostelpai@gmail.com,,,,,,
6816450587,node,amenity,restaurant,,Cooking Love,,19.358029,98.4408217,,,,,,,8:30-23:00,"amphoe Pai, Chang Wat Maé Hong Son, 58130",,thai,,
6873117385,node,tourism,guest_house,,Pailin House,,19.3632191,98.4399617,0898525186,,,,,,,,,,,
6873181386,node,tourism,guest_house,MP House,,,19.36213,98.4402522,0631179599,,,,,,,,,,,
6910855089,node,amenity,fast_food,,Gyoza Queen Street Food,,19.3598696,98.4417708,,,,,,,,,,,,
6910855285,node,tourism,viewpoint,,Picturesque Rice Paddy,,19.3534264,98.450326,,,,,,,,,,,,
6919412488,node,shop,beverages,,Fresh Fruits and Juices,,19.3582814,98.4403096,,,,,,,Mo-Su 09:00-20:00,,,,,
6919417285,node,amenity,restaurant,,Noodles and Chicken Rice,,19.3584887,98.4388692,,,,,,,We-Su 10:00-15:00,,,thai,,
6966360626,node,tourism,guest_house,,Pai Porpeang Guesthouse,,19.3484504,98.4504752,,,,,,,,,,,,
6970437462,node,tourism,hotel,Paina Paita Home,,,19.338345,98.4324521,,,,,,,,,,,,
6987523021,node,tourism,hotel,Yoma Hotel,,,19.3677657,98.4391648,+66 (0) 5369 9423,https://yoma-hotel.com/,,,,,,"59, Wiang Tai, Pai, Mae Hong Son, 58130",,,,
6991466585,node,amenity,cafe,,Carrot on the Moon,,19.3588338,98.4445363,,,,,,,Mo-Su 08:30-00:00,,,,,
6994245885,node,amenity,restaurant,,Sugar Cane Pai,,19.3590678,98.4430901,,,,,,,,,,,,
7026560185,node,shop,massage,,Sukrutai Thai Massage,,19.3611178,98.4398679,,,,,,,Mo-Su 10:00-23:00,,,,,
7028025285,node,leisure,fitness_centre,Bodhi Tree Yoga,,,19.3572014,98.4410579,+66842518060,https://bodhitreeyogapai.com/,,,,loveyoga@bodhitreeyogapai.com,"Mo-Su 10:00-11:30,17:00-18:30",,,,,
7038284185,node,amenity,bar,,Sunset view,,19.3497524,98.4524053,,,,,,,,,,,,
7051884503,node,amenity,restaurant,ป่าขามโภชนาการ,Pa Kham Nutrition,,19.3586049,98.4429918,0857230318,,,,,,,,,thai,,
7051884504,node,amenity,fast_food,,Little burn,,19.356717,98.4435808,,,,,,,,,,,,
7058955885,node,amenity,restaurant,khao soi,just eat,,19.3568095,98.4435406,,,,,,,,,,,,
7071698485,node,amenity,restaurant,,Uncle Boon Chuan Mount,,19.3542024,98.4306515,+66 87 024 1171,,,,,,Mo-Su 11:00-23:00,,,thai,,
7077609286,node,amenity,restaurant,,airport noodle,,19.3843759,98.4389802,,,,,,,,,,,,
7079310485,node,amenity,restaurant,,Dang Thai Food & Drink,,19.3510511,98.4506505,,,,,,,,,,,,
7090435392,node,amenity,restaurant,,Local restaurant,,19.3682964,98.4374919,,,,,,,,,,,,
7106734985,node,tourism,hostel,,Backpacker Meeting Place,,19.3417617,98.4357329,+66 97 957 8439,,,,,,,"109, Thung Yao",,,,Ron
7108649286,node,tourism,hostel,Up2,,Up2u,19.362965,98.4375872,,,,,,,,"29 Moo1, Vieng Tai, Mae Hong Son, Pai, 58130,",,,,
7130812690,node,tourism,guest_house,Pai,,,19.355851,98.4440304,,http://www.tripadvisor/baantawaanpai,,,,,,,,,,
7135815729,node,amenity,bar,Pai Pub Crawl,,,19.3566427,98.4443587,,,,,,,,"76 moo 3, Wiang Tai, Pai, Mae Hong Son, 58130",,,,
7135834129,node,amenity,bar,Pai Tubing Party Bar,,,19.362909,98.4411959,,,,,,,,"119, Wiang Tai, Pai, Mae Hong Son, 58130",,,,
7163404685,node,amenity,bar,,Pai Zion Zone Bar,,19.3564798,98.452164,,,,,,,Mo-Su 12:00-22:00,,,,,
7178579486,node,amenity,bar,,Paizion zone,,19.3565158,98.4521917,,,,,,,,,,,,
7179522985,node,amenity,restaurant,Krua Mae Nin,,,19.3575601,98.4388463,,,,,,,Mo-Su 07:30-18:30,,,thai,,
7194596085,node,amenity,cafe,,Space Cafe,,19.3490636,98.435259,,,,,,,,,,coffee_shop,,
7215631187,node,amenity,nightclub,,Electric Valley Pai,,19.3937109,98.470322,,,,,,,Sa 20:00-00:00; Su 00:00-06:00,,,,,
7223176487,node,shop,tea,Malamong Art Cafe,malamong,,19.3588961,98.4443856,,,,,,,Mo-Fr 09:00-23:00; Sa-Su 17:00-23:00,,,,,
7250260585,node,amenity,restaurant,,Thai Food,,19.3603439,98.44165,,,,,,,,,,thai,,
7507345536,node,tourism,hostel,Pai Backpackers Paradise,,,19.3490974,98.4452085,,,,,,,,"Mae Hi, Pai District, Mae Hong Son, 58130",,,,
7507413005,node,amenity,restaurant,Pizzaro,,,19.3584427,98.4446669,,,,,,,,"139/2, Pai, 58130",,pizza,,
7704356085,node,amenity,cafe,,Monko cafe,,19.3643152,98.4482077,,,,,,,,,,coffee_shop,,
7726114586,node,tourism,information,สวนสาธารณะเฉลิมพระเกียรติปาย,Pai public park,,19.3540646,98.4341922,,,,,,,,,,,,
7911759185,node,amenity,cafe,,Rainny Cafe,,19.3587893,98.4393783,,,,,,,,,,,,
7913373688,node,leisure,fitness_centre,,Hommy Pie,,19.3570307,98.4431332,,,,,,,Mo-Su 08:00-20:00,,,,,
8130060017,node,amenity,restaurant,,Two Huts Viewpoint cafe,,19.3219317,98.4554756,,,,,,,,,,,,
8286294662,node,tourism,hotel,Puripai,,,19.3877806,98.433788,,,,,,,,,,,,
8286294664,node,amenity,restaurant,The Barn,,,19.3881222,98.4345289,,,,,,,,,,,,
8308079117,node,amenity,cafe,Art in Chai,,,19.3586186,98.4425747,,,,,,,,,,,,
9300397185,node,tourism,hotel,Baan Chokdee Pai Resort,,,19.3634125,98.4349915,+66 85 2198988,https://baanchokdeepai.com/,,,,songsmaple@gmail.com,,"257 Moo 1, Pai, 58130",,,,
9348634217,node,amenity,bar,,Vespa Bar,,19.3591338,98.4410741,,,,,,,,,,,,
9421886717,node,amenity,cafe,,Baandoi Cafe and Eatery,,19.3305766,98.4347177,+66 88 554 5614,,Baandoicafe,,,,Mo-Su 09:00-20:00,58130,,coffee_shop;tea;thai,,
9430659217,node,amenity,restaurant,Banh Banh Pun Pai Sandwich Vietnam,,,19.3590313,98.4434514,+66 95 692 2798,https://www.google.com/maps?q=Banh+Banh+Pun+Pai+Sandwich+Vietnam%2C+Chai+Songkhram+Rd%2C+Wiang+Tai%2C+Pai+District%2C+Mae+Hong+Son+58130%2C+Thailand,,,,,Mo-Su 09:00-00:00,"Chai Songkhram Rd, 58130",,vietnamese,,
9533639117,node,tourism,hotel,,Pai Lamun Valley,,19.329324,98.4421769,,,,,,,,,,,,
9701787417,node,amenity,restaurant,,Mu'min halal Food,,19.3604439,98.4407901,,,,,,,,,,,,
9788434726,node,tourism,guest_house,Pai Homey,,,19.3611111,98.4457116,,,,,,,,,,,,
9803781593,node,amenity,pub,Kogo Shop,,,19.3589604,98.4435634,,,,,,,,,,,,
9803788012,node,amenity,pub,Jikko Beer,,,19.3589266,98.4433803,,,,,,,,,,,,
9812679296,node,tourism,hotel,The Quarter,,,19.361993,98.4365282,,https://www.thequarterhotel.com/,,,,,,,,,,
9874045817,node,tourism,hotel,,Aether Pai Villa,,19.3455229,98.4402831,,,,,,,,,,,,
9875644117,node,amenity,fast_food,,Congee,,19.3593474,98.4412607,,,,,,,,,,,,
9875733018,node,amenity,cafe,,Hope,,19.3583769,98.4407115,,,,,,,,,,,,
10026130417,node,tourism,guest_house,,Pril Pai,,19.3456663,98.4514376,,,,,,,,,,,,
10044434917,node,amenity,cafe,,On the Floor,,19.349609,98.4509033,,,,,,,,,,,,
10044435017,node,amenity,restaurant,,Chef's Kazoku,,19.3490304,98.4508295,,,,,,,,,,,,
10061243617,node,tourism,hostel,Pai My Way,,,19.3582028,98.4419811,,,,,,,,,,,,
10067957017,node,amenity,restaurant,,Thai Zen Organic Farm,,19.3582317,98.4520366,,,,,,,,,,,,
10153768617,node,amenity,restaurant,,Hula Hula House,,19.3504398,98.4508383,,,,,,,,,,thai,,
10159027922,node,tourism,attraction,Night Bazaar Pai,Night Bazaar Pai,,19.3599662,98.4416495,,,,,,,,,,,,
10159039719,node,tourism,hostel,,Sunny Tayai Hostel,,19.3582589,98.4427786,,,,,,,,,,,,
10181670357,node,amenity,marketplace,,,,19.3592136,98.4375871,,,,,,,,,,,,
10272597609,node,tourism,hostel,,,,19.3226883,98.4686202,,,,,,,,,,,,
10304278060,node,tourism,guest_house,Rim Pai Cottages,,,19.3594334,98.4449146,,,,,,,,,,,,
10310182109,node,tourism,hostel,,Sunny garden hostel,,19.3572629,98.4406851,,,,,,,,"17 Pai, Pai district, Mae Hong Son 58130",,,,
10314071658,node,amenity,restaurant,Ganesh,,,19.356932,98.4440378,,,,,,,,,,,,
10316087409,node,tourism,hostel,,Easy Guesthouse,,19.3556088,98.4405733,,,,,,,,"286 Moo 8, Tumbon Wiang Tai, Amphoe Pai",,,,
10537029609,node,tourism,guest_house,,In Pai Resort,,19.3920936,98.4510377,,,,,,,,,,,,
10538023509,node,leisure,fitness_centre,,Sitjemam Muay Thai,,19.3973662,98.4374333,,,,,,,,,,,,
10544496209,node,tourism,viewpoint,,,,19.3994961,98.4429553,,,,,,,,,,,,
10548370109,node,amenity,cafe,,Romance Cafe,,19.3816793,98.4500044,,,,,,,,,,,,
10607555205,node,tourism,hostel,JJ&J Garden,,,19.3709304,98.4372223,,,,,,,,,,,no,
10650869145,node,amenity,restaurant,Dollar Cafe,,,19.361537,98.4400179,,,,,,,,,,,yes,
10651551589,node,amenity,restaurant,,,,19.3645937,98.4394558,,,,,,,,,,thai,,
10675530405,node,tourism,hostel,,,,19.3700006,98.4378993,,,,,,,,,,,,
10675530406,node,tourism,hostel,JJ&J Garden,,,19.3710672,98.4375906,,,,,,,,,,,,
10690036905,node,amenity,cafe,ปาย คอฟฟี่ สตูดิโอ,Coffee Studio,,19.3580813,98.4482188,+66 93 504 6565,,,,,,Mo-Su 08:00-17:00,"393 Mae Hi, Pai District, Mae Hong Son 58130, Thailand",,coffee_shop,,
10704634405,node,tourism,guest_house,Happy House Backpackers,,,19.3559717,98.4378065,+66 6-3618-5565,,,,,,,"9C4Q+49R, Wiang Tai, Pai District, Mae Hong Son 58130, Thailand",,,,
10755250805,node,amenity,restaurant,,Breakthefast,,19.3591073,98.4406314,,,breakthefastpai,,,,Mo-Su 07:30-14:00,,,breakfast,,
10862163375,node,tourism,guest_house,Slow Life Sabaidee Pai and Breakfast,,,19.3493729,98.4412367,,,,,,,,,,,,
11110305022,node,tourism,viewpoint,,,,19.3220914,98.4554412,,,,,,,,,,,,
11110345651,node,amenity,restaurant,Red Orchid Restaurant,,,19.3669151,98.4504049,,,,,,,,,,,,
11139629748,node,tourism,viewpoint,,,,19.3389799,98.4331725,,,,,,,,,,,,
11139629749,node,amenity,restaurant,Shabu Buffet,,,19.3511572,98.4355638,,,,,,,,,,,,
11150641786,node,tourism,motel,Pai Forest Resort,,,19.3456323,98.4327099,,,,,,,,,,,,
11371456322,node,tourism,hostel,Bodega Hostel,,,19.3626246,98.4405031,,,,,,,,,,,,
11379174468,node,tourism,hostel,Tiny Hostel,,,19.3611072,98.4400359,,,,,,,,,,,,
11405525154,node,tourism,hostel,Revolution Pai In Town,,,19.3579515,98.4410589,,https://www.revolutionhostel.com/,,,,paiintown@revolutionhostels.com,,"6/1, Moo 3, Pai, 58130",,,,Revolution Hostels
11405532494,node,amenity,restaurant,Centrico Pai (Halal),,,19.3588503,98.4436622,0926345594,,,,,,Mo-Su 10:00-24:00,"138, 138 Chai Songkhram Rd, Pai, 58130",,mexican,,
11461346114,node,tourism,hotel,Baan Aomsin Resort,,,19.362774,98.4333208,095 949 5696,,,,,,,"254, Wiang Tai, Pai District, Mae Hong Son 58130",,,,
11494419869,node,tourism,guest_house,,Pai Yard Guesthouse,,19.3518349,98.4330241,,,,,,,,,,,,
11539133591,node,amenity,restaurant,Local food,,,19.3577379,98.4403963,,,,,,,Mo-Su 07:00-15:00,,,thai,,
11539190301,node,amenity,cafe,Smoothies,,,19.320435,98.4242566,,,,,,,,,,,,
11816232990,node,tourism,hotel,Pai My Guest Resort,,,19.3536059,98.4513845,,,,,,,,,,,,
11998474969,node,tourism,guest_house,,Pho Rak Nah Pai Guesthouse,,19.352674,98.4521064,,,,,,,,,,,,
12022409169,node,amenity,restaurant,Two sisters,,,19.3630406,98.4515465,,,,,,,,,,,,
12322883518,node,amenity,restaurant,Rose's Roadhouse Pai,,,19.3509075,98.4388845,0818838977,,,,,,,"Pai, Mae Hong Son, 58130",,,,
12435309501,node,tourism,hostel,Kitchen Hub Hostel & Cafe,,,19.3638366,98.4514607,,,,,,,,"397, Wiang Nuea, 58130",,,,
12438084701,node,tourism,hostel,Hug Pai Boutique Hostel,,,19.3614889,98.4401553,0830950639,,,,,,,ถนนเขตเขลางค์,,,,
12440366501,node,tourism,hostel,Camp View Mountain - Sell Experience,,,19.3829208,98.4385681,+66971536565,,,,,,,"75/1, Mae Na Toeng, 58130",,,,
12443743808,node,tourism,hostel,Sunny house hostel,,,19.3580902,98.4387667,,,,,,,,ถนนเขตเขลางค์,,,,
12464891705,node,tourism,hostel,Buzzas @ Pai Chan,,,19.3553198,98.4466841,,,,,,,,"191, Mae Hi",,,,
12517912401,node,tourism,guest_house,BAANKONPAI,,,19.3592843,98.4406166,,,,,,,,,,,,
12732524202,node,amenity,cafe,Hedgehog BOBA,,,19.3583125,98.4407003,,,,,,,Mo-Su 10:00-20:00,,,,,
12877033201,node,amenity,bar,Paradise Pai,,,19.3509585,98.4464386,,,,paradise_pai,,,Mo-Su 10:00-01:00,58130,,,,
13003590033,node,amenity,cafe,TIME,,,19.3588265,98.4441909,,,,,,,,,,,limited,
13273376167,node,tourism,hotel,Pai Nai Fun,,,19.360393,98.4445972,,,,,,,,,,,,
13273604365,node,tourism,hostel,Pai in the sky,,,19.360516,98.4434627,,,,,,,,,,,,
13300709901,node,amenity,cafe,Free Bird Cafe,,,19.3524172,98.441039,,,,,,,Mo-Su 10:00-21:00,,,,,
13307698620,node,amenity,bar,The River Chillax Bar,,,19.3619589,98.4436941,,,,,,,,,,,,
13315825401,node,amenity,cafe,Soul Cafe,,,19.3570642,98.4409746,,,,,,,,,,,,
13322157023,node,tourism,hotel,Chang Pai Garden,,,19.3528228,98.4525564,,,,,,,,,,,,
13323862543,node,tourism,guest_house,,Cheeva at Pai,,19.3676372,98.4389189,,,,,,,,,,,,
13325510999,node,amenity,cafe,Changpai Cafe,,,19.3528866,98.453283,,,,,,,Mo-Su 08:00-21:00,,,,,
13325518509,node,tourism,hotel,Chang Pai Garden,,,19.3528228,98.4525564,,,,,,,,,,,,
13335409502,node,amenity,marketplace,Monday Market,,,19.3691379,98.4365631,,,,,,,,,,,,
13363104502,node,leisure,resort,Sirita,,,19.3667271,98.4341978,,,,,,,,,,,,
13382689161,node,tourism,hotel,,,,19.366813,98.4395488,,,,,,,,,,,,
13409950438,node,tourism,guest_house,Sunny Family,,,19.3577106,98.4342845,,,,,,,,,,,limited,
13410390448,node,tourism,guest_house,Nam Jai Pai,,,19.3879319,98.4404888,,,,,,,,,,,,
13412745274,node,amenity,cafe,Atlas avalley,,,19.3472733,98.4481447,,,,,,,,,,,,
13412745776,node,amenity,public_bookcase,,,,19.3472839,98.4480457,,,,,,,,,,,,
13412752997,node,tourism,guest_house,Shaya,,,19.359683,98.4500508,,,,,,,,,,,limited,
13412764228,node,amenity,cafe,Shaya Café,,,19.3596239,98.4502045,,,,,,,"Mo-Su,PH 08:00-17:00",,,,limited,
13413119904,node,tourism,viewpoint,,,,19.3249896,98.4539301,,,,,,,,,,,,
13413124234,node,amenity,restaurant,Pai Sunset Panorama,,,19.324045,98.4540257,,,,,,,,,,,,
13414937468,node,amenity,cafe,Lisu Coffee,,,19.3619219,98.449713,,,,,,,,,,,,
13415018561,node,shop,massage,,,,19.3615741,98.449658,,,,,,,,,,,,
13415026529,node,amenity,cafe,MaMa Noi,,,19.361697,98.4496694,,,,,,,,,,,,
13417418701,node,amenity,cafe,Tribal Coffeebread,,,19.3625502,98.435785,,,,,,,,,,,,
13417424901,node,amenity,fast_food,Pai Noodle Bar,,,19.3626434,98.4357199,,,,,,,,,,,,
13417425001,node,amenity,fast_food,Yogu Yogu,,,19.362712,98.4357675,,,,,,,,,,,,
13417425101,node,amenity,restaurant,Jomyoot Chicken Rice,,,19.3627984,98.4358276,,,,,,,,,,thai,,
13417439302,node,amenity,restaurant,mr.moon,,,19.3631774,98.4350876,,,,,,,,,,,,
13417439303,node,tourism,hotel,So Good,,,19.3636422,98.4332976,,,,,,,,,,,,
13417439401,node,amenity,fast_food,Hommie Samosas,,,19.3630726,98.4353597,,,,,,,,,,,,
13417439501,node,amenity,restaurant,Mountain Blues,,,19.3631507,98.4351323,,,,,,,,,,,,
13417439502,node,amenity,cafe,Chortip Cafe,,,19.36368,98.4330308,,,,,,,,,,,,
13417460801,node,amenity,restaurant,Huana Crispy Basil,,,19.3635583,98.4337471,,,,,,,,,,,,
13417460901,node,tourism,hostel,Yor Song Hostel,,,19.3624839,98.4357794,,,,,,,,,,,,
13428263201,node,leisure,fitness_centre,Maliha Yoga,,,19.3623208,98.4359442,,,,,,,,,,,,
13429886501,node,amenity,cafe,Soulscape,,,19.3648618,98.435637,,,,,,,,,,,,
13429926801,node,leisure,resort,Baan Som Pai,,,19.3640422,98.4278422,,,,,,,,,,,,
13436982901,node,amenity,restaurant,Rim Pai Cafe & Restaurant,,,19.3511393,98.4405446,0955201991,,,,,,,,,,,
13437080401,node,amenity,arts_centre,Nitnois,,,19.3512665,98.4432359,,,,,,,,,,,,
13437174501,node,amenity,bar,Malao Bar,,,19.3529279,98.4421824,,,,,,,,,,,,
13437175301,node,amenity,restaurant,Pizzeria Pai Koh Kood,,,19.353428,98.4418665,,,,,,,,,,,,
13437200801,node,amenity,cafe,go heng,,,19.3542723,98.4412959,,,,,,,,,,,,
13444979901,node,tourism,hotel,Pailifornia,,,19.362736,98.4365807,,,,,,,,,,,,
13447487701,node,tourism,guest_house,Ark Pai,,,19.3509741,98.4426873,,,,,,,,,,,,
13447487702,node,amenity,cafe,Taruka,,,19.3567436,98.4396058,,,,,,,,,,,,
13447487801,node,amenity,cafe,Home Cafe,,,19.3547385,98.4409792,,,,,,,,,,,,
13447487901,node,amenity,restaurant,Thai Kitchen,,,19.355142,98.4406092,,,,,,,,,,,,
13447488001,node,amenity,cafe,Little Cottage Cafe,,,19.3568492,98.4394874,,,,,,,,,,,,
13447792401,node,tourism,hotel,,Touch Pai,,19.3607059,98.444707,,,,,,,,,,,,
13447792501,node,amenity,bar,,Jazz Up,,19.3596947,98.4434482,,,,,,,,,,,,
13447792502,node,amenity,fast_food,,Bamboo Bar,,19.3595334,98.4435132,,,,,,,,,,,,
13447792503,node,amenity,fast_food,,Wrap or Me,,19.3593181,98.4435441,,,,,,,Mo - Fr 14:00 - 22:00,,,,,
13451922701,node,tourism,hotel,,The Little House,,19.3664975,98.4353516,,,,,,,,,,,,
13452087201,node,amenity,fast_food,KFC,,,19.3551615,98.4372997,,,,,,,,,,,,
13452087202,node,amenity,fast_food,,Dairy Queen,,19.3551837,98.4372246,,,,,,,,,,,,
13459546401,node,amenity,cafe,Curve Cafe,,,19.3858062,98.4404678,,,,,,,,,,,,
13463357001,node,amenity,cafe,,Farm Suk Animal Cafe,,19.3632195,98.4378126,,,,,,,Sa-Su 10:00-17:00,,,,,
13463357101,node,amenity,cafe,Koios,,,19.372923,98.4389279,,,,,,,,,,,,
13463357301,node,tourism,theme_park,Mini Golf The Putt Club,,,19.3732151,98.4396421,,,,,,,We-Mo 10:00-18:00,,,,,
13464399813,node,tourism,hotel,Chortip House,,,19.3636404,98.4330194,+66961947969,,,,,chortiphouse666@gmail.com,,"304, เวียงใต้, ปาย, แม่ฮ่องสอน, 58130",,,,
13469600101,node,amenity,restaurant,,Kuan Jai,,19.3591664,98.4435555,,,,,,,,,,,,
13473132001,node,amenity,cafe,,Carrot On The Moon,,19.3629269,98.4392947,,,,,,,,,,,,
13481582403,node,amenity,cafe,,Sanfan Home & Cafe,,19.375123,98.442942,,,,,,,Th-Tu 08:00-18:00,,,,,
13481582501,node,amenity,restaurant,,Fai Fai,,19.3750499,98.4442763,,,,,,,,,,,,
13481582601,node,amenity,cafe,,HÖP Chafé Pai,,19.3573668,98.440399,,,,,,,,,,,,
13481582901,node,shop,massage,,Nice Massage,,19.3573993,98.440441,,,,,,,,,,,,
13481582902,node,leisure,resort,,Sweet Home @ Pai,,19.3753997,98.445679,,,,,,,,,,,,
13481583101,node,amenity,restaurant,,Lung Chang Restaurant,,19.3682915,98.4359862,,,,,,,,,,,,
13518303201,node,tourism,attraction,,Long neck village,,19.3575455,98.4552573,,,,,,,,,,,,
13527733001,node,amenity,bar,Bros Music Bar and Hostel,,,19.3587488,98.4445519,,,MusicBarBrosPai,,,,,,,,,
13527846202,node,amenity,bar,Pai Siam,,,19.3588849,98.4447723,,,,,,,Mo-Su 09:00-22:30,,,international,,
13546027023,node,shop,massage,Pai body magic massage,,,19.3585124,98.444691,,,,,,,,,,,,
13546154478,node,shop,massage,Pai body magic massage,,,19.3585124,98.444691,,,,,,,,,,,,
13576420601,node,leisure,resort,Pai Pavilion,,,19.3534449,98.4369049,,,,,,,,,,,,
246117307,way,tourism,attraction,บ้านสันติชล,Santichon Village,บ้านสันติชล,,,,,,,,,,,,,,
308928929,way,tourism,guest_house,Pai Paradise,,,,,+66 53 698065;+66 89 4313511;+66 81 5954974 ,https://www.pairadise.com/,,,,,,,,,,
400796315,way,tourism,hotel,Valhalla,,,,,,,,,,,,,,,,
447868962,way,tourism,hotel,Baan Kung Kang de Pai,,,,,"053 064 450, 086 368 5556",https://baankungkangdepai.com/,,,,,,"282, Moo 8 Wiang Tai, Pai, 58130",,,limited,
490728530,way,leisure,resort,Pana Village resort,,,,,,,,,,,,,,,,
547022927,way,amenity,marketplace,,Pai Night Market,,,,,,,,,,Mo-Sa 18:00-22:00,,,,,
547025366,way,amenity,marketplace,Pai Night Market,,,,,,,,,,,Mo-Su 18:00-22:00,,,,,
547026178,way,amenity,marketplace,Pai Night Market,,,,,,,,,,,Mo-Su 18:00-22:00,,,,,
547234614,way,amenity,restaurant,,Khrua Angi,,,,,,,,,,,,,,,
547234621,way,tourism,guest_house,Heun Pa Tom,,,,,,,,,,,,,,,,
547234624,way,tourism,hotel,Pichai House,,,,,,,,,,,,,,,,
547234626,way,amenity,bar,,The Pai Pub,,,,,,,,,,,,,,,
641169662,way,amenity,restaurant,,,,,,,,,,,,,,,thai,,
641169671,way,tourism,hotel,Heart of Pai,,,,,,,,,,,,,,,,
641169676,way,amenity,cafe,,Coffee Home,,,,,,,,,,,,,american,,Ni
641169681,way,tourism,guest_house,TTK Guesthouse,,,,,,,,,,ttkguesthouse@gmail.com,,,,,,
641169683,way,tourism,hotel,Medio De Pai,,,,,+6653699998,,,,,medio_pai@hotmail.com,,,,,,
641169910,way,amenity,cafe,,Coffee Stains,,,,,,,,,,,,,,,
641175433,way,tourism,hotel,Hotel des Artists,,,,,,,,,,,,,,,,
641175453,way,leisure,fitness_centre,Pai Fit,,,,,,,,,,,Mo-Sa 09:00-20:00; Su 10:00-20:00,,,,,
641175456,way,shop,massage,Masterly Thai Massage,Masterly Thai Massage,,,,080 792 8158,http://www.paitreehouse.com,,,,,Mo-Su 09:00-23:00,,,,no,
641175467,way,tourism,hostel,Revolution Pai (Reception),,,,,053699411,https://www.revolutionhostels.com/,,,,pai@revolutionhostels.com,,"76 moo 3, Wiang Tai, Pai, 58130",,,,Revolution Hostels
641175477,way,tourism,hotel,Baansuan,,,,,+66  53699980,,,,,,,,,,,
641175488,way,tourism,hostel,Revolution Pai (Rooms),,,,,,,,,,,,"76 moo 3, Wiang Tai, Pai, 58130",,,,
641175494,way,amenity,restaurant,Kanad,,,,,,,,,,,,,,local;thai,,
641175497,way,amenity,restaurant,Duang Pai,,,,,,,,,,,,,,,,
712341360,way,tourism,guest_house,Countryside Resort,,,,,,,,,,,,,,,,
712341361,way,tourism,hotel,Pai Da See,,,,,,,,,,,,,,,,
712341362,way,tourism,guest_house,2 My Friends,,,,,,,,,,,,,,,,
712341363,way,tourism,guest_house,Pai Vieng Fah,,,,,,,,,,,,,,,,
712341364,way,tourism,guest_house,Pai Klang Na,,,,,,,,,,,,,,,,
712341365,way,tourism,guest_house,Ing Doi/Yawning Fields,,Ing Doi/Yawning Fields,,,,,,,,,,,,,,
746038679,way,tourism,guest_house,TTK Guesthouse,,,,,,,,,,ttkguesthouse@gmail.com,,,,,,
749683531,way,amenity,restaurant,Sapah Muang Pai,,,,,,,,,,,,,,thai,,
749683532,way,amenity,restaurant,,,,,,,,,,,,,,,thai,,
764237694,way,tourism,hotel,Family House Zen Boutique Resort,,,,,+66835413304,https://familyhousezenboutiqueresort.com/,,,,,,,,,,
764237695,way,tourism,hotel,Family House Zen Boutique Resort,,,,,+66835413304,https://familyhousezenboutiqueresort.com/,,,,,,,,,,
824158737,way,amenity,marketplace,Rim Pai Market,Pai Wednesday Market (5-12 am),,,,,,,,,,,,,,,
956228548,way,tourism,hotel,,Belle Villa Resort,,,,,,,,,,,,,,,
1008053394,way,leisure,resort,,,,,,,,,,,,,,,,,
1040725887,way,amenity,cafe,Om Garden Café,,,,,66824515930,,,,,,Tu-Su 08:30-16:30; Mo 00:00-24:00,,,thai,,
1040725892,way,amenity,restaurant,White House Cafe & Restaurant,,,,,,,,,,,,,,,,
1040730481,way,tourism,hostel,Pai RiverJam Hostel,Pai RiverJam Hostel,,,,0954878851,https://www.booking.com/hotel/th/pai-zen-jam-river-hostel-amp-campground.html,,,,paijamhostel@gmail.com,Mo-Su 08:00-22:00,"99, Moo หมู่ 4 Wiang Tai, Amphoe Pai, Chang Wat Mae Hong Son 58130, Pai, 58130",,,,Toto & Oliver
1040730484,way,amenity,fast_food,,Fine Rice Hot Pot,,,,,,,,,,,,,japanese,,
1040731827,way,tourism,guest_house,Tribal Pai Backpackers,,Tribal pai,,,,,,,,,,,,,,
1040731829,way,amenity,marketplace,Saeng Thong Aram Market,,ตลาดสดแสงทองอร่าม,,,,,,,,,,,,,,
1128114950,way,tourism,guest_house,Twin Hut,,,,,0810280843,http://www.twin-hut.com/,,,,,,,,,,Pat
1128114952,way,amenity,restaurant,Meets & Meats,,,,,,,,,,,,"76 moo 3, wiang tai, Pai, 58130",,bbq;barbecue;smokehouse;beer_garden,,
1128114953,way,tourism,guest_house,,Kwang House,,,,,,,,,,,,,,,
1128114954,way,shop,massage,,Aning Thai Massage,,,,0989799692,,,,,,,ถนนเขตเขลางค์,,,,
1128114955,way,amenity,restaurant,Maya Burger Queen,,,,,,,,,,,,,,burger,no,
1128114956,way,tourism,hotel,Pai Loess Resort,,,,,0866025348,,,,,,,,,,,
1128114957,way,tourism,guest_house,Family Huts,,,,,0904745907,,,,,,,,,,,
1128114959,way,tourism,guest_house,Baan Pai Riverside,,,,,,,,,,,,,,,,
1128114960,way,amenity,bar,Night Owl Bar,,,,,,,,,,,,,,,,
1128114961,way,amenity,bar,Boom Bar,,,,,,,,,,,,,,,,
1128114962,way,shop,massage,Tida Massage,,,,,,,,,,,,,,,,
1128114963,way,shop,massage,Mamalon Massage,,,,,,,,,,,,,,,,
1128114964,way,shop,massage,Maew Massage,,,,,,,,,,,,,,,,
1128114965,way,tourism,hotel,Villa De Pai,,,,,+66 53699109,,,,,,,,,,,
1128114969,way,amenity,bar,Yellow Sun Bar,,,,,,,,,,,,,,,,
1128114970,way,tourism,guest_house,Sleep Pai,,,,,,,,,,,,,,,,
1128114972,way,amenity,restaurant,Dang Thai Food,,,,,,,,,,,,,,thai,,
1128119469,way,amenity,bar,Cha Bar,,,,,,,,,,,,,,,,
1128119470,way,tourism,hotel,Pai Village Boutique Resort,,,,,,,,,,,,,,,,
1128119471,way,amenity,restaurant,ทัพพี,Tub-p,,,,,,,,,,,,,international,,
1128119476,way,amenity,cafe,Doze Cafe,,,,,,,,,,,,,,,,
1128119477,way,tourism,guest_house,Baan Phasa,,,,,,,,,,,,,,,,
1128119478,way,tourism,hotel,Pai Vimaan Resort,,,,,,,,,,,,,,,,
1128119480,way,amenity,fast_food,Cheese Madness,,,,,,,,,,,,,,,,
1128119482,way,amenity,restaurant,Pen's Kitchen,,,,,,,,,,,,,,,,
1128119483,way,amenity,bar,Boom Bar,Boom Bar,,,,,,,,,,,,,,,
1128119484,way,tourism,guest_house,Baan Pink,,Baan Pink,,,,,,,,,,,,,,
1128119488,way,tourism,guest_house,,Yotaka@Pai,,,,+66 53699688,,,,,,,,,,,
1128119492,way,amenity,restaurant,Baan Pizza,Baan Pizza,,,,,,,,,,,,,italian_pizza;italian;pizza,,
1128119493,way,tourism,guest_house,K-Bunk Hostel,,,,,,,,,,,,,,,,
1128120625,way,amenity,cafe,Cafe d'tist,,,,,,,,,,,Mo-Su 07:30-22:00,,,coffee_shop,,
1128120627,way,tourism,hotel,,Namu Hotel,,,,,,,,,,,,,,,
1128120630,way,amenity,bar,Limoncello,,,,,,,,,,,,,,italian,,
1128120767,way,amenity,bar,Supermoon,,,,,,,,,,,,,,,,
1138318640,way,amenity,restaurant,168 Mada Cafe,,,,,0927899319,,,,,,,,,,,
