osm_id,osm_type,category,subcategory,name,name_en,name_th,lat,lng,phone,website,facebook,instagram,line_id,email,opening_hours,address_full,stars,cuisine,wheelchair,operator
259777623,node,tourism,hotel,100 Islands Resort & Spa,,,9.1024165,99.3047813,,,,,,,,,,,,
1377406506,node,tourism,hotel,แก้วสมุย รีสอร์ท,Kaew Samui Resort,แก้วสมุย รีสอร์ท,9.1144356,99.3454312,,,,,,,,,,,,
1378797006,node,tourism,hotel,โรงแรมบรรจงบุรี,Bunjongburi Hotel,โรงแรมบรรจงบุรี,9.1013931,99.3246855,,,,,,,,,,,,
1378797138,node,tourism,viewpoint,,,,9.0999344,99.3502181,,,,,,,,,,,,
1562211614,node,tourism,hotel,My Place @ Surat Hotel,,,9.1442805,99.3256564,,,,,,,,,,,,
1785620187,node,tourism,hotel,,,,9.0955514,99.2903471,,,,,,,,,,,,
1786293248,node,tourism,guest_house,,,,9.1034722,99.3134282,,,,,,,,,,,,
1788098911,node,tourism,hotel,,,,9.1050525,99.304087,,,,,,,,,,,,
1813945068,node,amenity,pub,Earthzone,,,9.1396725,99.3421824,+66 82 545 2693,,,,,,"Mo-Sa 07:00-13:00, 16:00-23:00; Su 09:00-13:00, 16:00-23:30","227/61, Chalolkrat 6/1, 84000",,thai,,
1821270986,node,amenity,pub,Turn On Coffee,,,9.1340578,99.3240536,,,,,,,,,,,,
1827694139,node,tourism,hotel,Monkeyhouse,,,9.1337196,99.328824,,,,,,,,,,,,
1829096376,node,tourism,viewpoint,สะพานคลองฉนาก,,,9.1830461,99.3261962,,,,,,,,,,,,
2187904588,node,tourism,hotel,The One Hotel,,,9.1410241,99.3337014,,,,,,,,,,,,
2502431118,node,tourism,hotel,Tapee Hotel,,,9.1430218,99.3255235,,,,,,,,,,,,
2668562630,node,tourism,hotel,ราชธานี,,,9.1457641,99.3272316,,,,,,,,,,,,
2671322533,node,tourism,guest_house,Monkey School Homestay,,,9.1311065,99.3916529,,https://www.firstschoolformonkeys.com/homestay/,,,,,,,,,,
2671322685,node,tourism,theme_park,Monkey Training College,,,9.1310803,99.3920776,,https://www.firstschoolformonkeys.com/,,,,,,,,,,
3268503297,node,tourism,guest_house,Chokkarun Guest House,,,9.1369039,99.3305126,,,,,,,,,,,,
3959993844,node,tourism,hotel,Hop Inn Surathani,,,9.0998486,99.3062956,,https://hopinnhotel.com/,,,,,,,,,,
4024849424,node,tourism,hotel,,Papangkorn House,,9.1466061,99.3332185,,,,,,,,,,,,
4122113603,node,tourism,viewpoint,Tapee River Viewpoint ,,,9.1451643,99.3236838,,,,,,,,,,,,
4122113768,node,tourism,hotel,Orchid Residence Suratthani,,,9.1502808,99.3318337,077214492 or 0824230086,,,,,,24/7,"666/5, ถนนหน้าเมือง",,,,
4122157089,node,tourism,hotel,Orchid Riverview Hotel,,,9.1422183,99.318775,,,,,,,,,,,,
4122938293,node,tourism,viewpoint,สะพานศรี​สุราษฎร์​,,,9.1738794,99.3584826,,,,,,,,,,,,
4225632989,node,tourism,hostel,บ้านแสนอบอุ่น,,,9.1455859,99.3371769,0946943308,,,,,matarmuttaratpun00@hotmail.com,,"229/30, ถนนอําเภอ, 84000",,,,เมธา มุททารัตน์
4376572492,node,tourism,attraction,ferry,,ferry,9.1934803,99.4480484,,,,,,,,,,,,
4583566294,node,tourism,hotel,นารายา รีสอร์ท,,นารายา รีสอร์ท,9.111591,99.3144452,,,,,,,,,,,,
4586483800,node,tourism,attraction,ปากน้ำกะแตะ,,ปากน้ำกะแตะ,9.2097917,99.477589,,,,,,,,,,,,
4688586098,node,amenity,bar,,Louvre bar,,9.1440555,99.3381888,,,,,,,,,,,,
4701347189,node,tourism,hostel,,Rooms at Surat,,9.1462648,99.3286875,,,,,,,,,,,,
4704620291,node,tourism,viewpoint,,Jetty River View Point,,9.1466602,99.324103,,,,,,,,,,,,
4706163606,node,tourism,hotel,,Bandon Hotel,,9.1419033,99.3235732,,,,,,,,,,,,
4706174192,node,tourism,hotel,,Intown Hotel,,9.1420299,99.3237028,,,,,,,,,,,,
4739101332,node,tourism,attraction,,Floating Village,,9.1506084,99.3203517,,,,,,,,,,,,
4904121421,node,tourism,hotel,,,,9.1399324,99.3277641,,,,,,,,,,,,
5174586830,node,tourism,viewpoint,,My point,,9.1557409,99.2778477,,,,,,,,,,,,
5324893221,node,tourism,hostel,,Toby’s Hostel,,9.1454682,99.3299581,,,,,,,,,,,,
5412162721,node,tourism,hostel,,Toby’s Hostel,,9.1457027,99.3297729,+66840530553,https://tobystravel.com/,,,,tobyshostel@gmail.com,Mo-Su 09:00-23:00,"297/14, ถนนตลาดใหม่, 84000",,,,Tao
5464131723,node,amenity,bar,,Bali,,9.1410042,99.3399965,,,,,,,,,,,,
5571091622,node,amenity,bar,,kiss,,9.1381306,99.3259351,,,,,,,Mo-Su 20:00-01:00,,,,,
5582098721,node,tourism,apartment,บ้านพร,,,9.1616721,99.3379568,,,,,,,Mo-Su 09:00-18:00,,,,,
5594172522,node,tourism,guest_house,Cheap Guesthouse,,,9.1436792,99.3281834,,,,,,,,,,,,
5842069985,node,tourism,hostel,Chang Bed And Bar Hostel,,,9.134495,99.3428055,+66945898597,https://www.booking.com/Share-6IzyCeA,,,,,24/7,"388/3, Amphoe Road",,,,
6384651285,node,tourism,hostel,,Urban cozy hostel,,9.1444753,99.3292304,,,,,,,,,,,,
6487139685,node,tourism,hostel,,Boundary Hostel & Cafe,,9.1463828,99.3287608,,,,,,,,,,,,
6531830351,node,tourism,hostel,Merlion Hostel,,,9.1434201,99.3277972,,,,,,,,,,,,
6531845900,node,tourism,viewpoint,Viewpoint to Bridge,,,9.1429869,99.3226855,,,,,,,,,,,,
6590240285,node,tourism,hostel,2street hostel,,2street Hostel,9.1449288,99.3239391,085 178 9306,https://www.booking.com/Share-n2UAT1,,,,,Mo-Su 14:00-22:00,"61, Ban Don Road, 84000",,,,
6831805897,node,tourism,hotel,Little PP Hometel,,,9.1388394,99.3264872,,,,,,,,,,,,
7025049385,node,tourism,viewpoint,,Baan Bon Khao - View Suai,,9.0930864,99.2889166,,,,,,,,,,,,
7123677285,node,amenity,bar,,Drunky Bear café,,9.145362,99.3266123,,,,,,,,,,,,
7140835948,node,tourism,guest_house,Donya Home,Donya Home,,9.1426075,99.4847631,,,,,,,,,,,,
7148859685,node,tourism,viewpoint,,Sunset View,,9.1366511,99.3129417,,,,,,,,,,,,
7183346124,node,tourism,hostel,Sleepbox Hostel,,,9.141991,99.3192194,,,,,,,,,,,,
7183346125,node,amenity,bar,Crossroads Riverside,,,9.1402778,99.3192552,,,,,,,Mo-Su 15:00-23:00,,,,,
7330646387,node,tourism,hostel,NCPLACE789,,,9.0887515,99.3694039,0953566962,,,,,,Mo-Su 09:00-18:35,"131/6, ถนนบ้านท่าเพชร, 84000",,,,Kknck
7799655668,node,tourism,hotel,Perfect Place,,,9.1202158,99.3363069,,,,,,,,,,,,
8735670817,node,tourism,hotel,,Cheaper Room Hotel,,9.1274103,99.3500272,,,,,,,,"8/7-8/10, Donnok, 84000",,,,
8938861124,node,tourism,hotel,Nok Hook Hotel,,,9.1366579,99.3304107,+6696 597 9429,https://facebook.com/nokhookcafe/,https://facebook.com/nokhookcafe/,,,,Mo-Su 08:00-20:00,,,,,
9281271917,node,tourism,hotel,Paragon Hometel,,,9.1234287,99.2947386,,,,,,,,"188/218  Moo 1, Wat Pradu, Surat Thani",3,,,
9607705954,node,tourism,hotel,Top Residence,,,9.1366451,99.3318793,+66-898-729-3986,,,,,,,,,,,
10006648217,node,tourism,hotel,B2,,,9.1170398,99.2985327,,,,,,,,Sathani Konsong Road,,,,
10567658609,node,tourism,hotel,rimnam lomyen resort,super and cheap,,9.1661553,99.3062643,+668091447747,https://www.facebook.com/rimnamlomyen,https://www.facebook.com/rimnamlomyen,,,,,"4 bang bai mai, 84000",,,,
10723177089,node,tourism,hotel,Little roadside hôtel,,,8.9709386,99.4608256,0840583508,,,,,,,,,,,
10744642281,node,tourism,hotel,BJ City Hotel,,,9.1370742,99.3227434,+6677203231,http://bjhotel-bke.zoombookdirect.com/,,,,,,,2,,,
10767447194,node,tourism,guest_house,Boathouse Marina Restaurant and Homestay,,,9.1375164,99.263862,,,,,,,,,,,,
11034086574,node,tourism,hostel,The Port Hostel,,,9.1415411,99.3225655,+66 86 595 4444; +66 77 286 000,,The Port Hostel,,,,,"4, Preedarat Road",,,,
11280646669,node,tourism,apartment,บายดี อพาต์ทเมนต์,,,9.076349,99.3688025,,,,,,,,,,,,
11297787769,node,tourism,hotel,,,,9.1571776,99.3471691,,,,,,,,,,,,
11310051672,node,tourism,hotel,Lee Hotel,,,9.1215514,99.3107274,,,,,,,,,3,,,
11391147469,node,tourism,hotel,,Bun Hotel,,9.1070369,99.3002441,,,,,,,,,,,,
11405756669,node,tourism,hotel,,,,9.1571492,99.3471432,,,,,,,,,,,,
11407272169,node,tourism,hotel,,,,9.1571285,99.347171,,,,,,,,,,,,
11900443069,node,tourism,guest_house,,,,9.1405493,99.3281075,,,,,,,,,,,,
12214473205,node,tourism,hostel,Bed&BarHostelSurat,,,9.1437452,99.3179909,+66 0909692545,,bedbarhostelsurat,,,,,"23/12, บางใบไม้, เมือง, สุราาษฎร์ธานี, 84000",,,no,Bongkochthorn
12278625101,node,tourism,hotel,Banmaitreejit Hotel,,,9.1053232,99.3048837,,,,,,,,,,,,
12306444601,node,tourism,hotel,สุโฮเทล,SUhotel,,9.1398733,99.3423012,+66 90 199 8898,,,,,,,"227/233, Chalolkrat 6/1, 84000",,,,
12558655503,node,amenity,pub,Hoppy Folks House Bar,,,9.1387271,99.3342748,+66 90 930 9863,,https://www.facebook.com/Hoppyfolks/,https://www.instagram.com/hoppyfolks/,,,Mo-Su 18:00-00:00,"531, ถนนชนเกษม, เมืองสุราษฎร์ธานี, สุราษฎร์ธานี, 84000",,,,
12587527718,node,amenity,bar,Never Ever Social Club,,,9.1454843,99.3245143,,,,,,,Mo-Su 17:00-00:00,"85, ถนนบ้านดอน",,,,
12732748801,node,tourism,apartment,,Stay Thought,,9.1360224,99.3279141,,,,,,,,,,,,
13157394501,node,tourism,hotel,the ordinary 8,,,9.1419836,99.3272161,,,,,,,,,,,,
13737320401,node,tourism,hotel,Evergreen Suites,,,9.1360833,99.3240752,,,,,,,,ถนนดอนนก,,,,
13749195201,node,amenity,bar,Last night,,,9.142667,99.3243661,,,,,,,,,,,,
13806371109,node,amenity,bar,Alin Bar & Bistro,,,9.1376368,99.3296877,,,,,,,,,,,,
167218346,way,amenity,public_building,,,,,,,,,,,,,,,,,
170685597,way,tourism,hotel,Siam Thani Hotel,,,,,,,,,,,,,,,,
170685869,way,tourism,hotel,Palm Garden,,,,,,,,,,,,,,,,
978164391,node,amenity,fast_food,KFC,KFC,เค เอฟ ซี,9.1036488,99.3068066,1150,https://www.kfc.co.th/,,,,,,,,chicken,,Kentucky Fried Chicken
978164393,node,amenity,restaurant,Crossroads,,,9.1021725,99.3074605,,,,,,,,,,thai,,
978164397,node,amenity,cafe,Swensen's,,,9.1039718,99.3067073,,https://www.swensens1112.com/,,,,,,,,ice_cream,,
978164399,node,amenity,restaurant,,,,9.1022027,99.3066599,,,,,,,,,,thai,,
1197981036,node,amenity,restaurant,Baansatek,,,9.1441197,99.3251835,,,,,,,,,,,,
1197981349,node,amenity,restaurant,Sweet Kitchen,,,9.1437,99.32325,,,,,,,,,,,,
1377406519,node,amenity,restaurant,ริเวอร์ไซด์ ซีฟู้ด,Riverside Seafood Restaurant,ริเวอร์ไซด์ ซีฟู้ด,9.1762064,99.3708358,,,,,,,,,,,,
1377634173,node,amenity,restaurant,ร้านลำพู 3,,ร้านลำพู 3,9.1840085,99.3690846,,,,,,,,,,,,
1378797007,node,amenity,fast_food,The Pizza Company,The Pizza Company,เดอะ พิซซ่า คอมปะนี,9.1451697,99.3267506,1112,https://www.1112.com/,,,,,,,,pizza,,
1784812646,node,amenity,restaurant,,,,9.1242987,99.314948,,,,,,,,,,thai,,
1785581894,node,amenity,restaurant,River and Hill,,,9.0978079,99.3276808,,,,,,,,,,thai,,
1785620210,node,amenity,restaurant,,,,9.0959169,99.2906744,,,,,,,,,,,,
1786259141,node,amenity,restaurant,,,,9.1030935,99.3073905,,,,,,,,,,thai,,
1786293188,node,amenity,cafe,,,,9.0974196,99.3223313,,,,,,,,,,,,
1786293198,node,amenity,restaurant,,,,9.0988612,99.320488,,,,,,,,,,thai,,
1786293218,node,amenity,restaurant,,,,9.1012607,99.3183635,,,,,,,,,,thai,,
1788107947,node,amenity,restaurant,,,,9.1356377,99.3422495,,,,,,,,,,thai,,
1813945013,node,amenity,restaurant,,,,9.1381313,99.3531982,,,,,,,,,,,,
1813996419,node,amenity,restaurant,,,,9.0998182,99.3200166,,,,,,,,,,thai,,
1813996420,node,amenity,restaurant,,,,9.0910014,99.3246756,,,,,,,,,,thai,,
1813996439,node,amenity,restaurant,,,,9.0971565,99.3179003,,,,,,,,,,thai,,
1814501203,node,amenity,restaurant,,,,9.0857164,99.3266229,,,,,,,,,,thai,,
1819649661,node,amenity,restaurant,,,,9.1512163,99.3069776,,,,,,,,,,thai,,
1821066957,node,amenity,restaurant,,,,9.1351697,99.3250862,,,,,,,,,,thai,,
1821068905,node,amenity,restaurant,จีบเหลือง ติ่มซำ,Jeep Lerng Tim-Sam,,9.1371214,99.3224684,,,,,,,Mo-Su 05:00-10:00,,,thai,,
1827664697,node,amenity,fast_food,,,,9.1214132,99.3388125,,,,,,,,,,thai,,
1827674836,node,amenity,restaurant,,,,9.1209259,99.3276921,,,,,,,,,,thai,,
2502419750,node,amenity,restaurant,,,,9.1431808,99.3228584,,,,,,,,,,,,
2502419752,node,amenity,restaurant,,Food market,,9.1435633,99.3230098,,,,,,,,,,,,
2502431116,node,amenity,restaurant,Milano Pizzeria,,,9.1441582,99.3234699,,,,,,,,,,italian;italian_pizza;pizza,,
2503446691,node,amenity,fast_food,KFC,KFC,เค เอฟ ซี,9.1460525,99.3272406,1150,https://www.kfc.co.th/,,,,,,,,chicken,,Kentucky Fried Chicken
3488626327,node,amenity,cafe,Starbucks,Starbucks Coffee,สตาร์บัคส์,9.1104395,99.3023967,,https://www.starbucks.com/,,,,,,,,coffee_shop,,
4122994190,node,amenity,fast_food,Sunday Market,,,9.135023,99.3168085,,,,,,,Su 16:00-21:00,,,,,
4622944597,node,amenity,restaurant,,Food stalls - night only?,,9.1210579,99.3097149,,,,,,,,,,,,
4643487789,node,amenity,restaurant,斋,vegetarian restaurant,斋,9.1439064,99.3313429,,,,,,,,,,,,
4688132290,node,amenity,cafe,,,,9.1365002,99.3204276,,,,,,,,,,,,
4688532018,node,amenity,cafe,,Monkey cafe,,9.1439118,99.3379832,,,,,,,,,,,,
4689965289,node,amenity,cafe,,Candy cafe,,9.1486072,99.3338728,,,,,,,,,,,,
4701347089,node,amenity,restaurant,,Thai food,,9.144842,99.3295946,,,,,,,,,,,,
4733416921,node,amenity,restaurant,,Local Vegan Restaurant,,9.1407918,99.3224881,,,,,,,Mo-Su 06:00-14:00,,,,,
4740268325,node,amenity,restaurant,,Suratthani Vegetarian Restaurant,,9.1356596,99.3283468,,,,,,,Mo-Su 09:00-18:00,,,thai,,
5177303223,node,amenity,fast_food,หญิงดาว,Ying-Dao,,9.1515975,99.334645,0909309124,,,,,,Mo-Sa 06:00-14:00,,,,,
5196266023,node,amenity,restaurant,แล้วแต่...เตี๋ยว,Noddle as,,9.1301131,99.349916,0846256663,,,,,,,,,,,
5197206523,node,amenity,restaurant,กะปิ,kapie,,9.1401161,99.3406421,0952645291,,,,,,,,,,,
5198018247,node,amenity,restaurant,มายเทอเรส,My Terrest,,9.1387697,99.3578914,077962465,,,,,,,,,,,
5234925622,node,amenity,cafe,,,,9.0791572,99.4240844,,,,,,,,,,,,
5306101322,node,amenity,restaurant,Day n Night Marketplace,,,9.1441781,99.3257677,,,,,,,Mo-Su 10:00-00:00,,,,,
5411288621,node,amenity,restaurant,,,,9.1413748,99.3190616,,,,,,,,,,thai,,
5411288721,node,amenity,restaurant,,,,9.1413818,99.3191989,,,,,,,,,,chinese,,
5470617121,node,amenity,cafe,,Bang Bai Mai Café,,9.1464424,99.3134536,,,,,,,,,,,,
5601112321,node,amenity,cafe,,Cafeteria Suratthani,,9.1432553,99.3255554,+6677205206,https://cafeteriathailand.com/,,,,,Mo-Su 08:30-21:30,,,asian;breakfast,,
5619165725,node,amenity,restaurant,,Sea Food Restaurant,,9.2224583,99.472486,,,,,,,,,,fish;seafood;asian,,
5693215828,node,amenity,restaurant,KENTO ซูชิทะเลใต้,,,9.1394793,99.3410716,,,,,,,Mo-Su 11:00-21:00,"235/46, ถนนอำเภอ, 84000",,japanese,,
5925883085,node,amenity,restaurant,,Dolce Vita,,9.123328,99.3242843,077310115,,,,,,,,,italian;italian_pizza,,
6187152485,node,amenity,fast_food,,KFC,,9.1582466,99.4340929,,,,,,,Mo-Su 09:00-18:00,,,chicken,,
6338916185,node,amenity,cafe,,Bake & Blend,,9.1251006,99.3365035,089 730 7097,https://bakeandblend.business.site/,,,,,Mo-Su 06:00-17:30,,,coffee_shop;cake,,
6413357009,node,amenity,cafe,Nok Hook Garden Cafe,,,9.1368119,99.3306494,+6696 597 9429,https://facebook.com/nokhookcafe/,https://facebook.com/nokhookcafe/,,,,Mo-Su 08:00-20:00,,,cake;coffee_shop;tea,,
6413357010,node,amenity,restaurant,Steaks on Job,,,9.1340304,99.3281195,,,,,,,12:00-22:00,,,,,
6482126885,node,amenity,restaurant,Cheap ostres,,,9.2089848,99.4769647,,,,,,,,,,,,
6831790536,node,amenity,cafe,Blue Sheep,,,9.1388091,99.3264613,,,,,,,,,,,,
7021860985,node,amenity,cafe,คาเฟ่ อเมซอน,Café Amazon,คาเฟ่ อเมซอน,9.1462089,99.3274098,,,,,,,Mo-Sa 07:00-20:00,,,coffee_shop,,
7025529285,node,amenity,restaurant,,Baan Bon Khao - View Suai,,9.0930605,99.2887833,,,,,,,,,,,,
7108668785,node,amenity,restaurant,,Wierd Thai restaurant,,9.1448824,99.3247035,,,,,,,,,,,,
7136949129,node,amenity,fast_food,,,,8.9700666,99.4642764,,,,,,,,,,,,
7145955185,node,amenity,cafe,MeaMook,,,9.1412932,99.3339294,,,,,,,Mo-Su 08:30-19:00,Thatong 12,,,,
7180408144,node,amenity,cafe,คาเฟ่ อเมซอน,Café Amazon,คาเฟ่ อเมซอน,9.1334583,99.3162923,,,,,,,Mo-Su 06:30-19:30,,,coffee_shop,,
7180427313,node,amenity,fast_food,KFC,,,9.1494147,99.3356467,,,,,,,,,,chicken,,
7180429931,node,amenity,cafe,Mile coffee,,,9.1816085,99.347097,,,,,,,,,,,,
7180438006,node,amenity,restaurant,Restaurant,,,9.119744,99.2983766,,,,,,,,,,,,
7184898529,node,amenity,restaurant,,,,9.1325604,99.3240231,,,,,,,,,,,,
7190073485,node,amenity,restaurant,,seafood,,9.1338184,99.3432719,,,,,,,,,,,,
7190672785,node,amenity,restaurant,,Buffet & BBQ,,9.1358571,99.3425092,,,,,,,,,,,,
7190677685,node,amenity,internet_cafe,,,,9.1366778,99.3421278,,,,,,,,,,,,
7190693386,node,amenity,restaurant,,,,9.1386172,99.3410787,,,,,,,,,,,,
7190707885,node,amenity,restaurant,,,,9.1389638,99.3408916,,,,,,,,,,,,
7190743485,node,amenity,cafe,,S!R! Coffee,,9.1395979,99.3415476,,,,,,,Mo-Su 09:00-19:00,,,,,
7192517585,node,amenity,restaurant,,,,8.9672991,99.3002517,,,,,,,,,,,,
7202501386,node,amenity,restaurant,,Jae Tom Vegetarian,,9.1467724,99.3280588,,,,,,,,,,,,
7276162885,node,amenity,restaurant,ร้านยกเข่ง,,,9.146438,99.3257826,,,,,,,,,,,,
7489921569,node,amenity,restaurant,ซูชิมั้ย สุราษฎร์ธานี,,,9.1336797,99.3336337,+66 846253430,,,,,,10:00-20:30,"359/39, ถนนชนเกษม, สุราษฎร์ธานี, 84000",,japanese;sushi;ramen,,
8515627217,node,amenity,cafe,,Cafe Amazon,,9.1581382,99.4342353,,,,,,,Mo-Su 07:00-20:00,,,cake;coffee_shop;tea,,
8910710498,node,amenity,fast_food,tumtui homemadefood,,แม่ตุ้มตุ้ย ผลิตภัณฑ์อาหารปละวัตถุดิบส่งตรงจากภาคใต้,9.1628647,99.3378157,,,,,,,,"93/180, Talad Lang 26, ตลาดล่าง, 84000",,juice;thai,,
8937415917,node,amenity,restaurant,เตี๋ยวเหอะ เชื่อดิ,Noodles,,9.1341159,99.3241418,+66836492282,,,,,,Mo-Su 09:30-16:00,,,noodle,,
8938557717,node,amenity,cafe,ALIVE Cafe,,,9.1182097,99.3129375,+66954168585,,,,,,Mo-Su 10:00-22:00,,,coffee_shop;steak_house;thai,,
8938557718,node,amenity,cafe,รดม-นม,Dome Nom Pung Milk & Matcha bar,รดม-นม-ปัง,9.1183202,99.31236,+6681 620 8681,,,,,,Mo-Su 11:30-22:00,,,coffee_shop;tea;thai,,
8940173817,node,amenity,restaurant,ไผ่หยก ติ่มซำ อาหารเช้า,Pai-Yok Tim-Sam Breakfast,,9.1393946,99.3274338,+6698 956 9936,https://facebook.com/paiyokdimsum,https://facebook.com/paiyokdimsum,,,,Mo-Su 06:00-11:30,,,noodles;tea;thai,,
9463457919,node,amenity,fast_food,5 Star Chicken,,ไก่ย่างห้าดาว,9.0793619,99.4242069,,,,,,,,,,chicken,,
9463457921,node,amenity,cafe,Café Amazon,,,9.0795181,99.423936,,,,,,,,,,,,
9484037456,node,amenity,cafe,,,,9.1465535,99.3263146,,,,,,,,,,,,
10006648317,node,amenity,restaurant,Incredible Thai Food,,,9.1135055,99.2975838,,,,,,,,,,,,
10148553017,node,amenity,cafe,คาเฟ่ อเมซอน,Café Amazon,คาเฟ่ อเมซอน,9.1350739,99.3338585,,,,,,,,,,coffee_shop,,
10310243386,node,amenity,restaurant,ผัดไทยท่าฉางป้าหนุ่ย,Padthai Phanui,,9.1451947,99.3264355,+66843055656,https://www.facebook.com/Padthai.Phanui,https://www.facebook.com/Padthai.Phanui,,,,Mo-Su 15:00-21:00,"แผงที่ 8, Ton Po Road, เมือง, 84000",,noodle;local,,
10316326675,node,amenity,cafe,โต๊ะแดงนมสด,Toadaeng nomsod,,9.1467298,99.3279382,,https://www.facebook.com/profile.php?id=100089189791457&mibextid=LQQJ4d,https://www.facebook.com/profile.php?id=100089189791457&mibextid=LQQJ4d,,,,Mo-su 16.00-23.00,"339, ถนนหน้าเมือง, มะขามเตี้ย, 84000",,dessert,,
10711417443,node,amenity,cafe,Cafe Amazon,,,9.1239898,99.2783377,,,,,,,,,,,,
10734980805,node,amenity,cafe,ร้านสถานีสเต็ก สุราษฎร์ธานี,,,9.1502805,99.3361514,,,,,,,,,,,,
10744636766,node,amenity,restaurant,ร้านผักบุ้งเจ๊จอน (ผักบุ้งลอยฟ้าเก่า),,,9.1345748,99.3244547,+6677286122,,,,,,Mo-Su 17:00-02:00,,,thai,,
10765692105,node,amenity,cafe,,Cafe Amazon,,9.1029564,99.3148934,,,,,,,Mo-Su 06:00-21:00,,,,,
10768211162,node,amenity,cafe,Kram Cafe,,,9.1470994,99.3246302,,,,,,,"Sa,Su 08:00-20:00",,,,,
10839182905,node,amenity,restaurant,,Thai food,,9.1448856,99.3302835,,,,,,,,,,,,
10846058605,node,amenity,cafe,Le Viridian,,,9.1483682,99.3336189,,,,,,,,,,,,
10971416280,node,amenity,restaurant,ร้านเฉียบหมูกระทะ ริมบึงขุนทะเล,,,9.0737465,99.3298738,0937874217,https://www.facebook.com/profile.php?id=100093385159206&sk=about,https://www.facebook.com/profile.php?id=100093385159206&sk=about,,,,Mo-Su 16.30:00-22:00,"68/3, ถ. พ่อขุนทะเล, มะขามเตี้ย, 84000",,หมูกระทะ,,
11104030408,node,amenity,cafe,Tooday Cafe,,,9.1690057,99.2880167,+66 81 891 6699,,,,,,08:00-18:00,,,thai;coffee_shop,yes,
11250573137,node,amenity,cafe,,Hub Cafe,,9.0843304,99.3694731,,,,,,,,,,,,
11521932158,node,amenity,ice_cream,,,,9.1369187,99.3235168,,,,,,,,,,,,
11586495969,node,amenity,cafe,ละมุน คาเฟ่,Lamune Cafe,,9.091086,99.3599527,,,,,,,,,,,,
12013396169,node,amenity,restaurant,House No. 5,,,9.1445801,99.3238118,+66 94 6256413,,,,,,Mo-Su 06:00-14:00,"317/13 Moo 2, 84000",,coffee_shop;tea;thai,,
12054628869,node,amenity,cafe,คาเฟ่ อเมซอน,Café Amazon,คาเฟ่ อเมซอน,9.1325822,99.3252274,,,,,,,Mo-Su 06:30-18:30,,,coffee_shop,,
12146157101,node,amenity,cafe,คาเฟ่ อเมซอน,Café Amazon,คาเฟ่ อเมซอน,9.1461135,99.3129902,,,,,,,,,,coffee_shop,,
12373554101,node,amenity,restaurant,ร้านทนาย หัวโค้งริมน้ำตาปี,,,9.1418728,99.3225232,+66 81 6061746,,,,,,"Mo-Su 04:00-10:00, 17:00-22:30",,,thai,,
12378884201,node,amenity,restaurant,Godang 18,,,9.1386052,99.3297832,,,,,,,,,,,,
12395635101,node,amenity,cafe,Cafe Amazon,Café Amazon,คาเฟ่ อเมซอน,9.1439637,99.3253689,,,,,,,Mo-Su 07:00-18:00,ถนนหน้าเมือง,,coffee_shop,,
12518255201,node,amenity,restaurant,168,,,9.1389766,99.338763,,,,,,,"Mo-Su 14:00-14:00, 23:59-23:59",,,thai,,
12531314201,node,amenity,cafe,,,,9.1493997,99.3787613,+66 83 702 9662,,,,,,"Mo-Su 07:00-07:00, 18:00-18:00",84000,,,,
12531314202,node,amenity,restaurant,ร้านครัวแม่ย่า - Kruamaeya Suratthani,,,9.1487384,99.3867268,+66 81 478 2261,,,,,,Tu-Su 10:00-22:00,84000,,thai,,
12976162701,node,amenity,restaurant,Tian Fu Plant Based (Vegan),,,9.1464054,99.3254077,+66 92 469 1694,,,,,,Mo-Su 08:00-21:00,ถนนบ้านดอน,,asian,,
12976162702,node,amenity,restaurant,Local vegan place,,,9.140811,99.329993,,,,,,,,,,,,
13062671402,node,amenity,cafe,เสืยว Coffee,,,9.1340231,99.328252,,,,,,,,,,,,
13175281628,node,amenity,restaurant,Noodle,,,9.135244,99.323935,,,,,,,,,,noodle,,
13302647501,node,amenity,restaurant,KO PLUS,,,9.1432015,99.3254366,,,,,,,Mo-Su 05:30-12:00,,,breakfast;thai,,
13754970601,node,amenity,restaurant,สากกะบัวคาเฟ่@สุราษฎร์ธานี,,,9.1446224,99.3568599,,,,,,,,,,,,
1026435975,way,amenity,cafe,Café Amazon,,,,,,,,,,,,,,,,
1447918057,way,amenity,restaurant,Jek Bak Dim Sum,,เจ็คบั้ค,,,,,,,,,,,,thai,,
1562214876,node,tourism,information,Phangan Tour 2000,,,9.1431378,99.3276733,,,,,,,,,,,,
1813996446,node,shop,alcohol,,,,9.0997758,99.3196384,,,,,,,,,,,,
1814002027,node,amenity,marketplace,,,,9.0877225,99.326301,,,,,,,Mo-Su 16:00-20:00,,,,,
1814002035,node,amenity,marketplace,,,,9.087357,99.3258397,,,,,,,,,,,,
1814461751,node,amenity,marketplace,,,,9.1018,99.3178172,,,,,,,,,,,,
1821271031,node,amenity,marketplace,Diamond Market,,,9.1071458,99.3074024,,,,,,,,,,,,
2503446690,node,amenity,cinema,Coliseum Cineplex,,,9.1462364,99.3272777,,,,,,,,,,,,
3776220033,node,tourism,information,Seatran,,,9.1429658,99.3258882,,,,,,,,,,,,
4175054795,node,amenity,marketplace,,,,9.1414239,99.3236158,,,,,,,,,,,,
4704620390,node,amenity,marketplace,,,,9.145077,99.3283312,,,,,,,,,,,,
4706173800,node,amenity,marketplace,,,,9.1420567,99.3230226,,,,,,,,,,,,
4739101148,node,amenity,marketplace,,Weekend Floating Market,,9.1512967,99.3067899,,,,,,,Sa-Su 15:00-22:00,,,,,
5160210822,node,tourism,information,,Abandon Hope All Ye Who Enter Here,,9.1393407,99.322273,,,,,,,,,,,,
5217470022,node,amenity,marketplace,,Wanderland night market,,9.156189,99.3424771,,,,,,,,,,,,
5354250783,node,leisure,resort,Amera Resort,,,9.1311739,99.34911,,,,,,,,"donnok, makhamtai, 84000",,,,boonyanuch
6564408385,node,shop,beverages,"Cha Living (Tea, Coffee)",,,9.1602496,99.3420556,,,,,,,,,,,,
9483273037,node,shop,massage,Aen Kai Health Massage,,,9.1437733,99.3248472,,,,,,,Mo-Su 11:00-23:00,,,,,
10026881417,node,shop,massage,,,,9.1295503,99.3201462,+66 80 215 87 33,,,,,,Mo-Su 07:30-22:30,,,,,
10801469305,node,leisure,fitness_centre,,Champion Gym,,9.1364552,99.3284252,,https://m.facebook.com/championgymurt/?wtsid=rdr_0pTYUqh1qDCncUROt,https://m.facebook.com/championgymurt/?wtsid=rdr_0pTYUqh1qDCncUROt,,,,,"12, 84000",,,,
13157129101,node,leisure,fitness_centre,OXS.GYM,,,9.1528103,99.3290473,,,,,,,,,,,,
167081974,way,leisure,sports_centre,,,,,,,,,,,,,,,,,
167158285,way,leisure,sports_centre,,,,,,,,,,,,,,,,,
199287442,way,leisure,sports_centre,,,,,,,,,,,,,,,,,
199383116,way,leisure,sports_centre,,,,,,,,,,,,,,,,,
242788974,way,amenity,marketplace,Night Market,,ตลาดศาลเจ้า,,,,,,,,,,,,,,
769714589,way,amenity,marketplace,ตลาดสดสำเภาทอง,,ตลาดสดสำเภาทอง,,,,,,,,,,,,,,
