osm_id,osm_type,category,subcategory,name,name_en,name_th,lat,lng,phone,website,facebook,instagram,line_id,email,opening_hours,address_full,stars,cuisine,wheelchair,operator
485616898,node,amenity,pub,The Ram,,,14.995919,102.0997601,,,,,,,,,,british;thai,,
491538772,node,tourism,hotel,Vienna Resort,,,15.0052921,102.0404633,,,,,,,,,,,,
497428800,node,amenity,pub,Kam Hom,,,14.979978,102.0513894,,,,,,,,,,thai,,
1279318318,node,tourism,hotel,Dusit Princess,,,14.9925111,102.1210054,+66 4425 6601,,,,,,,,,,,
1814469027,node,tourism,hotel,Chayada Resort,Chayada Garden House & Resort Hotel,,14.9841261,102.0852669,+66 44 263474;+66 44 263036;+66 44 341849,https://www.chayadaresort.com/,,,,,,,3,,,
2128753413,node,tourism,hotel,MIX Hotel,,,14.9607889,102.1199503,,,,,,,,,,,,
2283723129,node,amenity,bar,จิ้มจุ่มชาลี,,,14.9223046,102.0996924,,,,,,,,,,,,
2283723142,node,tourism,hotel,นอนเพลิน,,,14.9219365,102.1030371,,,,,,,,,,,,
3320493460,node,tourism,hotel,Punjadara Hotel,,,14.9689852,102.1063945,,,,,,,,,,,,
3320493795,node,tourism,hotel,Chom Surang Hotel,,,14.9730067,102.1032831,,,,,,,,,,,yes,
3320494805,node,tourism,hotel,The Iyara Korat,,,14.9752714,102.10942,,,,,,,,,,,,
3320498247,node,tourism,hotel,Korat Hotel,,,14.9802061,102.103235,,,,,,,,,,,yes,
3320499334,node,tourism,hotel,Ratchasima Hotel,,,14.9744733,102.1046081,,,,,,,,,,,,
3320500181,node,tourism,hotel,Si Chomphon Hotel,,,14.9749449,102.10125,,,,,,,,,,,,
3320500814,node,tourism,hotel,Cathay Hotel,,,14.9785621,102.0974466,,,,,,,,,,,,
3320501769,node,tourism,hotel,Thai Inter Hotel,,,14.977593,102.1100316,,,,,,,,,,,,
3320507161,node,tourism,hotel,Chumphon Hotel,,,14.9751781,102.0954993,,,,,,,,,,,,
3320507189,node,tourism,hotel,Si Rat Hotel,,,14.9761491,102.0975056,,,,,,,,,,,,
3320519997,node,tourism,hotel,Sawairiang Place,,,14.9780853,102.0875225,,,,,,,,,,,,
3320525477,node,tourism,hotel,Pegasus Hotel,,,14.9790555,102.0819758,,,,,,,,,,,,
3320525601,node,tourism,hotel,K. S. Pavilion Hotel,,,14.9786139,102.0807955,,,,,,,,,,,,
3320533060,node,tourism,hotel,Baanissara,,,14.9860035,102.0811817,,,,,,,,,,,,
3320542413,node,tourism,hotel,Pegasus Hotel,,,14.9947453,102.1044365,,,,,,,,,,,,
3320544768,node,tourism,hotel,Vu Place,,,14.9953619,102.1073279,,,,,,,,,,,,
3320544888,node,tourism,hotel,Hotel Sabai,,,14.9962946,102.0996675,,,,,,,,,,,,
3320544961,node,tourism,hotel,Narai Motel,,,14.9950925,102.1016523,,,,,,,,,,,,
3320546397,node,tourism,hotel,Garden Resort,,,14.9956366,102.0840195,,,,,,,,,,,,
3320546466,node,tourism,hotel,Gold TRI Place,,,14.9956987,102.0855966,,,,,,,,,,,,
3320547963,node,tourism,hotel,Teeradol Place,,,14.9945018,102.0742348,,,,,,,,,,,,
3320548300,node,tourism,hotel,Thepmanee Resort,,,14.9939577,102.0749053,,,,,,,,,,,,
3320548556,node,tourism,hotel,Place Pattaraporn,,,14.9944499,102.0719496,,,,,,,,,,,,
3320555571,node,tourism,hotel,Korat King's Hotel,,,14.9772665,102.0650885,,,,,,,,,,,,
3326552593,node,tourism,hotel,Hop Inn Nakhon Ratchasima,,,14.9591237,102.062395,,https://hopinnhotel.com/,,,,,,,,,,
3506298510,node,amenity,bar,OH BAR International,,,14.9728692,102.0949413,"044254030, 0960908685, 0870515708",,,,,,,,,,,
4246318802,node,tourism,hotel,Banana Park Hotel,,,15.0066891,102.1169189,,,,,,,,,,,,
4256730990,node,tourism,hotel,U-Sabai Park Hotel,,,15.0033099,102.1343024,,,,,,,,,,,,
4258005690,node,tourism,attraction,Night Bazaar,,,14.9750409,102.1115967,,,,,,,,,,,,
4481615740,node,amenity,pub,Tap Korat,,,14.9779464,102.1099847,,,,,,,,,,,,
4548969516,node,amenity,pub,The Oasis,,,14.9571874,102.081326,,,,,,,,,,,,
4549070065,node,tourism,hotel,Beverly Hills Hotel,,,14.9593866,102.0853,,,,,,,,,,,,
4549194829,node,amenity,pub,Na Nang,,,14.9904885,102.1178775,,,,,,,,,,,,
4561019693,node,tourism,hotel,Chaiyaphruk Grand Hotel,,,14.9734184,102.0929066,+66 44 275 1023,,,,,,,,,,limited,
4659095490,node,tourism,attraction,แอร์เพลน พาร์ค,Airplane Park Korat,แอร์เพลน พาร์ค,14.8758746,102.0430739,,,,,,,,,,,,
4691910889,node,tourism,hotel,บ้านกอล์ฟ2001,Bangolf2001,บ้านกอล์ฟ2001,14.9732469,102.0905976,044273916,,,,,,24/7,"103/2, โพธิ์กลาง, 30000",,,,
4711443390,node,tourism,hotel,กานต์ธิดา เพลส,Kantida Place,กานต์ธิดา เพลส,14.9987316,102.0896926,+66894110652,,,,,,,"518, ต. หนองกระทุ่ม, 30000",,,,
4733956191,node,tourism,hotel,Urban-Bamboo,,,14.9733353,102.1007538,,,,,,,,,,,,
4837722122,node,tourism,attraction,,Save One Plaza,,14.9578002,102.04529,,,,,,,Mo-Su 10:00-23:00,,,,,
4837722123,node,tourism,hotel,,Resort,,14.961661,102.05184,,,,,,,,,,,,
4837759321,node,tourism,motel,ป่ญ่าเพลส,Baan Pu Ya Pet Hotel,ป่ญ่าเพลส,15.0004499,102.102555,044923189,,,,,,,,,,,
4837771221,node,tourism,motel,,,,15.021824,102.07766,,,,,,,,,,,,
4837771222,node,tourism,hotel,,Som O House Hotel,,14.988433,102.05876,,,,,,,,,,,,
4939267624,node,tourism,hotel,Baan Kuer,,,14.9906359,102.1022106,,http://www.baankuer.com,,,,,,,,,yes,
5267212521,node,tourism,museum,พิพิธภัณท์ ภาพ 3มิติ โคราช,,,14.9688299,102.0656087,,,,,,,,,,,,
5290935021,node,tourism,guest_house,บ้านพักนายอำเภอ,,,14.9637043,102.0563109,,,,,,,,,,,,
5309701122,node,tourism,hostel,บ้านนายอำเภอ,Snooze Poshtel Korat,,14.9634222,102.0561763,,,,,,,,,,,,
5349114777,node,tourism,hotel,Honey Grand Hotel,,,14.9679135,102.1337269,,https://www.renthub.in.th/en/honey-grand-hotel,,,,,,,,,,
5506858129,node,tourism,hotel,Sakolkorat,,,14.9761046,102.099578,,,,,,,,,,,,
5510898963,node,tourism,hotel,Zenith Residence,,,14.9929213,102.1015153,,,,,,,,,,,,
5512332832,node,amenity,pub,Must so kiss,,,14.99355,102.1016461,,,,,,,,,,,,
5862865185,node,tourism,hotel,,Local Hotel,,14.9764112,102.0771935,,,,,,,,,,,,
5919771785,node,tourism,attraction,โรงแรมสบายดี,,โรงแรมสบาย,14.9974024,102.0997608,,,,,,,,,,,,
6187441586,node,tourism,attraction,ตลาดไนท์บ้านเกาะ,Nightbaankoh market,,14.9932897,102.1234961,,,,,,,Mo-Su 13:00-21:00,"Nai Mueang, Mueang Nakhon Ratchasima, Nakhon Ratchasima, 30000",,,,
6364950388,node,tourism,hotel,,Srivichai,,14.9762674,102.0950184,,,,,,,,,,,,
6364950409,node,amenity,pub,Tiger Is Coming,,,14.9764397,102.0950467,,,,,,,,,,,,
6367674608,node,tourism,apartment,,V S,,14.9802147,102.087389,,,,,,,,,,,,
6422905185,node,tourism,hostel,หอมานา,,,15.0002338,102.1284751,,,,,,,,,,,,
6735637485,node,amenity,bar,Monkey Bar,,,14.9755514,102.0874325,,,,,,,,,,,,
7079813308,node,tourism,museum,พิพิธภัณฑ์เมืองนครราชสีมา,Korat Museum,พิพิธภัณฑ์เมืองนครราชสีมา,14.9831646,102.1140496,,,,,,,,,,,,
7125752707,node,tourism,hotel,B2 Premier,,,14.9784414,102.0615003,,,,,,,,,,,yes,
7142145805,node,tourism,apartment,หอพัก,,,14.9251991,102.0973495,,,,,,,,,,,,
7142145806,node,tourism,apartment,หอพัก,,,14.9249528,102.0977636,,,,,,,,,,,,
7142145812,node,tourism,apartment,เฟรนชิพ รีสอร์ท,,,14.9204434,102.0912144,,,,,,,,,,,,
7142145816,node,tourism,apartment,หอพัก,,,14.9271573,102.0983052,,,,,,,,,,,,
7157262941,node,amenity,bar,ดอกฟ้ายาดอง,,,14.9690889,102.086519,,,,,,,,,,,,
7157262942,node,amenity,bar,,,,14.9650537,102.0820755,,,,,,,,,,,,
7157262943,node,amenity,bar,,,,14.9700698,102.0851642,,,,,,,,,,,,
7965259190,node,tourism,hotel,De V Loft,,,14.9824716,102.0765611,+66 97 154 1111,http://www.devlofthotel.com,,,,devloft.hotel@gmail.com,,"75/19, ถนน สำโรงจันทร์ Nai Mueang, Nakhon Ratchasima, 30000",,,,
8008972988,node,tourism,hotel,hotel B,,,14.9954678,102.1150179,+6644230588,,,,,hotelB.korat@gmail.com,24/7,294/77,,,,
8079162437,node,amenity,bar,ROUTE99,,,14.9659465,102.0679097,,,,,,,,"สืบศิริ, เมือง, 30000",,,,
8269237237,node,amenity,bar,ร้านชนแก้ว,,,14.9440639,102.1051564,,,,,,,,,,,,
10310404709,node,tourism,hotel,ไดอารี่ สูท,Diary Suite,,14.9921758,102.1040777,0908898009,https://www.facebook.com/DiarySuitehotel,https://www.facebook.com/DiarySuitehotel,,,diarysuite_korat@hotmail.com,24/7,"690/3, ช้างเผือก, 30000",,,,
11290907769,node,tourism,hotel,,,,14.9731084,102.090953,,,,,,,,,,,,
11355638372,node,tourism,hotel,เซรีน่า รีสร์อท,,,14.9217239,102.0922403,,,,,,,,,,,,
11387494120,node,tourism,attraction,อุโมงค์ต้นตาล 500 ต้น,,,15.0258593,102.1976784,,,,,,,,,,,,
11422625244,node,amenity,pub,Some Might Say,,,14.9765229,102.0944734,,,,,,,Tue-Sun 18:00-00:00,,,,,
11821494950,node,tourism,hotel,โรงแรมฮ็อป อินน์ นครราชสีมา ซิตี้ เซ็นเตอร์,HOP INN Nakhon Ratchasima City Center,โรงแรมฮ็อป อินน์ นครราชสีมา ซิตี้ เซ็นเตอร์,14.9806947,102.0873118,+6626592899,https://www.hopinnhotel.com/th/our-hotels/hop-inn-nakhon-ratchasima-city-center,,,,,,,,,,
12404877101,node,tourism,hotel,AisanA Hotel-Korat,AisanA Hotel-Korat,โรงแรม ไอซาน่า โคราช,14.975734,102.0746547,+6644085999,https://aisanahotel.com/,,,,rsvn@aisanahotel.com,,"149, Soi King Sawai Riang, Nai Mueang, Mueang, Nakhon Ratchasima, 30000",,,,
12480534585,node,tourism,hotel,Centre Point Hotel Terminal21 Korat,,,14.9829313,102.0902779,,,,,,,,,5,,yes,
13102885147,node,tourism,hotel,P.K.K. Apartment,,,14.9780282,102.076808,,,,,,,,,,,,
13457324628,node,tourism,hotel,Louis Residence Hotel,,,14.9806414,102.0929179,,,,,,,,,,,,
13457324636,node,amenity,nightclub,,,,14.9913424,102.1176576,,,,,,,,,,,,
13457324638,node,tourism,apartment,Escent Condo,,,14.9951931,102.1179083,,,,,,,,,,,,
13457324639,node,tourism,apartment,Escent Condo,,,14.9980996,102.1164353,,,,,,,,,,,,
13457324640,node,tourism,hotel,Centara,,,14.9971854,102.1173207,,,,,,,,,,,,
13468099038,node,amenity,bar,Yes Bar,,,14.9962817,102.114586,,,,,,,,,,,,
13483592905,node,amenity,nightclub,Warp,,,14.9951358,102.1263962,,,,,,,,,,,,
13686014526,node,amenity,nightclub,,Rong Rao,โรงเหล้า,14.9577252,102.0582067,,,,,,,,,,,,
13686082469,node,amenity,bar,To The Wild Cafe & Bar,,,15.0008943,102.1220422,,,,,,,,,,,,
13734389625,node,amenity,parking_space,,,,14.9929042,102.1134203,,,,,,,,,,,,
13734389628,node,amenity,bar,Cham Cha Bar & Bistro,,,14.9958859,102.126735,,,,,,,,,,,,
13785312802,node,amenity,bar,Spacebar Korat,,,14.9767523,102.0938961,,,,,,,,,,,,
13891006459,node,amenity,bar,,,,14.9493052,102.1543428,,,,,,,,,,,,
13891042964,node,amenity,bar,Budweiser,,,14.9800535,102.0585951,,,,,,,,,,,,
13891042966,node,amenity,bar,Morning Tonight,,,14.981306,102.0568258,,,,,,,,,,,,
219694644,way,amenity,public_building,,,,,,,,,,,,,,,,,
334736737,way,tourism,hotel,Sawairiang Place,,,,,,,,,,,,,,,,
334736740,way,tourism,hotel,U Place Korat,,,,,,,,,,,,,,,yes,
336035811,way,tourism,hotel,City Park Hotel,,,,,,,,,,,,,,,yes,
366801706,way,tourism,hotel,Sima Thani,,,,,,,,,,,,,4,,yes,
460482130,way,tourism,museum,พิพิธภัณฑสถานแห่งชาติ มหาวีรวงศ์,Maha Wirawong National Museum,,,,,,,,,,Mi-So 09:00-16:00,"ตำในเมือง, อำเภอเมืองนครราชสีมา, นครราชสีมา, 30000",,,,
559079573,way,tourism,hotel,ขวัญเรือน ปาร์ค โฮเทล,,,,,,,,,,,,,,,,
559079575,way,tourism,hotel,บริษัท ขวัญเรือน รีสอร์ท จำกัด,,,,,,,,,,,,,,,,
561162765,way,tourism,hotel,โคราชโฮเต็ล / Korat Hotel,,,,,,,,,,,,,,,,
666106756,way,tourism,hotel,The Grand Residence,,,,,,,,,,,,,,,,
666107864,way,tourism,attraction,ตลาดเซฟวัน,Save One Night Market,,,,,,,,,,,"Ban Mai, Mueang Nakhon Ratchasima, Nakhon Ratchasima, 30000",,,,
669456377,way,tourism,attraction,Korat Zoo Lagoon,,,,,,,,,,,,,,,yes,
1228200287,way,tourism,apartment,ไทยศิลป์พาราไดซ์ อพาร์ทเม้นท์,,,,,,,,,,,,,,,,
1228204811,way,tourism,attraction,เรือนโคราช เฉลิมวัฒนา,,,,,,,,,,,,,,,,
1228808830,way,tourism,hotel,ศิริ​ โฮเต็ล,Siri Hotel,,,,,,,,,,,,,,,
1228808840,way,tourism,apartment,เอ็ม อิน โคราช,,,,,,,,,,,,,,,,
1228819693,way,tourism,hotel,โรงแรมโตเกียว,Tokyo Hotel,,,,,,,,,,,,,,,
1228819700,way,tourism,apartment,กลางกรุงแมนชั่น,,,,,,,,,,,,,,,,
1228819701,way,tourism,hotel,โรงแรมแสนสบาย,Sansabai Hotel,,,,,,,,,,,,,,,
1228819702,way,tourism,apartment,แสนสบายเฮาส์,Sansabai House,,,,,,,,,,,,,,,
1228819703,way,tourism,apartment,บ้าน ต.ตะวัน,,,,,,,,,,,,,,,,
1228823842,way,tourism,apartment,เอ วี คอร์ท,,,,,,,,,,,closed,,,,,
1228823846,way,tourism,museum,หอศิลป์โคราช,Korat Contemporary Art And Culture Centre,,,,,,,,,,,,,,,
1228823850,way,tourism,hotel,โรงแรมศรีวิชัย,Srivichai Hotel,,,,,,,,,,,,,,,
1228823857,way,tourism,hotel,โรงแรมเจ้าพระยา,Chao Phraya Inn,,,,,,,,,,,,,,,
1228826359,way,tourism,hotel,โรงแรมฟ้าไทย,Far Thai Hotel,,,,,,,,,,,,,,,
1229656985,way,tourism,hotel,โรงแรมศรีสุระ,Sri Sura Hotel,,,,,,,,,,,,,,,
1229858198,way,tourism,apartment,หอพักกิ่งจันทร์,,,,,,,,,,,,,,,,
1229861753,way,tourism,hotel,โรงแรมเฟิรสท์ 1,,,,,,,,,,,,,,,,
1229862008,way,tourism,guest_house,All Seasons House,,,,,,,,,,,,,,,,
1231641542,way,tourism,apartment,มูนไลท์ เฮาส์,Moonlight House,,,,,,,,,,,,,,,
1231648652,way,tourism,apartment,กรรณิการ์คอร์ท,,,,,,,,,,,,,,,,
1236658361,way,tourism,apartment,ห้องเช่า,,,,,,,,,,,,,,,,
1236859802,way,tourism,apartment,ราชสีมาอพาร์ทเม้นท์,Ratchasima Apartment,,,,,,,,,,,,,,,
418689615,node,amenity,cafe,Café Amazon,,,14.9899604,102.1171035,,,,,,,,,,,,Café Amazon
423735634,node,amenity,cafe,,,,15.0590749,102.1241306,,,,,,,,,,,,
476244300,node,amenity,restaurant,PB Restaurant,,,14.9698666,102.0592872,,,,,,,,,,barbecue;korean;thai;western,,
477072084,node,amenity,restaurant,Sarungkham Restaurant,,,14.9536668,102.0107995,,,,,,,,,,northern_thai;western,,
482837949,node,amenity,cafe,Ran Jan Yai,,,14.9606917,102.0512958,,,,,,,,,,thai,,
523574822,node,amenity,cafe,ธันวาลี,Tan Waree,ธันวาลี,14.9695509,102.0393546,,,,,,,,,,,,
529126338,node,amenity,restaurant,ส้มตำพันล้าน,Som Tam Pan Lan,ส้มตำพันล้าน,14.8520092,102.0705878,,,,,,,,,,Thai/Isaan,,
764759555,node,amenity,restaurant,Mae Jampa,,,14.9590583,102.0418417,,,,,,,,,,,,
942248423,node,amenity,fast_food,KFC,,,14.9272932,101.9637722,,,,,,,,,,chicken,,
1634117600,node,amenity,restaurant,ฟู้ด ปาร์ค,Food Park,,14.9858504,102.0513465,,,,,,,,,,,,
1634117609,node,amenity,cafe,คาเฟ่ อเมซอน,Café Amazon,คาเฟ่ อเมซอน,14.9865781,102.0517716,,,,,,,,,,coffee_shop,,
1780288381,node,amenity,restaurant,Kruea Khun Ya,,,14.968318,102.050022,,,,,,,,,,,,
1781249537,node,amenity,restaurant,Rikura,,ริคูระ,14.967835,102.053328,,,,,,,,,,japanese,yes,
1786908071,node,amenity,cafe,Café Ama,,กาแฟอาม่า,14.966756,102.064168,,,,,,,,,,,,
1788418166,node,amenity,restaurant,9 X 9 Kitchen,,"
ครัวเก้าคูณเก้า",14.9697347,102.0589613,,,,,,,,,,,,
1789611533,node,amenity,cafe,Wa Wee Coffee,,กาแฟวาวี,14.973529,102.106535,,,,,,,,,,,,
1792649809,node,amenity,cafe,Café D'Cup,,,14.968215,102.053067,,,,,,,,,,thai,no,
1797796183,node,amenity,cafe,Coffee & Steak,,,14.9679404,102.0632931,,,,,,,,,,,,
1812065103,node,amenity,cafe,The Chocolate Freaks,,,14.958284,102.062572,,,,,,,,,,,,
2086720608,node,amenity,cafe,Minnie Mint Café,,,14.9679,102.053075,,,,,,,,,,,yes,
2128753410,node,amenity,cafe,Café Amazon,Café Amazon,คาเฟ่ อเมซอน,14.9389516,102.1333652,,,,,,,,,,coffee_shop,,PTT
2128753412,node,amenity,fast_food,KFC,KFC,เค เอฟ ซี,14.9488937,102.1272473,1150,https://www.kfc.co.th/,,,,,,,,chicken,,Kentucky Fried Chicken
2130326620,node,amenity,cafe,Café Amazon,Café Amazon,คาเฟ่ อเมซอน,14.8510376,102.1903621,,,,,,,,,,coffee_shop,,PTT
2130326629,node,amenity,cafe,Café Amazon,Café Amazon,คาเฟ่ อเมซอน,15.0437281,102.14949,,,,,,,,,,coffee_shop,,PTT
2283726895,node,amenity,restaurant,ครัวชายแดน,,,14.9277218,102.0994674,,,,,,,,,,,,
2283935355,node,amenity,restaurant,เนื้อย่างเกาหลี,,,14.9280128,102.103459,,,,,,,,,,,,
2283935356,node,amenity,restaurant,นกแล เนื้อย่างเกาหลี,,,14.9260236,102.097127,,,,,,,,,,,,
2283935400,node,amenity,restaurant,ข้าวขาหมูเบญพล,,,14.9280465,102.0977352,,,,,,,,,,,,
3418083339,node,amenity,cafe,Café Amazon,Café Amazon,คาเฟ่ อเมซอน,14.9880731,102.0944215,,,,,,,,,,coffee_shop,,PTT
3418083343,node,amenity,cafe,Starbucks,Starbucks Coffee,สตาร์บัคส์,14.9800852,102.076271,,https://www.starbucks.com/,,,,,,,,coffee_shop,yes,
3751114712,node,amenity,restaurant,Chez Andy Swiss Restaurant & Steak House,,,14.972245,102.1033977,+66 44 289556,http://www.chezandykorat.com/,,,,,,,,steak_house;german;swiss;thai,no,
4356459797,node,amenity,restaurant,ร้านหมูกระทะ อาอี๋,,ร้านหมูกระทะ อาอี๋,14.9663879,102.0664643,,,,,,,,,,,,
4364546990,node,amenity,restaurant,เจ้น้อย กระโทก อาหารอีสาน,,เจ้น้อย กระโทก อาหารอีสาน,14.9604844,102.0810647,,,,,,,,,,,,
4386506704,node,amenity,cafe,Cha Payom,,,14.9859164,102.1135124,,,,,,,Mo-Su 10:00-17:00,"931, ถนนสุรนารายณ์, 30000",,,,
4423349303,node,amenity,restaurant,ระเบียงนาบาหลี,,ระเบียงนาบาหลี,14.9357583,102.1072436,,,,,,,,,,,,
4423467390,node,amenity,fast_food,The Pizza Company,The pizza company,เดอะพิซซ่าคอมพานี,14.9726164,102.0978973,1112                                      0,https://1112.com/,,,,,Mo-Su 10:00-22:00,"ราชดำเนิน, 30000",,pizza,,
4481466418,node,amenity,cafe,168 noodles bistro,,,14.9772398,102.110843,,,,,,,,,,,,
4548818694,node,amenity,restaurant,Class Scale Burger,,,14.9744875,102.1105917,,,,,,,,,,american,,
4548903050,node,amenity,biergarten,The Beer garden,,,14.9753589,102.0907544,,,,,,,,,,,,
4561050323,node,amenity,restaurant,Breakfast Romyen Garden Place,,,14.9736038,102.0934525,,,,,,,,,,,,
4561050324,node,amenity,cafe,คาเฟ่ อเมซอน,Café Amazon,คาเฟ่ อเมซอน,14.9730291,102.0930025,,,,,,,,Jomsurangyard Rd,,coffee_shop,,
4564633589,node,amenity,restaurant,พอใจ คาร์เฟ่,Porjai Cafe',,14.9322439,102.0435043,,,,,,,,,,noodles;coffee_shop;tea;fish_and_chips;pizza;steak_house;diner,,
4566464692,node,amenity,restaurant,ไก่ย่างตลาดชุมชนหนองปรือ,,ไก่ย่างตลาดชุมชนหนองปรือ,14.933171,102.1039478,,,,,,,,,,,,
4581612892,node,amenity,restaurant,9x9,,9x9,14.9878909,102.0679379,,,,,,,,30000,,thai,,
4733494336,node,amenity,cafe,Twenty Five,,,14.972911,102.0922412,0898473529,https://facebook.com/twentyfivecafe,https://facebook.com/twentyfivecafe,,,,Mo-Su 09:00-21:00,,,,,
4735410721,node,amenity,cafe,Mezzo,,Mezzo,14.9744491,102.0978394,0269077502,http://mezzo.co.th,,,,,,,,,,
4748834725,node,amenity,restaurant,NomNaan,,NomNaan,14.9749421,102.0909895,,,,,,,,,,,,
4750202123,node,amenity,cafe,All Grand Nice,,All Grand Nice,14.9758685,102.0907833,,,,,,,,,,,,
4750971421,node,amenity,restaurant,เดอะ สตอรี่,the Stories RESTAURANT & BAR,เดอะ สตอรี่,14.9710762,102.107606,,,,,,,,Rachanikun,,,,
4754289722,node,amenity,restaurant,Baanya Steak House,,Baanya Steak House,14.9765778,102.109383,,,,,,,,,,,,
4775997221,node,amenity,cafe,คาเฟ่ อเมซอน,Café Amazon,คาเฟ่ อเมซอน,14.9749871,102.0977624,,,,,,,,,,coffee_shop,,
4873907822,node,amenity,cafe,,Amazon Station,,14.9313522,102.0573553,,,,,,,,,,,yes,
4873908021,node,amenity,cafe,คาเฟ่ อเมซอน,Café Amazon,คาเฟ่ อเมซอน,15.0656685,102.1870601,,,,,,,,,,coffee_shop,,
4895392522,node,amenity,fast_food,ตลาด 100 ปี,100 Year Market,ตลาด 100 ปี,14.9726241,102.0738415,,,,,,,,,,,,
4919461617,node,amenity,food_court,Food court,,,14.9886149,102.0946017,,,,,,,,,,,,
4919461620,node,amenity,food_court,Food court section A,,,14.9880694,102.0945319,,,,,,,,,,,,
5151935624,node,amenity,restaurant,rabieng Kaew,,rabieng Kaew,14.9777293,102.1090071,,,,,,,,,,,,
5315737321,node,amenity,cafe,,CLASS Café,,14.9728546,102.0931116,,,,,,,,,,,,
5318312321,node,amenity,restaurant,บ้าน พลอย อาหารเช้า,,,14.9624399,102.0665871,,,,,,,,,,,,
5319397921,node,amenity,restaurant,,Yen-Hey!,,14.9728017,102.0928897,,,,,,,,,,,,
5379899823,node,amenity,cafe,Sweet Café,,,14.9773811,102.1109764,0973351189,,,,,,Mo-Su 08:00-21:00,"12, Kudaen",,,,
5379899824,node,amenity,cafe,Hooya Café,,,14.9720762,102.1080852,,,,,,,,"92, ถนนสรรพสิทธิ์",,,,
5460684921,node,amenity,restaurant,ป้าเหลียว,,,15.0046642,102.0797157,,,,,,,,,,,,
5677502163,node,amenity,cafe,ลักติซอง สตูดิโอ,L'artisan Studio,,14.9591778,102.0650115,,,,,,,Mo-Su 10:00-19:00,"522/42, ถนนสืบศิริ, เมือง, 30000",,coffee_shop;bakery,,
5860755818,node,amenity,cafe,3rd World Cafe,,,14.9763389,102.1059671,,,,,,,Mo-Sa 11:00-22:00,"54, ถนนประจักษ์, Nakhon Ratchasim, 30000",,burger,,
5863346886,node,amenity,cafe,,Cyber Cafe,,14.9767839,102.1007354,,,,,,,,,,,,
5865005185,node,amenity,cafe,,Awesome Cafe,,14.9750803,102.1000192,,,,,,,,,,,,
5868220385,node,amenity,cafe,,Internet and Game,,14.9941808,102.1146549,,,,,,,,,,,,
5974052397,node,amenity,restaurant,Cafe' Capu,,,14.9848327,102.0571469,+6644918901,,,,,,Mo-Su 10:00-24:00,"179/46, Venice Park, Nakhon Ratchasima",,german;regional,,
6035811696,node,amenity,cafe,25,,,15.0960849,102.0444397,,,,,,,,,,,,
6054062349,node,amenity,restaurant,ซ้อเรือง อาหารตามสั่ง,,,14.9768758,102.0913421,,,,,,,,,,,,
6054075914,node,amenity,restaurant,,,,14.9739093,102.0907312,,,,,,,,,,,,
6236270747,node,amenity,restaurant,,,,14.9564703,102.0454597,,,,,,,,,,,,
6236270758,node,amenity,restaurant,,,,14.9560375,102.0457063,,,,,,,,,,,,
6237672535,node,amenity,restaurant,Food Court,,,14.8511615,102.0859729,,,,,,,,,,,,
6248471412,node,amenity,fast_food,KFC,KFC,,14.9578684,102.04581,,,,,,,,,,chicken,,
6364920210,node,amenity,restaurant,ก๋วยเตี๋ยวหมูจอมพล,,,14.9731924,102.0978479,,,,,,,,,,noodle,,
6364920241,node,amenity,restaurant,,,,14.9770688,102.0984055,,,,,,,,,,,,
6364950391,node,amenity,restaurant,,,,14.9728842,102.0951855,,,,,,,,,,,,
6364950397,node,amenity,restaurant,,,,14.9769314,102.0904267,,,,,,,,,,,,
6364950405,node,amenity,cafe,,,,14.9750439,102.0926563,,,,,,,,,,,,
6364960797,node,amenity,restaurant,,,,14.9731523,102.0998964,,,,,,,,,,,,
6364960810,node,amenity,restaurant,,,,14.9748315,102.0987254,,,,,,,,,,,,
6364960836,node,amenity,cafe,,,,14.9751023,102.0929298,,,,,,,,,,,,
6364962785,node,amenity,cafe,,Siak,,14.976181,102.0948636,,,,,,,,,,,,
6364962787,node,amenity,restaurant,,,,14.9746985,102.0914421,,,,,,,,,,,,
6367674489,node,amenity,restaurant,,,,14.9764538,102.080164,,,,,,,,,,,,
6367674594,node,amenity,restaurant,,,,14.9762981,102.0851959,,,,,,,,,,,,
6367674598,node,amenity,restaurant,,Miseesj,,14.9783615,102.0757779,,,,,,,,,,,,
6367674600,node,amenity,restaurant,Sizzler,Sizzler,,14.9799248,102.0755213,,,,,,,,,,steak_house,,
6367674888,node,amenity,cafe,,True,,14.9748354,102.0974106,,,,,,,,,,,,
6367674889,node,amenity,restaurant,,,,14.9777362,102.094187,,,,,,,,,,,,
6367674893,node,amenity,restaurant,,,,14.9763232,102.0834527,,,,,,,,,,,,
6367674895,node,amenity,restaurant,,,,14.9766106,102.0777579,,,,,,,,,,,,
6367674897,node,amenity,restaurant,,Oshinei,,14.9776929,102.0756689,,,,,,,,,,,,
6565967885,node,amenity,cafe,,Coffee,,14.9756315,102.0869543,,,,,,,,,,,,
6782184892,node,amenity,restaurant,ก๋วยเตี๋ยวไก่ตุ๋น หมูตุ๋น เจ้ภาอ่างห้วยยาง,,,14.9255916,101.9936444,044465842,,,,,,เปิดทุกวัน,"391, ถนนมิตรภาพ, โคกกรวด, 30280",,asian;noodles,,
6805605686,node,amenity,restaurant,หมิงเต๋อ อาหารเจ,Ming Ter Vegetarian Restaurant,,14.9740908,102.09782,,,,,,,,,,asian;thai,,
7045496485,node,amenity,restaurant,ลานพักดี,,,15.0547138,102.1415545,,,,,,,,,,,,
7142145795,node,amenity,cafe,ร้าน ชา.กา.ปัง,,,14.9246458,102.0973915,,,,,,,,,,,,
7142145804,node,amenity,food_court,ร้านก๋วยเตี๋ยว,,,14.9219686,102.0944551,,,,,,,,,,,,
7162131283,node,amenity,restaurant,Furusato,,,14.9798441,102.0618162,+66638954632,https://www.facebook.com/FurusatoTheLink/about/,https://www.facebook.com/FurusatoTheLink/about/,,,,"Fr-We, PH 17:00-23:00",,,japanese,,
7238344985,node,amenity,cafe,Café Amazon,,,14.9718545,102.1008722,,,,,,,,,,,,
7238382902,node,amenity,cafe,,La mul de Café,,14.9764407,102.1099703,,,,,,,,,,,,
7238382903,node,amenity,cafe,,382 Space Café,,14.9788145,102.1168087,,,,,,,,,,,,
7238404792,node,amenity,cafe,,Moat café,,14.9792114,102.1099412,,,,,,,,,,,,
7266017587,node,amenity,cafe,โพงพาง อาร์ต แอนด์ คาเฟ่,Phong Phang Art & Cafe',,14.9774913,102.1001565,0617879962,http://www.facebook.com/PhongPhangArtandCafe,http://www.facebook.com/PhongPhangArtandCafe,,,phongphangartandcafe@gmail.com,Mo-Fr 09:00-18:00; Sa-Su 10:00-18:00,"255/5, ถนนยมราช, 30000",,tea;donut;thai;coffee_shop,,
7510496266,node,amenity,restaurant,Shabu Monster,,,14.9800506,102.0612863,096-707-0130,https://shabu-monster.business.site/,,,,,Mo-Su 12:00-22:00,"ถ.มานะศิลป์ ต.ในเมือง อ.เมือง, นครราชสีมา, 30000",,shabu_shabu;japanese_sukiyaki,,
7608252085,node,amenity,restaurant,"สเต็กโคราช ""ด๊ะดาด สเต็กจิ้มก๊ะแจ่ว""",Dadad Steakjimkajaew,,14.9495097,102.0645937,0818773363,,,,,jeerasakca@hotmail.com,Mo-Su 10:00-22:00,"1119 ต.หนองจะบก, ซอยสืบศิริ36, 30000",,,,
7608314585,node,amenity,restaurant,"สเต็กโคราช""ด๊ะดาดสเต็กจิ้มก๊ะแจ่ว",Dadad Steakjimkajaew,,14.9501965,102.0647638,0818773363,,,,,jeersdakca@hotmail.com,Mo-Su 10:00-22:00,"1119 ม5หนองจะบก, ซอยสืบศิริ36 ถนนสืบศิริ, 30000",,barbecue;diner;steak_house;asian;thai;coffee_shop;local,,ขาว
7608413885,node,amenity,restaurant,"สเต็กโคราช""ด๊ะดาดสเต็กจิ้มก๊ะแจ่ว""",Dadad steakjimkajaew,,14.9483623,102.0646071,,,,,,,Mo-Su 10:00-22:00,"1119ม5หนองจะบก, ซอยสืบศิริ36 ถนนสืบศิริ, 30000",,barbecue;diner;steak_house;regional;thai;coffee_shop;local,,
7848679213,node,amenity,restaurant,Waterside Seafood,,,14.9532587,102.009626,0822468948,,,,,,,"410, Mookamontri-KokKroad, Muang, 30000",,seafood,,
7927532285,node,amenity,cafe,,Takeoff Cafe,,14.875684,102.0432803,+66885906400,,,,,,Mo-Su 09:00-20:30,,,coffee_shop;tea,,
7930192385,node,amenity,cafe,Starbucks,,,14.9820927,102.0899886,+660614201391,,,,,,Mo-Su 10:00-22:00,,,cake;coffee_shop;tea,,
7953391785,node,amenity,cafe,Starbucks,,,14.9971613,102.1161282,+66632261271,,,,,,Mo-Su 07:00-20:00,,,cake;coffee_shop;tea,,
7954522185,node,amenity,fast_food,McDonald's,Mcdonald's,,14.9810655,102.0771884,,,,,,,,,,burger,,
7981133949,node,amenity,cafe,@โคราช,,,14.9986935,102.097457,,,,,,,,,,,,
8017917477,node,amenity,restaurant,ร้านก๋วยเตี๋ยว,,,14.8867721,102.1310065,,,,,,,,,,thai,,
8263412683,node,amenity,fast_food,KFC,,,14.9913275,102.1196826,,,,,,,,,,chicken,,
8346023465,node,amenity,restaurant,SteakXLKorat,,สเต็กXL,14.9252348,101.9614928,,,,,,,,,,steak_house,,
9167263324,node,amenity,fast_food,ก๋วยเตี๋ยวยายตั้น,,,14.9197529,102.1029801,,,,,,,,,,,,
9521561409,node,amenity,restaurant,,Shabu Indy,,14.9759478,102.097684,+66-959599645,https://www.facebook.com/Indyminimalkr,https://www.facebook.com/Indyminimalkr,,,,12:00-22:00,,,japanese;korean,,
9720094898,node,amenity,cafe,Melodycoffee drip&slowbar,,,14.9259904,102.0969162,0653907853,https://www.facebook.com/melodycoffeeslowbar,https://www.facebook.com/melodycoffeeslowbar,,,,Fr-Su 07:00-18:00,"967, พิชัยสงคราม, โพธิ์กลาง, 30000",,coffee;tea,,
10115704217,node,amenity,cafe,,Degree Celsius,,14.9613567,102.0860953,,,,,,,,,,,,
10727799187,node,amenity,restaurant,สมสมัย Shabuuu,,,14.9726704,102.0738082,,,,,,,,,,,,
10965864273,node,amenity,restaurant,WaanD Korat - หวานยกกำลังดี โคราช,,,14.9750436,102.090649,,https://www.facebook.com/waandkorat,https://www.facebook.com/waandkorat,,,waandkorat@gmail.com,Mo-Su 10:00-20:00,"38/3, Yotha, Nai Muang, Muang Nakhon Ratchasima, Nakhon Ratchasima, 30000",,,limited,
11402993576,node,amenity,fast_food,KFC,,,14.9735893,102.097829,,,,,,,,,,chicken,,
11403027468,node,amenity,restaurant,ร้านข้าวมันไก่ไทยศิลป์,,,14.9770394,102.0920736,,,,,,,,,,,,
11403028666,node,amenity,cafe,วัวล้วนล้วน,,,14.9737503,102.097838,,,,,,,,,,bubble_tea,,
11403076669,node,amenity,restaurant,ราชาบะหมี่เกี๊ยว,,,14.977053,102.0913762,,,,,,,,,,noodle,,
11404958650,node,amenity,cafe,ปรินดานมสด,,,14.9768883,102.0912321,,,,,,,,,,,,
11405073283,node,amenity,restaurant,แด จัง กึม,,,14.9755187,102.0906635,+66843360853,https://www.facebook.com/profile.php?id=100090229795150,https://www.facebook.com/profile.php?id=100090229795150,,,,,"38/3, ถนนโยธา ตำบลในเมือง อำเภอเมืองนครราชสีมา, จังหวัดนครราชสีมา, 30000",,korean,,
11422559409,node,amenity,restaurant,ลูกชิ้นเศรษฐี,,,14.9727956,102.0922951,,,,,,,,,,noodle,,
11422559417,node,amenity,restaurant,กะเพราคุณฉุย,,,14.9728002,102.092444,,,,,,,,,,thai,,
11422625243,node,amenity,restaurant,หม้อไฟประธานเหมา,,,14.9764154,102.0948047,,,,,,,Mo-Su 16:00-23:00,,,chinese,,
11483284398,node,amenity,fast_food,ร้านขายลูกชิ้น,,,14.9214599,102.1027078,,,,,,,,,,,,
11483317782,node,amenity,fast_food,ร้านก๋วยจั๊บ,,,14.9224241,102.1004977,,,,,,,,,,,,
11483364600,node,amenity,restaurant,ร้านขายข้าว,,,14.9274581,102.0976159,,,,,,,,,,,,
11486250986,node,amenity,restaurant,เตาถ่าน อาหารตามสั่ง,,,14.977494,102.1030076,,,,,,,,,,thai,,
11505552638,node,amenity,cafe,จอยคอฟฟี่ Joy Coffee,,,15.0214037,102.1402576,0800738508,https://www.facebook.com/JoyCoffeeTH,https://www.facebook.com/JoyCoffeeTH,,,,Mo-Su 09:00-17:00,"839/34, ถนนสุรนารายณ์, บ้านเกาะ, 30000",,coffee_shop,,
11563296423,node,amenity,food_court,ร้านก๋วยเตี๋ยว,,,14.9214025,102.1025402,,,,,,,,,,,,
11563329385,node,amenity,restaurant,ร้านก๋วยเตี๋ยว,,,14.8852976,102.1369326,,,,,,,,,,thai,,
11821485907,node,amenity,restaurant,ขนมจีนประโดก บ้านครูยอด,Kranom Jean Pradok Bann Kru Yord,,14.9601843,102.06132,,,,,,,,,,,,
11867945969,node,amenity,fast_food,,KFC,,14.98717,102.0945768,,,,,,,,,,,,
12240171939,node,amenity,restaurant,AMA RAMEN • 祖母ラーメン • KORAT,,,14.9751775,102.0923295,,https://ama-ramen.fly.dev,,,,,"Mo,We-Su 11:00-21:00",,,ramen,,
12477669173,node,amenity,restaurant,บางเวลา Bar&Bistro,,,14.9910116,102.1117077,0937428882,,,,,,,"342 หมู่ 6, ถนน 30 กันยา, ในเมือง, เมืองนครราชสีมา, นครราชสีมา, 30000",,regional;เครื่องดื่ม;อาหารและเครื่องดื่ม;ร้านนั่งชิวโคราช,,
13017908680,node,amenity,cafe,คาเฟ่ อเมซอน,Café Amazon,คาเฟ่ อเมซอน,14.9444073,102.0097944,,,,,,,,,,coffee_shop,,
13017938517,node,amenity,cafe,คาเฟ่ อเมซอน,Café Amazon,คาเฟ่ อเมซอน,14.9273667,101.963929,,,,,,,,,,coffee_shop,,
13017938522,node,amenity,fast_food,The Pizza Company,,,14.9268005,101.9631837,,,,,,,,,,pizza,,
13036697702,node,amenity,restaurant,,,,15.0650483,102.1223146,,,,,,,,,,,,
13037403331,node,amenity,restaurant,ซุนฮัว บะหมี่เกี๊ยวหมูแดง,,,14.9800307,102.0937679,,,,,,,,,,noodle,,
13037403619,node,amenity,restaurant,,,,14.980058,102.0939984,,,,,,,,,,,,
13041063074,node,amenity,restaurant,Suki Teenoi,,,15.0289683,102.1376888,,,,,,,,,,,,
13042458211,node,amenity,ice_cream,Mixue,,,14.9732263,102.0978814,,,,,,,,,,,,
13042463898,node,amenity,restaurant,ร้านอาหารเจกวนอิม สาขา1 โคราช,Guanyin Vegetarian Restaurant,,14.9754998,102.0949666,,,,,,,,,,,,
13042744690,node,amenity,cafe,Cafe Amazon,,,14.9752754,102.0864454,,,,,,,,,,,,
13046915698,node,amenity,restaurant,A curry pot,,,14.9925781,102.1039038,,,,,,,,,,indian,,
13056093385,node,amenity,cafe,Cafe Amazon,,,14.9405566,101.950003,,,,,,,,,,,,
13056455277,node,amenity,fast_food,KFC,,,14.9857621,102.0513464,,,,,,,Mo-Su 09:00-20:00,,,chicken,,
13056455636,node,amenity,cafe,คาเฟ่ อเมซอน,Café Amazon,คาเฟ่ อเมซอน,14.9898763,102.0541598,,,,,,,,,,coffee_shop,,
13056455637,node,amenity,restaurant,ฟู้ด ปาร์ค,Food Park,,14.9901046,102.0542275,,,,,,,,,,,,
13061349632,node,amenity,cafe,The Libreria Cafe,,,14.9083453,102.0123862,+66 97 162 5109,,https://www.facebook.com/TheLibreria,https://www.instagram.com/thelibreriacafe/,,,Mo-Su 10:00-20:00,"799, Unipark, ตำบล สุรนารี, อำเภอเมืองนครราชสีมา, นครราชสีมา, 30000",,coffee_shop,,
13064778583,node,amenity,restaurant,,,,15.0403173,102.1358612,,,,,,,08:00-17:00,,,,,
13070137081,node,amenity,cafe,Malong,,,14.9921993,102.1225845,,,,,,,,,,,,
13076934043,node,amenity,restaurant,,,,14.97252,102.108459,,,,,,,06:30-14:00,,,breakfast,,
13088664962,node,amenity,cafe,Punthai,,พันธุ์ไทย,14.9965473,102.1055056,,,,,,,,,,coffee_shop,,
13091939501,node,amenity,restaurant,ก๋วยเตี๋ยวไก่บุฟเฟต์นายแมน,,,14.9944725,102.1202437,0652493656,,,,,,Mo-Su 09:30-19.30,"186, 30กันยา, ในเมือง, เมืองนครราชสีมา, นครราชสีมา, 30000",,thai,,
13097681173,node,amenity,cafe,Gay Ray,,,14.9931027,102.1235313,+66 61 351 9194,,,,,,Mo-Fr 07:00-17:00; Sa-Su 08:00-17:00,,,,,
13097681174,node,amenity,cafe,,X Little Ray's Café,,14.9931214,102.1235756,,,,,,,,,,,,
13102885143,node,amenity,restaurant,,,,14.9890137,102.1076626,,,,,,,,,,,,
13102885144,node,amenity,restaurant,,,,14.9942972,102.1257784,,,,,,,,,,,,
13102885146,node,amenity,cafe,Niyom Chomchob,,,14.9760858,102.0891799,,,,,,,09:00-17:30,,,,,
13105611468,node,amenity,restaurant,สุกี้ลิ้ม,Sukilim,สุกี้ลิ้ม,14.9762872,102.0881975,+66 98 186 1423,,,,,,10:00-21:00,,,chinese;japanese,,
13105615734,node,amenity,restaurant,88 Cafe,,,14.9067622,102.1501025,+66 88 356 8588,,,,,,Mo-Fr 08:00-17:00,,,,limited,
13119021597,node,amenity,cafe,KOHi Coffee Bar,,โคฮิ คอฟฟี่ บาร์,14.9696276,102.1143583,,,,,,,,,,coffee_shop,,
13120699614,node,amenity,food_court,,,,14.9485189,102.0235031,,,,,,,,,,,,
13120699616,node,amenity,ice_cream,Korato,,,14.9711311,102.0668949,,,,,,,Mo-Fr 11:30-20:00; Sa-Su 11:00-20:00,,,,,
13120699622,node,amenity,restaurant,Bombay Indian Cuisine,,,14.9557093,102.0675356,,,,,,,10:30-21:00,,,indian,,
13120699623,node,amenity,cafe,Café Amazon,,,14.9589794,102.0659679,,,,,,,,,,,,
13120699640,node,amenity,restaurant,,,,14.9733281,102.0802614,,,,,,,,,,,,
13120701227,node,amenity,cafe,Café Amazon,,,15.0352387,102.1313533,,,,,,,,,,,,
13120701228,node,amenity,cafe,,Punthai Coffee,,15.0352357,102.1314433,,,,,,,,,,coffee_shop,,
13120701229,node,amenity,fast_food,Five Star,,,15.0352673,102.1311835,,,,,,,,,,chicken,,
13120701231,node,amenity,restaurant,,,,15.035054,102.1313235,,,,,,,,,,,,
13120704477,node,amenity,restaurant,,,,14.9511447,102.1399722,,,,,,,,,,barbecue,,
13122836303,node,amenity,restaurant,,,,14.9765647,102.0941473,,,,,,,,,,roti,,
13135519932,node,amenity,cafe,,,,14.9733146,102.102488,,,,,,,10:30-02:00,,,milk,,
13135543325,node,amenity,cafe,,Punthai Coffee,,14.9516213,102.122727,,,,,,,,,,coffee_shop,,
13135543326,node,amenity,restaurant,,,,14.9516912,102.1228294,,,,,,,,,,noodle,,
13176776601,node,amenity,restaurant,,,,14.9728658,102.096738,,,,,,,,,,chinese,,
13179890701,node,amenity,restaurant,,,,15.0263842,102.1933556,,,,,,,,,,thai,,
13180341702,node,amenity,restaurant,,,,14.9759539,102.081028,,,,,,,,,,international;thai,,
13183948192,node,amenity,restaurant,,Moo Krob,,14.9880006,102.106447,+66 81 991 1164,,,,@MOO.KROB,,Mo-Sa 09:00-20:00,,,,,
13285102948,node,amenity,restaurant,ลาบโต๊ะแดง โคราช,,,14.9738655,102.094609,,,,,,,,,,regional;thai,,
13318875061,node,amenity,cafe,Muan Café by Aisana hotel korat,,ม่วน คาเฟ่ by AisanA Hotel-Korat,14.9765261,102.0748913,,,,,,,Mo-Su 08:00-17:00,,,tea;coffee_shop;salad,,
13403989430,node,amenity,fast_food,Five Star,,,15.0309751,102.1372765,,,,,,,,,,chicken,,
13433937176,node,amenity,cafe,Vafé d'Amazon Soi Thoet Thoeng,,,14.9598213,102.0212519,,,,,,,,,,,,
13440936956,node,amenity,cafe,ํYotha Crepe,,,14.9361821,102.1838574,0826714700,https://www.facebook.com/Yothacrepe,https://www.facebook.com/Yothacrepe,,,,,"417, หนองระเวียง, เมือง, นครราชสีมา, 30000",,coffee_shop;crepe;bakery,,
13457324626,node,amenity,restaurant,,Ohkajhu,,14.9808086,102.0576962,,,,,,,10:00-22:00,,,,,
13457324630,node,amenity,cafe,On The Dot,,,14.972744,102.0749869,,,,,,,"Mo-We,Fr-Su 09:00-17:00",,,,,
13457324631,node,amenity,restaurant,,,,14.9931872,102.1149897,,,,,,,,,,,,
13457324643,node,amenity,restaurant,,,,15.0466291,102.1320918,,,,,,,09:30-20:00,,,,,
13461849749,node,amenity,fast_food,,,,14.9408339,101.9504837,,,,,,,,,,chicken,,Five Star
13461849750,node,amenity,restaurant,,,,14.936508,101.951727,,,,,,,,,,barbecue,,
13461876106,node,amenity,cafe,Cafe Amazon,,,15.0467143,102.1328953,,,,,,,,,,,,
13461878791,node,amenity,cafe,,Punthai Coffee,,15.0111312,102.0609522,,,,,,,,,,,,
13461878794,node,amenity,restaurant,,,,15.0109354,102.0610972,,,,,,,,,,,,
13463900666,node,amenity,restaurant,,,,14.9761795,102.0893693,,,,,,,,,,,,
13463900667,node,amenity,restaurant,Holy Moly,,,14.9761662,102.0893251,,,,,,,"Mo-Tu,Th-Su 10:00-19:00",,,crepe,,
13463900673,node,amenity,ice_cream,Dairy Queen,,,14.9778564,102.0704516,,,,,,,,,,,,Dairy Queen
13463900675,node,amenity,food_court,,,,14.9774718,102.0704599,,,,,,,,,,,,
13463900677,node,amenity,cafe,Inthanin,,,14.96708,102.0665001,,,,,,,,,,,,
13463900683,node,amenity,cafe,,,,14.9736019,102.0818747,,,,,,,,,,,,
13468099035,node,amenity,fast_food,,,,14.9963491,102.1143528,,,,,,,,,,juice,,
13468099036,node,amenity,cafe,,,,14.9962653,102.1143142,,,,,,,,,,,,
13468099037,node,amenity,restaurant,,,,14.9962799,102.1142145,,,,,,,,,,barbecue,,
13468099040,node,amenity,restaurant,,,,14.996348,102.1143006,,,,,,,,,,,,
13468099041,node,amenity,restaurant,,,,14.9963484,102.11426,,,,,,,,,,,,
13472541958,node,amenity,cafe,Tderm Camp,,,14.996901,102.1132293,,,,,,,,,,,,
13472541962,node,amenity,cafe,คาเฟ่ อเมซอน,Café Amazon,คาเฟ่ อเมซอน,15.0285971,102.1378345,,,,,,,,,,coffee_shop,,
13472541964,node,amenity,restaurant,,,,15.0460788,102.1328185,,,,,,,,,,,,
13476755621,node,amenity,cafe,คาเฟ่ อเมซอน,Café Amazon,คาเฟ่ อเมซอน,14.9882448,102.059858,,,,,,,,,,coffee_shop,,
13476761738,node,amenity,restaurant,,,,15.047207,102.1308428,,,,,,,,,,,,
13476761739,node,amenity,restaurant,,,,15.0472427,102.1310378,,,,,,,,,,,,
13476763055,node,amenity,ice_cream,Swensen's,,,14.9566797,102.0457606,,,,,,,,,,,,
13476763061,node,amenity,restaurant,Pizza Hut,,,14.9578094,102.0456439,,,,,,,,,,pizza,,
13476763062,node,amenity,cafe,Starbucks,,,14.9577561,102.044913,,,,,,,,,,coffee_shop,,
13483585129,node,amenity,restaurant,,,,14.9763034,102.0895117,,,,,,,,,,noodle,,
13664352770,node,amenity,restaurant,เตี๋ยวณิยม,,,15.0576772,102.1832325,0910209927,,,,,,08:00-17:00,"333/117, มิตรภาพ-หนองคาย, จอหอ, เมือง, นครราชสีมา, 30310",,noodle;ข้าวกระเพรา,,
13666726667,node,amenity,cafe,OwnerPlayHouse,,,14.9748123,102.0969691,,,,,,,,,,,,
13686014525,node,amenity,restaurant,,,,14.9583871,102.0579898,,,,,,,,,,,,
13686014528,node,amenity,cafe,Owl,,,14.9799551,102.0816688,,,,,,,,,,bubble_tea,,
13686014530,node,amenity,ice_cream,Patra Sweet Home,,,14.9799703,102.0817166,,,,,,,,,,,,
13686014534,node,amenity,biergarten,Hop Beer House,,,14.9588947,102.0618516,,,,,,,,,,,,
13686014535,node,amenity,restaurant,,Ur-Ramen,ยูอาราเมน,14.9698176,102.0855001,,,,,,,,,,ramen,,
13686071212,node,amenity,restaurant,,Putkanya,,15.0467796,102.1318479,+66 62 929 5944,,,,,,07:00-17:00,,,,,
13686071214,node,amenity,restaurant,,,,15.0466756,102.1316797,,,,,,,,,,,,
13686077936,node,amenity,cafe,,,,14.935227,101.9532996,,,,,,,,,,,no,
13686077937,node,amenity,restaurant,,,,14.935282,101.9533321,,,,,,,,,,,no,
13686082470,node,amenity,cafe,คาเฟ่ อเมซอน,Café Amazon,คาเฟ่ อเมซอน,14.9969213,102.1154481,,,,,,,09:00-21:00,,,coffee_shop,,
13734359098,node,amenity,fast_food,,Five Star,ไก่ย่าง 5 ดาว,14.9265045,101.9642008,,,,,,,,,,chicken,,
13734381153,node,amenity,restaurant,พญาแจ่วฮ้อน,,,14.9467871,102.1514927,,,,,,,,,,thai;hot_pot,,
13734389618,node,amenity,restaurant,Bonus Suki,,,14.9796719,102.0787333,,,,,,,,,,,,
13734389622,node,amenity,restaurant,,,,14.9871336,102.1061459,,,,,,,15:00-22:30,,,barbecue,,
13734389623,node,amenity,restaurant,,Lucky Suki,ลุคกี้สุกี้,14.9485321,102.1272228,,,,,,,,,,hot_pot;thai,,
13734389624,node,amenity,cafe,,Tuamam,ตัวมัม,14.9927741,102.1134266,,,,,,,,,,bubble_tea,,
13734389627,node,amenity,cafe,,Dood Nom,ดูดนมสด,14.9919217,102.104286,,,,,,,06:00-01:00,,,milk,,
13785309795,node,amenity,restaurant,Baan Kuer,,,14.9915029,102.1018318,,,,,,,,,,,,
13785309796,node,amenity,fast_food,ฮักปั่น,,,14.9917201,102.1128441,,,,,,,,,,juice,,
13785309797,node,amenity,restaurant,เทียนหยาง,,,14.9919939,102.116457,,,,,,,11:00-02:00,,,mala,,
13785309798,node,amenity,fast_food,เครปญี่ปุ่น 2 พี่น้องไส้แตก,,,14.9916892,102.116477,,,,,,,20:00-03:00,,,crepe,,
13785309799,node,amenity,restaurant,Suki Teenoi,,,14.9814131,102.0903559,,,,,,,,,,hot_pot,,
13785309800,node,amenity,ice_cream,Cold Stone Creamery,,,14.9813806,102.0902662,,,,,,,,,,,,
13793260301,node,amenity,cafe,,,,14.973264,102.0780635,,,,,,,,,,,,
13890984555,node,amenity,restaurant,ตำยำ 30 กันยา,,,14.9928066,102.1148146,,,,,,,,,,,,
13890984556,node,amenity,cafe,French Kitsch,,,14.9970328,102.1157828,,,,,,,07:00-21:00,,,,,
13890984557,node,amenity,cafe,คาเฟ่ อเมซอน,Café Amazon,คาเฟ่ อเมซอน,14.9917034,102.1045069,,,,,,,,,,coffee_shop,,
13890984559,node,amenity,cafe,Art & Soul,,,14.9761774,102.1005086,,,,,,,,,,,,
13890984560,node,amenity,restaurant,นำพลเนื้อย่าง,,,14.9908153,102.1043588,,,,,,,11:00-04:00,,,barbecue,,
13890984561,node,amenity,restaurant,กะเพราป่า,,,14.9760673,102.0890382,,,,,,,,,,,,
13891042965,node,amenity,restaurant,,,,14.9799342,102.0589476,,,,,,,,,,,,
294532797,way,amenity,restaurant,"Restaurant, Kiosk, WC for buses to Isaan",,,,,,,,,,,,,,regional,,
378330333,way,amenity,restaurant,30,,,,,,,,,,,,,,,,
467909055,way,amenity,cafe,คาเฟ่ อเมซอน,Café Amazon,คาเฟ่ อเมซอน,,,,,,,,,,,,coffee_shop,,
553894888,way,amenity,restaurant,โรงอาหารกาสะลองคำ,,,,,,,,,,,,,,,,
554292290,way,amenity,restaurant,โรงอาหารดอนตะวัน,,,,,,,,,,,,,,,,
554292297,way,amenity,restaurant,โรงอาหารพราวแสดทอง,,,,,,,,,,,,,,,,
554292298,way,amenity,restaurant,โรงอาหารกลาง,,,,,,,,,,,,,,,,
1228401563,way,amenity,restaurant,กะลาก้นครัว,,,,,,,,,,,,,,,,
1228823841,way,amenity,restaurant,ซุปเปอร์เล้ง หม้อไฟ ใบตาล,,,,,,,,,,,,,,,,
1229217211,way,amenity,restaurant,ฉิง เต่า หม่า ล่า,,,,,,,,,,,,,,,,
1229261485,way,amenity,cafe,Miza Café,,,,,,,,,,,,,,,,
1229855219,way,amenity,restaurant,ภัตตาคารเสียวเสี้ยว,,,,,,,,,,,,,,,,
1229858196,way,amenity,restaurant,ครัวละมุน,,,,,,,,,,,,,,,,
1229858197,way,amenity,cafe,ละมุนคาเฟ่,,,,,,,,,,,,,,,,
1229858895,way,amenity,cafe,นมเต่า,,,,,,,,,,,,,,,,
1229861763,way,amenity,restaurant,ไก่ย่างนายเมือง,,,,,,,,,,,,,,,,
1230041150,way,amenity,restaurant,ชุมพลข้าวมันไก่,,,,,,,,,,,,,,,,
1230041577,way,amenity,restaurant,ต.ตระกูล ลูกชิ้นปลา สาขา 2,,,,,,,,,,,,,,noodle,,
1230044365,way,amenity,food_court,เต็กฮะ,,,,,,,,,,,,,,,,
1230044367,way,amenity,food_court,,,,,,,,,,,,,,,,,
1231641816,way,amenity,cafe,กาแฟอินทนิล,Inthanin Coffee,,,,,,,,,,,,,,,
1231642027,way,amenity,restaurant,ร้านอาหารญี่ปุ่น โทโมดาชิ,,,,,,,,,,,,,,japanese,,
1231643679,way,amenity,cafe,คาเฟ่ อเมซอน,Café Amazon,คาเฟ่ อเมซอน,,,,,,,,,,,,coffee_shop,,
1271826748,way,amenity,cafe,MD coffee house,,,,,,,,,,,Mo-Fr 07:30-16:30; Sa-Su 09:00-17:00,,,coffee_shop;dessert,,
1327925487,way,amenity,restaurant,"Restaurant, Kiosk, WC for buses to Isaan",,,,,,,,,,,,,,regional,,
1348904069,way,amenity,restaurant,บางเวลา Bar&Bistro,,,,,0937428882,,https://www.facebook.com/profile.php?id=61567789262808,,,,,"342 หมู่ 6, ถนน 30 กันยา, ในเมือง, เมือง, นครราชสีมา, 30000",,regional;เครื่องดื่ม,,
1352044085,way,amenity,restaurant,,,,,,,,,,,,,,,,,
1392274650,way,amenity,restaurant,THE DISH By Mom,,,,,,,https://bymomgroup.wixsite.com/by-mom-2,,,,,"Manasilp Road, Tambon Nai Mueang, Mueang Nakhon Ratchasima District, Nakhon Ratchasima, 30000",,thai,,
1396136850,way,amenity,restaurant,ตำโคราช,Tumkorat,,,,,,,,,,,,,thai,,
356283919,node,leisure,sports_centre,,,,14.9800113,102.0756667,,,,,,,,,,,,
2283723118,node,amenity,marketplace,ร้านขายของ,,,14.925482,102.0965327,,,,,,,,,,,,
2283723124,node,amenity,marketplace,ร้านขายของ ป้าจวน,,,14.9223797,102.1002556,,,,,,,,,,,,
2283723126,node,amenity,marketplace,Siri,,,14.9243604,102.0952365,,,,,,,,,,,,
2283723131,node,amenity,marketplace,ร้านขายของ,,,14.9221024,102.0944272,,,,,,,,,,,,
3418085921,node,leisure,water_park,,,,14.9810779,102.077607,,,,,,,,,,,,
5022053422,node,amenity,cinema,,Five Stars Multiplex,,14.9691303,102.1066309,,,,,,,,,,,,
6364960829,node,shop,massage,,,,14.9766423,102.0908048,,,,,,,,,,,,
7142145793,node,amenity,marketplace,ร้านขายของ,,,14.9246898,102.0976034,,,,,,,,,,,,
7142145799,node,amenity,marketplace,อันอัน มินิมาร์ท,,,14.9279633,102.1043322,,,,,,,,,,,,
7142145803,node,amenity,marketplace,ร้านขายของ/ถ่ายเอกสาร,,,14.9226429,102.1021596,,,,,,,,,,,,
7142145808,node,amenity,marketplace,ร้านขายของ,,,14.9225316,102.1063966,,,,,,,,,,,,
7142145809,node,amenity,marketplace,ร้านขายของ,,,14.9200226,102.1046874,,,,,,,,,,,,
7142145810,node,amenity,marketplace,ร้านขายของ,,,14.9161654,102.093338,,,,,,,,,,,,
7142145811,node,amenity,marketplace,ร้านขายของ,,,14.9171294,102.0931472,,,,,,,,,,,,
7142145813,node,amenity,marketplace,ร้านขายของ,,,14.9220242,102.0947856,,,,,,,,,,,,
7142145815,node,amenity,marketplace,ร้านขายส่ง,,,14.928546,102.0982849,,,,,,,,,,,,
7142145820,node,amenity,marketplace,ร้านขายส่ง,,,14.9279789,102.1023727,,,,,,,,,,,,
7142145822,node,amenity,marketplace,ร้านขายของ,,,14.9280491,102.0984884,,,,,,,,,,,,
7238382900,node,leisure,fitness_centre,,Body Fit Gym,,14.9729,102.0962798,,,,,,,,,,,,
7402144985,node,leisure,fitness_centre,,Public gym,,14.989195,102.1084253,,,,,,,,,,,,
7965318297,node,amenity,marketplace,,,,14.9834503,102.0765675,,,,,,,,,,,,
8269237235,node,amenity,marketplace,ตลาดหนองหรือ,,,14.9437125,102.1052513,,,,,,,,,,,,
8269237238,node,leisure,fitness_centre,โรงยิมค่ายสุรนารี,,,14.9660681,102.0986905,,,,,,,,,,,,
9167252576,node,amenity,marketplace,ร้านขายของ,,,14.9195896,102.1009616,,,,,,,,,,,,
9665502964,node,amenity,marketplace,Lotus's go fresh,,,14.9442259,102.1056535,,,,,,,,,,,,
9665502965,node,amenity,marketplace,ตลาดหนองหรือ,,,14.9436874,102.1055732,,,,,,,,,,,,
11355704967,node,leisure,sports_centre,สนามกีฬาค่ายสุรนารี,,,14.9630794,102.0970393,,,,,,,,,,,,
12104167771,node,amenity,marketplace,ตลาด ช.2,,,14.9076787,102.1062451,,,,,,,,,,,,
12319863101,node,leisure,resort,โรงแรม สามสิริ รีสอร์ท บายพาสโคราช,Samsiri Resort Korat,,15.0328758,102.0866266,+66 88 564 3311,,samsiriresort,,samsiri,,24/7,234,,,,
13064778580,node,amenity,marketplace,,,,15.0356387,102.1312011,,,,,,,,,,,,
13076934045,node,amenity,marketplace,,,ตลาดหัวรถไฟ,14.9738082,102.0807529,,,,,,,,,,,,
13119011366,node,amenity,marketplace,Night market,,,14.9750351,102.1118275,,,,,,,,,,,,
13119074077,node,amenity,marketplace,,,,14.9727026,102.0724483,,,,,,,,,,,,
13120699626,node,amenity,cinema,Korat Cineplex,,,14.980658,102.0765941,,,,,,,,,,,,
13120699634,node,amenity,marketplace,,,,14.9489065,102.0242707,,,,,,,,,,,,
13120699639,node,amenity,cinema,Major Cineplex,,,14.949642,102.0552337,,,,,,,,,,,,
13120701232,node,shop,massage,,,,15.0455239,102.1268007,,,,,,,,,,,,
13277507618,node,amenity,marketplace,Save One Korat,,,14.956904,102.0440228,,https://www.saveone.co.th/,,,,,Mo-Su 14:00-22:00,"1485 1, Thanon Mittraphap, Ban Mai, Mueang Nakhon Ratchasima, Nakhon Ratchasima, 30000",,,,
13386493417,node,shop,massage,ร้านเรือนเศรษฐี สาขา 2,,,14.9617092,102.0247645,,,,,,,,"824/2, มุขมนตรี, บ้านใหม่, เมือง, นครราชสีมา, 30000",,,,
13428749836,node,leisure,fitness_centre,,,,14.9813611,102.090352,,,,,,,24/7,,,,,
13463900688,node,amenity,marketplace,,,,14.9955306,102.1065734,,,,,,,,,,,,
13472541959,node,leisure,fitness_centre,,,,14.9975492,102.1108494,,,,,,,,,,,,
13476763057,node,leisure,fitness_centre,Jetts,,,14.9578522,102.0460803,,,,,,,24/7,,,,,
13890984558,node,amenity,arts_centre,Art & Soul,,,14.9761868,102.1004566,,,,,,,,,,,,
219190278,way,leisure,sports_centre,,,,,,,,,,,,,,,,,
219198110,way,leisure,sports_centre,สนามเทนนิส ค่ายสุรนารี,,,,,,,,,,,,,,,,
219753052,way,amenity,marketplace,ตลาด ช.2,,,,,,,,,,,,,,,,
460497544,way,amenity,marketplace,Food Market,,,,,,,,,,,,,,,,
545162380,way,amenity,marketplace,ตลาดย่าโม,Yamo Market,ตลาดย่าโม,,,,,,,,,,,,,,
546498849,way,shop,mall,เซ็นทรัล โคราช,Central Korat,เซ็นทรัล โคราช,,,+66 44 001 555,https://shoppingcenter.centralpattana.co.th/th/branch/central-korat,https://www.facebook.com/CentralKoratFanpage,,,prom.nkm@centralpattana.co.th,Mo-Su 10:00-21:00,Nakhon Ratchasima,,,,Central Pattana
549481760,way,amenity,marketplace,ตลาดเทศบาล ๕,,,,,,,,,,,,,,,,
550807719,way,amenity,marketplace,ตลาดร่วมใจ  ปตท.-กองทัพบก,,,,,,,,,,,,,,,,
551793190,way,amenity,marketplace,7-Eleven,,,,,,,,,,,,,,,,
551793193,way,amenity,marketplace,ตลาดใหม่แม่กิมเฮง,,,,,,,,,,,,,,,,
554223665,way,leisure,sports_centre,,,,,,,,,,,,,,,,,
556212442,way,leisure,golf_course,,,,,,,,,,,,,,,,,
634644520,way,leisure,sports_centre,,,,,,,,,,,,,,,,,
758857589,way,amenity,marketplace,Mayfair Market Park,,,,,,,,,,,,,,,,
888815034,way,amenity,marketplace,ตลาดหนองไผ่ล้อม,,,,,,,,,,,,,,,,
1228401562,way,leisure,resort,ส พวงทอง รีสอร์ท หนองกระทุ่ม,,,,,,,,,,,,,,,,
1228808835,way,shop,massage,โอซาก้า อาบอบนวด,,,,,,,,,,,,,,,,
1390697685,way,leisure,sports_centre,ศูนย์กีฬาเฉลิมพระเกียรติ 80 พรรษา,,ศูนย์กีฬาเฉลิมพระเกียรติ 80 พรรษา,,,,,,,,,,,,,,
1418892859,way,leisure,sports_centre,Havana Fitness | ฮาวาน่า ฟิตเนส,,,,,,,,,,,,,,,,บ้านอยู่สบาย โคราช
