id,publicId,gid,displayName,name_thai,name_english,lat,lng,zipcode,categories,primary_category,is_likely_food,default_photo_url,detail_url
640688,640688Vq,09VxFaGtGqwNr6Q1nbH75ILas2VQfD,Café Amazon - SD2457 ตึกแถวตรงข้าม รพ.กุมภวาปี,คาเฟ่ อเมซอน - SD2457,Café Amazon - SD2457,17.106145587011532,103.0189157786347,41110,ร้านกาแฟ/ชา,ร้านกาแฟ/ชา,1,https://img.wongnai.com/p/_-x_/2026/05/29/19af7d0add964228a3f1a3efcb7f0af0.jpg,https://www.wongnai.com/restaurants/640688Vq
251829,251829pw,09VwpBTRUfliPNH7Cz5uqZ0DRxJu8L,กาแฟดอยช้าง ณ บ้านผือ,กาแฟดอยช้าง ณ บ้านผือ,DOICHAANG @ BANPHUE,17.6894358,102.4753939,41160,ร้านกาแฟ/ชา,ร้านกาแฟ/ชา,1,https://img.wongnai.com/p/_-x_/2016/11/03/106dd7d203824020b01943f9eb8426aa.jpg,https://www.wongnai.com/restaurants/251829pw
353664,353664dL,09VwpBTRZtDLqZS7gdyZCbsjHaPd4v,ป่าคำชะโนด,,,17.74473725797491,103.36072317055232,,ประวัติศาสตร์ วัฒนธรรมและศาสนา,ประวัติศาสตร์ วัฒนธรรมและศาสนา,0,https://img.wongnai.com/p/_-x_/2019/08/11/c822a65a790a4053b2d174a4cafb7754.jpg,https://www.wongnai.com/restaurants/353664dL
2826804,2826804Py,09VyFdRrzV23zae3E905VNprQX9MBF,เชลลี่คาเฟ่ - Shelly Cafe,,,17.6891788,102.4754584,41160,คาเฟ่|เบเกอรี/เค้ก,คาเฟ่,1,https://img.wongnai.com/p/_-x_/2025/12/15/d3d93aa9c1244b0c99f3c96ae461825d.jpg,https://www.wongnai.com/restaurants/2826804Py
1878998,1878998hb,09VxlhCS724MmHx6WfWN749xNqDFVR,อีสานบ้านเฮาฟาร์ม E-San Banhao Farm,อีสานบ้านเฮาฟาร์ม,E-San Banhao Farm,17.60808465830741,103.33678752380368,,ไร่/ฟาร์ม/สวนเกษตร|จุดกางเต็นท์|บ้านอนุรักษ์,ไร่/ฟาร์ม/สวนเกษตร,0,https://img.wongnai.com/p/_-x_/2025/07/03/9a41c3142c6d42389bd18555743b9d34.jpg,https://www.wongnai.com/restaurants/1878998hb
3797049,3797049YV,09VylB1lJ8n6IP224oaCMiYViZMgBj,วัดป่าคำชะโนด,,,17.742653995985837,103.35914265364408,,วัด,วัด,0,https://img.wongnai.com/p/_-x_/2026/05/18/ff9cf0cb9f144cb789c014f2a90c5401.jpg,https://www.wongnai.com/restaurants/3797049YV
3154936,3154936yH,09VyRWECIrz1vD2UIjXEPajBliAB3V,GODFATHER UDON,,,17.4294081,102.989615,,คาเฟ่,คาเฟ่,1,https://img.wongnai.com/p/_-x_/2025/08/29/0931d30f3642453582d8c996b526a6c5.jpg,https://www.wongnai.com/restaurants/3154936yH
325901,325901NA,09VwpBTRUFbCM6aPaVA3uS7N2hJPoq,วัดป่าภูก้อน,วัดป่าภูก้อน,,17.9228956,102.11817059999998,,วัด,วัด,0,https://img.wongnai.com/p/_-x_/2018/08/08/40c5ae63a111408e8f215a87775ca118.jpg,https://www.wongnai.com/restaurants/325901NA
346173,346173yJ,09VwpBTRbpYYQBupirWzFs5PHy3Dd5,พิพิธภัณฑสถานแห่งชาติบ้านเชียง,,,17.4072223,103.23622840000007,,พิพิธภัณฑ์,พิพิธภัณฑ์,0,https://img.wongnai.com/p/_-x_/2021/12/02/392fa999ac324a5fa69af402e157496d.jpg,https://www.wongnai.com/restaurants/346173yJ
3586032,3586032UE,09Vye2ISmyIV8DIvRN6LNffXZRMJKr,เฮียอั๋นต้มเลือดหมู,,,16.998426,102.89183,,ก๋วยเตี๋ยว|อาหารตามสั่ง,ก๋วยเตี๋ยว,1,https://img.wongnai.com/p/_-x_/2025/12/22/d4a1271bdfa04fe8b9dc6fa7e1177c4f.jpg,https://www.wongnai.com/restaurants/3586032UE
233029,233029ta,09VwpBTRUmAp0WSEkSunj2V7sNrEkw,แหนมเนืองนายช่าง,แหนมเนืองนายช่าง,Namnuang Naiichang,17.069062,102.926373,41370,อาหารเวียดนาม,อาหารเวียดนาม,1,https://img.wongnai.com/p/_-x_/2017/11/22/28ced1b5dda342998f4d9802e2d8d0a6.jpg,https://www.wongnai.com/restaurants/233029ta
342037,342037oh,09VwpBTRY0tW6Cvu7ubHSwUbgBg0Ih,ทะเลบัวแดง,,,17.2123791,103.03447000000006,,อุทยานและธรรมชาติ|จุดชมวิว,อุทยานและธรรมชาติ,1,https://img.wongnai.com/p/_-x_/2019/08/06/89611db051b249b7ae94fe94722660de.jpg,https://www.wongnai.com/restaurants/342037oh
436075,436075ow,09VwxETga5dy41dl0AnwhM5GyULFvu,วัดป่าภูก้อน,วัดป่าภูก้อน,,17.922965038814382,102.11816634982824,,วัด,วัด,0,https://img.wongnai.com/p/_-x_/2020/08/26/2c6ea75327634289ac0072c0f88ab6b3.jpg,https://www.wongnai.com/restaurants/436075ow
2271804,2271804qj,09VxwH18oGMA0bm24G8HBf3sH2j5sf,Five Star โลตัสโกเฟรช พันดอน,ห้าดาว,Five Star,17.12997661,102.9625527,41370,ปิ้งย่าง|สตรีทฟู้ด/รถเข็น,ปิ้งย่าง,1,https://img.wongnai.com/p/_-x_/deleted/2023/02/16/e8c7bffe55c843a88b8d39bffab523f8.jpg,https://www.wongnai.com/restaurants/2271804qj
1307841,1307841rV,09VxYtqRMTtpYs8kDgwEUgrVlHhS6L,วัดภูตะเภาทอง,วัดภูตะเภาทอง,Phu Taphao Thong Temple,17.032457,102.664631,,ภูเขา|อุทยานและธรรมชาติ|วัด,ภูเขา,1,https://img.wongnai.com/p/_-x_/2021/12/02/8d6131f9fde04282a2dca0fa81554567.jpg,https://www.wongnai.com/restaurants/1307841rV
1449954,1449954Xi,09VxcRhcccmlKioiw1T09VgAHZPK31,S.iri cafe,S.iri cafe,,17.6968316,103.2568855,,คาเฟ่,คาเฟ่,1,https://img.wongnai.com/p/_-x_/2022/02/24/0d265cffd64d4e2fbe095701f77282d3.jpg,https://www.wongnai.com/restaurants/1449954Xi
387247,387247Tx,09Vwp76B99Q8IRrbd72qBjLIgND6iT,วัดศิริ​สุทโธ​,,,17.74477272922519,103.36072448641063,,วัด,วัด,0,https://img.wongnai.com/p/_-x_/2025/08/21/f86ddb6daf724206864b8b3f8d10c9ed.jpg,https://www.wongnai.com/restaurants/387247Tx
3251499,3251499aA,09VyUceqtJ94SxotpME9fLJ32ijJpn,Pimmy Cafe บ้านขนมพิมมี่,,,17.08747,103.074683,,ร้านกาแฟ/ชา|เบเกอรี/เค้ก,ร้านกาแฟ/ชา,1,https://img.wongnai.com/p/_-x_/2025/06/22/e03544e2ec6b4aca98055b68ab1e807f.jpg,https://www.wongnai.com/restaurants/3251499aA
384729,384729cu,09VwpBTRZ4pclctAazkfXLlNTMfdiQ,วัดพระพุทธบาทบัวบก,,,17.720929859272456,102.36034928836057,,วัด,วัด,0,https://img.wongnai.com/p/_-x_/2023/07/20/e51c9e9c13314f02849b6d73815e76c9.jpg,https://www.wongnai.com/restaurants/384729cu
308070,308070cQ,09VwpBTRQHTDgC5dvzwhzakxy1byYb,ครัวอยุธยา เด๋ กุ้งเผา คำชะโนด,@เด๋กุ้งเผา บ้างดุง,,17.740621,103.357185,,อาหารไทย|อาหารอีสาน/ร้านส้มตำ|อาหารตามสั่ง,อาหารไทย,1,https://img.wongnai.com/p/_-x_/2019/08/12/80daf6abda8c4c00b387e167430253ae.jpg,https://www.wongnai.com/restaurants/308070cQ
3807897,3807897xA,09VylSznPodlTA4PdUErBFij1oP30K,Mammoth (กินกับแมมมอธ),กินกับแมมมอธ,Mammoth,17.68446877305247,103.25754778459668,41190,ฟาสต์ฟู้ด/จานด่วน,ฟาสต์ฟู้ด/จานด่วน,1,https://img.wongnai.com/p/_-x_/2026/05/24/5d47bf5b95164601b7defe76d8ba96fe.jpg,https://www.wongnai.com/restaurants/3807897xA
435679,435679eH,09VwxABHhSybfdjfyUhraahGMnQGBH,ชุมชนบ้านเชียง ชุมชนท่องเที่ยวเชิงวัฒนธรรมบ้านเชียง,,,17.4072223,103.23622840000007,,ย่าน,ย่าน,0,https://img.wongnai.com/p/_-x_/2025/07/15/62363e6deed54ce290a344d34fa70725.jpg,https://www.wongnai.com/restaurants/435679eH
400762,400762xc,09Vws1SOf0w3gs8AlOv8ChmkEItkTC,ร้านนัวคัก บ้านดุง,,,17.6887442,103.25698940000007,,สเต๊ก,สเต๊ก,0,https://img.wongnai.com/p/_-x_/2019/09/09/888789c24ead4a308b53ea965b24c00d.jpg,https://www.wongnai.com/restaurants/400762xc
3769538,3769538xj,09VykHpkT1yLTCZILRCA7UJH1jwpkW,Daily Donuts อำเภอกุมภวาปี,Daily Donuts,,17.10999272640814,103.01722046368427,41370,ของหวาน,ของหวาน,1,https://img.wongnai.com/p/_-x_/2026/05/22/8dbedfc56b30455ba65e52b04cc602a6.jpg,https://www.wongnai.com/restaurants/3769538xj
3754430,3754430JB,09Vyjnu2nVucnLojb5Us8WjUssMRXN,พอใจ ปังปังปิ้ง,,,17.096088473283068,103.01286262884372,41110,เบเกอรี/เค้ก,เบเกอรี/เค้ก,1,https://img.wongnai.com/p/_-x_/2026/04/22/0f9d623b898245e58689bd02ecbefd2a.jpg,https://www.wongnai.com/restaurants/3754430JB
384708,384708IU,09VwpBTRXIWsrVsbyvtbJQd5QIAWSw,วัดถ้ำสหาย ธรรมจันทร์นิมิต,,,17.17211092528408,102.67722969510646,,วัด,วัด,0,https://img.wongnai.com/p/_-x_/2019/08/16/4dd6e6725c8f4944be15166f0ec4b0b6.jpg,https://www.wongnai.com/restaurants/384708IU
165651,165651Lp,09VwpBTRQIUoJJxM4nPLrLXp6hABKy,Roong Na Pha แหนมเนือง,,,17.967728,102.603679,43130,อาหารเวียดนาม,อาหารเวียดนาม,1,https://img.wongnai.com/p/_-x_/2019/04/30/e905a799242d48baae414bfbaf93cae5.jpg,https://www.wongnai.com/restaurants/165651Lp
176322,176322pw,09VwpBTRTPHhMqsWfjbCipbKg14v6v,Vieng nem neung,เวียง แหนมเนือง,,17.948752,102.619405,43130,อาหารเวียดนาม|ชาบู/สุกี้ยากี้/หม้อไฟ,อาหารเวียดนาม,1,https://img.wongnai.com/p/_-x_/2016/09/07/ae4c43f71f52477c8399fd7f31f0f024.jpg,https://www.wongnai.com/restaurants/176322pw
2451663,2451663DL,09Vy198KNJUZ5BfbLoV5Oc1tDFJkrn,พิมอาหารตามสั่ง,,,17.589122062719298,102.4132333137095,15000,อาหารตามสั่ง,อาหารตามสั่ง,1,https://img.wongnai.com/p/_-x_/2023/08/16/9dc7d13460b64d44a9f279762d4f0658.jpg,https://www.wongnai.com/restaurants/2451663DL
2247131,2247131ez,09VxvXKOsuiOw9OnK07QK8UscDW8Qe,นิชา พิชซ่า,นิชา พิชซ่า,,17.097476595133426,103.03652035072446,41110,พิซซ่า,พิซซ่า,1,https://img.wongnai.com/p/_-x_/2023/04/10/1f8eaf2c00c945e795cb3113eb997106.jpg,https://www.wongnai.com/restaurants/2247131ez
1986002,1986002xD,09VxoQDC4nfvY8H0ZI20lfyFqhhIot,Hop Chafe หนองเดิ่น จ.หนองคาย,,,17.816410145737176,103,41260,ชานมไข่มุก,ชานมไข่มุก,1,https://img.wongnai.com/p/_-x_/deleted/2018/10/31/d314c807549d483da37c57053275139e.jpg,https://www.wongnai.com/restaurants/1986002xD
451303,451303HJ,09VwzXwHP0OS6AQ67BQumps7c96iLt,BaanYa Cafe' - Moto-O บ้านผือ,BaanYa Cafe' - Moto-O,BaanYa Cafe' - Moto-O,17.685844,102.484492,,คาเฟ่|ชานมไข่มุก,คาเฟ่,1,https://img.wongnai.com/p/_-x_/2020/05/16/7e1a3bd5f9e9482eb451545fa5777283.jpg,https://www.wongnai.com/restaurants/451303HJ
2426007,2426007hi,09Vy0Ja7KeovnvPVOIVVQIz25s0cMb,นัดพบคอฟฟี่,,,17.686024528651622,102.48647455077953,41160,ร้านกาแฟ/ชา,ร้านกาแฟ/ชา,1,https://img.wongnai.com/p/_-x_/2023/07/24/74d77b4550224853aa7a2d1b5a40338a.jpg,https://www.wongnai.com/restaurants/2426007hi
1986145,1986145lD,09VxoQSgWQsrhVfnbzshLlYCi14GHW,ร้านสะดวกซื้อ ควันหลง,ร้านสะดวกซื้ออร่อยควันหลง,Convenience store delicious aftermath,17.6963288,102.8719178,41150,ร้านขายของชำ,ร้านขายของชำ,0,https://img.wongnai.com/p/_-x_/2022/11/05/0d2de9f4f8014e73954aff9dd12b2178.jpg,https://www.wongnai.com/restaurants/1986145lD
3633152,3633152zr,09Vyfrs9H0TRBWT9o6yEXzLok2Wsfy,Mone Cha (โมเน่ชา)  2 บ้านดุง,Mone Cha (โมเน่ชา) ,,17.7388236,103.2201828,41190,คาเฟ่,คาเฟ่,1,https://img.wongnai.com/p/_-x_/2026/03/27/4eea5179b438405094933966c7521239.jpg,https://www.wongnai.com/restaurants/3633152zr
3789643,3789643Gh,09Vykxv0wu3T6ZRy4zPmF1aRqCimN6,Dairy Queen ® Lotus Banpue,แดรี่ควีน,Dairy Queen,17.68971,102.46394,,ไอศกรีม|ของหวาน,ไอศกรีม,1,https://img.wongnai.com/p/_-x_/2025/07/25/70c7e410fd3d4bf3a975ef7d95bbc1e6.jpg,https://www.wongnai.com/restaurants/3789643Gh
2435172,2435172XY,09Vy0doo1XrXonSBRdqROlearGuXKU,ตำ ยำ ยั่ว By ภูมิ บ้านดุง,,,17.7268355,103.2510843,,อาหารอีสาน/ร้านส้มตำ,อาหารอีสาน/ร้านส้มตำ,1,https://img.wongnai.com/p/_-x_/2023/08/11/082a952070e34621aa36ab5a81092f4b.jpg,https://www.wongnai.com/restaurants/2435172XY
3624695,3624695gA,09VyfbpVJea1YyN6FmXsQhDasPcTvy,ครัวคุณหวาน Cafe & Restaurants น้ำโสม,ครัวคุณหวาน Cafe & Restaurants,,17.7120101,102.2090224,41210,คาเฟ่,คาเฟ่,1,https://img.wongnai.com/p/_-x_/2026/04/01/90359b278fab45ec9523aaab7676a6ab.jpg,https://www.wongnai.com/restaurants/3624695gA
2628800,2628800il,09Vy8t4yS0uWallrnt1q6xxULKBpfy,De Minimal Cafe&resort,,,17.4572872,102.5381201,,โรงแรม/รีสอร์ท,โรงแรม/รีสอร์ท,0,https://img.wongnai.com/p/_-x_/2025/10/18/c3f88bee80fa419e9f5a1edd1272e6ec.jpg,https://www.wongnai.com/restaurants/2628800il
3696436,3696436LZ,09VyhvBijqftvZ2thighlLgKeFJzVT,COCO Walk มะพร้าวน้ำหอมล้วน ๆ - ปั๊ม PT ใกล้รพ. กุมภวาปี,COCO Walk มะพร้าวน้ำหอมล้วน ๆ - ปั๊ม PT ใกล้รพ. กุมภวาปี,COCO Walk - fresh coconut juice (PT Kumphawapi),17.106237729372623,103.01928782835603,41110,เครื่องดื่ม/น้ำผลไม้|ของหวาน,เครื่องดื่ม/น้ำผลไม้,1,https://img.wongnai.com/p/_-x_/2026/03/07/0b35413fd86144bca9bca90dd12ecd7e.jpg,https://www.wongnai.com/restaurants/3696436LZ
192617,192617hu,09VwpBTRRDmcMpw3HDOlNbkfWFYYvK,Niku-O เวียงจันทร์,นิกุโอ,Nikuo,17.969649,102.614454,43130,ปิ้งย่าง|อาหารเกาหลี|อาหารญี่ปุ่น,ปิ้งย่าง,1,https://img.wongnai.com/p/_-x_/2018/11/22/723bfb95540240428cb2599d41d1a00e.jpg,https://www.wongnai.com/restaurants/192617hu
3622544,3622544mK,09VyfYPHq56UtY1P4jG1WuXsEuVWAa,บ้านไร่คาเฟ่ (Baanrai Cafa) กุมภวาปี,บ้านไร่คาเฟ่ (Baanrai Cafa),,17.1078194,102.9435536,41370,คาเฟ่,คาเฟ่,1,https://img.wongnai.com/p/_-x_/2026/03/07/b5b1cfb701ef463bab31c03b506c38d2.jpg,https://www.wongnai.com/restaurants/3622544mK
2537892,2537892qq,09Vy4WieuBzxgNMMKlPFZJWNQDxW6q,AZURE COFFEE & REST แอชเชอร์ คอฟฟี่ แอนด์ เรสท์,AZURE COFFEE & REST,AZURE COFFEE & REST,16.962848004894,103.43605633825,,คาเฟ่,คาเฟ่,1,https://img.wongnai.com/p/_-x_/2023/10/07/69fc61b03eff44a5aa47f0bc7c06fa04.jpg,https://www.wongnai.com/restaurants/2537892qq
3675442,3675442Vs,09VyhBHrN2x9e0Sv04Yw94GgmZRkCx,แจ่วฮ้อนบ้านสวน โนนสะอาด โนนสะอาด,แจ่วฮ้อนบ้านสวน โนนสะอาด,,16.9225261,102.9435536,,อื่นๆ,อื่นๆ,0,https://img.wongnai.com/p/_-x_/2026/03/02/09433fb0d7804589ad0eafdf87460320.jpg,https://www.wongnai.com/restaurants/3675442Vs
1818395,1818395Sg,09VxkKfH7lBAyBrRN6J971xkEMdsKJ,ร้านอยู่สุข  อาหารตามสั่ง  หมู่บ้านเอรวัณ,,,17.58953274922731,102.40743303671479,15000,อาหารตามสั่ง,อาหารตามสั่ง,1,https://img.wongnai.com/p/_-x_/2022/08/19/2b9e635e84ca40da8bed021b3f406d08.jpg,https://www.wongnai.com/restaurants/1818395Sg
3652524,3652524kx,09VygSY32XK9yxFKUIXmD0uDXEH1fl,ก๋วยเตี๋ยวเรือวิจิตร หนองหาน,ก๋วยเตี๋ยวเรือวิจิตร,,17.3799781,103.035694,41130,ก๋วยเตี๋ยว,ก๋วยเตี๋ยว,1,https://img.wongnai.com/p/_-x_/2026/03/21/7c762df7f279402181704d875c4fdb96.jpg,https://www.wongnai.com/restaurants/3652524kx
3806676,3806676en,09VylOTvXLG4vaFyWm6LjJmszfVvVh,ชีชิงหม่าล่าทั่ง บ้านดุง,,,17.697526723157686,103.25931621878067,41190,อาหารจีน,อาหารจีน,1,https://img.wongnai.com/p/_-x_/2026/05/22/ed56de6ecc7f453e86e3179d2b8ab87c.jpg,https://www.wongnai.com/restaurants/3806676en
3683709,3683709Mg,09VyhT8e6Y3zfZouQvSQjj2hqkAfFO,ข้าวไก่ทอดสุขใจ,,,17.6858806584448,103.25397374108434,41190,อาหารจานเดียว,อาหารจานเดียว,1,https://img.wongnai.com/p/_-x_/2026/05/20/c8d36db28bfb41efb3366d250dcd6b8e.jpg,https://www.wongnai.com/restaurants/3683709Mg
3640280,3640280kM,09Vyg6hF6gOVQT49FNxZPYD7EniPrp,ลูกชิ้นทอดกันเอง&ยำรสเด็ด,,,17.697188853776083,103.2599575282368,41190,ปิ้งย่าง|ร้านกาแฟ/ชา|เครื่องดื่ม/น้ำผลไม้,ปิ้งย่าง,1,https://img.wongnai.com/p/_-x_/2026/01/26/a8ea83a681bc4495be1c9304a66d486d.jpg,https://www.wongnai.com/restaurants/3640280kM
3334295,3334295Ds,09VyX2CyA4o9FcYuKjiecA6Guq5yiS,LUCKY SACK สาขา 2  -,LUCKY SACK สาขา 2 ,,17.4294081,102.989615,,เบเกอรี/เค้ก,เบเกอรี/เค้ก,1,https://img.wongnai.com/p/_-x_/2025/12/17/0b2b142cd72741cdacde2fe5167711c8.jpg,https://www.wongnai.com/restaurants/3334295Ds
3605847,3605847Wk,09VyevX0ezbiMELHb6hVu8tpi1HI5G,ตัวป่วนตามสั่ง,,,17.697556396542733,103.25897539034486,41190,อาหารตามสั่ง,อาหารตามสั่ง,1,https://img.wongnai.com/p/_-x_/2026/01/18/2ae374ffb5e14af79d843d0c07de6bed.jpg,https://www.wongnai.com/restaurants/3605847Wk
1926387,1926387Rv,09VxmjpqrvfpyQQXeHLPyYeWvA9VS8,ตำเเซ่บสะเดิดสะดุ้ง,,,17.70176456275196,103.26182202956296,41190,อื่นๆ,อื่นๆ,0,https://img.wongnai.com/p/_-x_/2022/09/29/1bcf7383347d4d02bcb983dba670d272.jpg,https://www.wongnai.com/restaurants/1926387Rv
92933,92933hl,09VwpBTRMXtGg7VSSiNLboo7OcKHgf,ร้านอาหารเรือนไม้ไทย,ร้านอาหารเรือนไม้ไทย,RUEAN MAI THAI RESTAURANT,17.103469,103.006806,41110,อาหารไทย,อาหารไทย,1,https://img.wongnai.com/p/_-x_/2014/11/08/dcbad71372dd4b49954c704404dec699.jpg,https://www.wongnai.com/restaurants/92933hl
3682389,3682389Kp,09VyhSWyw7bcIBuSuMsvaeJTktJU1r,PunThai Coffee น้ำโสม(อุดรธานี),กาแฟพันธุ์ไทย,PunThai Coffee,17.765624,102.189248,,ร้านกาแฟ/ชา,ร้านกาแฟ/ชา,1,https://img.wongnai.com/p/_-x_/2025/07/25/6c204143737640b9ba0875fbbe77fe07.jpg,https://www.wongnai.com/restaurants/3682389Kp
3607578,3607578zS,09Vyf6DqDZJvtP46ERKnDAKzw9f1go,ครัวเรือนไทยในสวน,,,17.686694574161468,103.2606608227672,41190,อาหารจานเดียว,อาหารจานเดียว,1,https://img.wongnai.com/p/_-x_/2026/01/10/f6a280a22c4f427bb40e1c5a1cd2f1b4.jpg,https://www.wongnai.com/restaurants/3607578zS
3666560,3666560mz,09Vygs1HCBoplhD90ZiEQDinL3zIao,เทิงโนน coffee&tea,,,17.684187540928612,103.21162352913527,41190,คาเฟ่,คาเฟ่,1,https://img.wongnai.com/p/_-x_/2026/02/13/f494f39311ce48de82af1b8e406047f1.jpg,https://www.wongnai.com/restaurants/3666560mz
3451599,3451599Lf,09VyaU8agg7EOTWnmX2rjNSxkhiGkP,ลูกชิ้นทิพย์ บิ๊กซี บ้านดุง,,,17.67490148660323,103.25136357034296,41190,สตรีทฟู้ด/รถเข็น,สตรีทฟู้ด/รถเข็น,0,https://img.wongnai.com/p/_-x_/2026/03/24/27de29ab7ef2472e851066f2ee7b83bb.jpg,https://www.wongnai.com/restaurants/3451599Lf
3608164,3608164Ws,09Vyf8iyMJwk1nJ0evBOSny2M2T53Q,ร้านนายหนวด,,,17.696319322391282,103.25886709615588,41190,อาหารจานเดียว,อาหารจานเดียว,1,https://img.wongnai.com/p/_-x_/2026/02/14/701c2d874809407897ed7e23446aa567.jpg,https://www.wongnai.com/restaurants/3608164Ws
3633887,3633887HT,09VyfuRe47bIlmMTUEYrnOFAJoEZJJ,KFC ปตท.โออาร์ วังสามหมอ,เคเอฟซี,KFC,16.948234763904114,103.42036746217074,,ฟาสต์ฟู้ด/จานด่วน|เบอร์เกอร์,ฟาสต์ฟู้ด/จานด่วน,1,https://img.wongnai.com/p/_-x_/2026/05/28/10d8d57409ba4b0eb3ac7ee8d385f5a4.jpg,https://www.wongnai.com/restaurants/3633887HT
386144,386144gA,09VwpBTRbHiBKdys682VLBZRaO0jxW,หลินอาหารตามสั่ง วังสามหมอ,,,16.949133,103.433595,,อาหารไทย|อาหารตามสั่ง,อาหารไทย,1,https://img.wongnai.com/p/_-x_/2019/02/23/69c9faf9181f42589c81951a11e7d63f.jpg,https://www.wongnai.com/restaurants/386144gA
3583688,3583688NM,09VydshNlMFv095Z11KwdSGYTk5zol,Ema coffee shop พิบูลย์รักษ์,Ema coffee shop,,17.5300011,103.0472164,41130,คาเฟ่,คาเฟ่,1,https://img.wongnai.com/p/_-x_/2026/05/03/022146144f3c4aeab50c8e873c3c2569.jpg,https://www.wongnai.com/restaurants/3583688NM
238621,238621zi,09VwpBTRVIiFHDYi4mGuivoR36rPMT,เวียงชัยชาบู,,,17.800297,102.666541,,อาหารญี่ปุ่น,อาหารญี่ปุ่น,1,https://img.wongnai.com/p/_-x_/2020/01/11/c193a143a6274726bed19ac24a2438e7.jpg,https://www.wongnai.com/restaurants/238621zi
3658232,3658232Jp,09VygbZsche8ZDuaXjpaOzK36RiuCt,ก๋วยตงก๋วยเตี๋ยว สาขาปากทางบ้านไผ่ ตำบลตูมใต้ ตรงข้ามนพรัตน์รีสอร์ท,,,17.121859245052363,102.97892115012553,41110,ก๋วยเตี๋ยว,ก๋วยเตี๋ยว,1,https://img.wongnai.com/p/_-x_/2026/02/22/5a0a02e926374028bddb1cbd910218c7.jpg,https://www.wongnai.com/restaurants/3658232Jp
366404,366404Go,09VwpBTRZDUa7PTyv8CLIPj8N7wabB,วัดป่าสว่างธรรม (วัดศิริพร อำไพพงศ์),,,17.47657,103.028732,,วัด,วัด,0,https://img.wongnai.com/p/_-x_/2019/11/21/c8a2c80243a24aa3aa15705e0c17281c.jpg,https://www.wongnai.com/restaurants/366404Go
3531034,3531034mK,09VycJF0uKtMiopzFDBF2As3wLFd7D,Hongfu cha หงฟู่ชาสาขาบิ๊กซีบ้านดุง,หงฟู่ชา,,17.6747426,103.2514785,41190,ร้านกาแฟ/ชา,ร้านกาแฟ/ชา,1,https://img.wongnai.com/p/_-x_/2025/11/04/5a576291970845cb86a2bbb11b6fa728.jpg,https://www.wongnai.com/restaurants/3531034mK
3369092,3369092Xu,09VyY2cJLKkr1SbOWRjdtB956b38hk,ยายสวยกล้วยทอด ยายสวยกล้วยทอด,ยายสวยกล้วยทอด,,17.3799781,103.035694,41130,คาเฟ่,คาเฟ่,1,https://img.wongnai.com/p/_-x_/deleted/2017/11/04/8405770b540b487da058421748fd2073.jpg,https://www.wongnai.com/restaurants/3369092Xu
3596387,3596387KK,09VyeMprhGVci71lzHOKVrFR0wyuNW,PunThai Coffee ถนนศรีศรัทธา,กาแฟพันธุ์ไทย,PunThai Coffee,16.949488,103.438605,,ร้านกาแฟ/ชา,ร้านกาแฟ/ชา,1,https://img.wongnai.com/p/_-x_/2026/02/11/6b2daa5819454f0e936a25d132bcfefe.jpg,https://www.wongnai.com/restaurants/3596387KK
592222,592222rh,09VxBkhe3x1k4z7H5dyUiIBZf5Js5e,ครัววาสนา,,,17.74089544281844,103.29002435684204,,ร้านริมน้ำ|อาหารอีสาน/ร้านส้มตำ|อาหารไทย,ร้านริมน้ำ,1,https://img.wongnai.com/p/_-x_/2020/07/09/f0be8e215dc54fc8a9d89f151a5670b2.jpg,https://www.wongnai.com/restaurants/592222rh
3814336,3814336br,09VylcNN9yEFD5wYYbnLpOfqYmGoN4,ขนมปังนิดหน่อย,,,17.104131920220322,103.01561849345886,41110,เบเกอรี/เค้ก,เบเกอรี/เค้ก,1,https://img.wongnai.com/p/_-x_/2026/05/27/56ae28440402438db744827d3de1c78e.jpg,https://www.wongnai.com/restaurants/3814336br
3648342,3648342EH,09VygKDHvDKehWkqJeAhgEogvWlZ0G,สถานีเครป (ปตท.กลางทุ่ง กุมภวาปี),,,17.11447562932619,102.99796931080277,41110,เบเกอรี/เค้ก,เบเกอรี/เค้ก,1,https://img.wongnai.com/p/_-x_/2026/02/01/2bb3eaf5d7264c0d86a7fb6bc54846bc.jpg,https://www.wongnai.com/restaurants/3648342EH
2536474,2536474nk,09Vy4T9EU61yGsBzWJCR6BVsl4G2kJ,บะหมี่ชายสี่ by สองข้าว -,บะหมี่ชายสี่ by สองข้าว,,16.976792,103.214209,41230,ก๋วยเตี๋ยว,ก๋วยเตี๋ยว,1,https://img.wongnai.com/p/_-x_/2023/11/25/e483135a0e7941d0a99224bc7031e0cb.jpg,https://www.wongnai.com/restaurants/2536474nk
3309517,3309517cr,09VyWJVpEqIXSuPBoL7hTQ3vAwaI0A,ครัวบ้านฉัน Made with love,ครัวบ้านฉัน & เบเกอร์รี่บ้านฉัน,Aom's micro bakery,17.701585055056626,103.2693032361567,41190,เบเกอรี/เค้ก|อาหารนานาชาติ|ฟาสต์ฟู้ด/จานด่วน,เบเกอรี/เค้ก,1,https://img.wongnai.com/p/_-x_/2025/07/04/b09d6a7b7e93443092de06a8766dfa8b.jpg,https://www.wongnai.com/restaurants/3309517cr
3475424,3475424je,09Vyb4mUmyCt695oggj0APtWdL0weO,ไคฮวดเภสัช,,,17.110039361638844,103.01386592930551,41110,ร้านเวชภัณฑ์,ร้านเวชภัณฑ์,0,https://img.wongnai.com/p/_-x_/2026/02/07/2c93bee33d9a440bb99b540fbfcc3700.jpg,https://www.wongnai.com/restaurants/3475424je
14106,14106Ei,09VwpBTRKi5uwjtPoCqXRp4ZF05F1D,สุพรรณโอชา,สุพรรณโอชา,Suphan Ocha,17.12244636431726,102.9778758622706,41110,อาหารไทย|อาหารทะเล|อาหารจีน,อาหารไทย,1,https://img.wongnai.com/p/_-x_/2021/05/05/61a52f012755437090d5daa2819e3e22.jpg,https://www.wongnai.com/restaurants/14106Ei
3731429,3731429VJ,09Vyj0NyIJq9KLbvZjixxl9f4uDqH3,อิ่มคุ้ม หน้า ด.ย,,,17.69929077751751,103.26270902529359,41190,อาหารจานเดียว,อาหารจานเดียว,1,https://img.wongnai.com/p/_-x_/2026/03/31/f9a7efc4510344ebbb022a76a3827a5c.jpg,https://www.wongnai.com/restaurants/3731429VJ
3476020,3476020mw,09Vyb5aDW8pVKjrEh7Bpz4QTxZbEN1,PJ coffee&milk,,,17.1389194,102.9661191,41370,เครื่องดื่ม/น้ำผลไม้,เครื่องดื่ม/น้ำผลไม้,1,https://img.wongnai.com/p/_-x_/2025/10/09/abd02fa6aae641a98c5a5caa3561d4cb.jpg,https://www.wongnai.com/restaurants/3476020mw
1684978,1684978nm,09VxhNT0PcMDPUYzHoOaSUWSo0p5e6,ร้านเสริมสวยศาซาลอนดัดผมดิจิตอล ดัดผมวอลลุ่ม กุมภวาปี อุดรธานี กุมภวาปี ศรีธาตุ อุดรธานี,,,17.108378,103.018761,,ทำผม,ทำผม,0,https://img.wongnai.com/p/_-x_/2022/06/03/fa1719b16f064ec58039f4b8737e6e09.jpg,https://www.wongnai.com/restaurants/1684978nm
3472428,3472428tP,09Vyb09WVZCwc65VaDkJlRniwo5FyS,The Glücklich Time -,The Glücklich Time,,17.2775792,102.6067841,41360,ร้านกาแฟ/ชา,ร้านกาแฟ/ชา,1,https://img.wongnai.com/p/_-x_/2026/03/31/a7f16409d4f6415b90fa9bfbdcacda90.jpg,https://www.wongnai.com/restaurants/3472428tP
356660,356660yT,09VwpBTRa8PDnvN5epBYs6nE0aXf4F,วัดสันติวนาราม,,,17.441725735823702,103.24604235276126,,วัด,วัด,0,https://img.wongnai.com/p/_-x_/2018/10/29/d995a9fdc7944ec9af4dc957587dc785.jpg,https://www.wongnai.com/restaurants/356660yT
3466331,3466331mZ,09Vyao91HH4Cb2QIXpSVdJFDQJZ7NK,ร้านส้มตำ(หลังสวนลิงข้างไปรษณีย์),ร้านส้มตำ(หลังสวนลิงข้างไปรษณีย์),,17.11315406776002,103.01740424707532,41110,อาหารอีสาน/ร้านส้มตำ,อาหารอีสาน/ร้านส้มตำ,1,https://img.wongnai.com/p/_-x_/2025/10/02/eaa9d37dec0641d2a7ec79fcc922b318.jpg,https://www.wongnai.com/restaurants/3466331mZ
262191,262191su,09VwpBTROSGRQ2445rL5EHcvX8YZqX,Ma der bua Food&Drink,มาเดอบัว,,17.2124,103.034052,,สเต๊ก|อาหารไทย|อาหารเช้า,สเต๊ก,1,https://img.wongnai.com/p/_-x_/2020/09/26/fc08f74ef9ee4f5ebb98e36d84d8ec6c.jpg,https://www.wongnai.com/restaurants/262191su
3505699,3505699tE,09Vybg8Y2dHqnU4z59FAm1j7Ys5JBN,Mone Cha (โมเน่ชา) บ้านดุง,Mone Cha (โมเน่ชา),,17.6842568,103.2583647,41190,ชานมไข่มุก,ชานมไข่มุก,1,https://img.wongnai.com/p/_-x_/2025/10/26/ce23a397f5a04646877d0b06debfa4c7.jpg,https://www.wongnai.com/restaurants/3505699tE
1015895,1015895Ak,09VxSguARUPuqyaY2uZjFwjI7vZJjV,Inthanin Coffee ฟอร์ด-บางจาก กุมภวาปี-เมืองใหม่,อินทนิล คอฟฟี่,Inthanin Coffee,17.118700324974437,102.98896364794967,41110,ร้านกาแฟ/ชา|เครื่องดื่ม/น้ำผลไม้,ร้านกาแฟ/ชา,1,https://img.wongnai.com/p/_-x_/2021/07/16/cce95f629ff642aaab4a1a04592879f4.jpg,https://www.wongnai.com/restaurants/1015895Ak
3467596,3467596wR,09Vyar1nisiS8TCCtNPbbfbPwgvnPT,ครัวช้างไทย สาขา 2 2,ครัวช้างไทย สาขา 2,,17.3799781,103.035694,41130,อาหารจานเดียว,อาหารจานเดียว,1,https://img.wongnai.com/p/_-x_/deleted/2018/10/31/7ad45931ab89480083fa5d7ba21e965e.jpg,https://www.wongnai.com/restaurants/3467596wR
3335688,3335688Zm,09VyX4zCmXftTfSDdJpnjWSx77xHd1,ผลไม้ตามฤดูกาลTT,,,17.69976829278756,103.25735500082374,41190,ร้านขายผลไม้,ร้านขายผลไม้,0,https://img.wongnai.com/p/_-x_/2026/05/03/a86372bbae604fe485b4f3e5d2a07cb2.jpg,https://www.wongnai.com/restaurants/3335688Zm
342789,342789Ho,09VwpBTRXnNk8GahsVSLbnlXIIkz1b,อุทยานประวัติศาสตร์ภูพระบาท,,,17.7307509,102.35783679999997,,อุทยานและธรรมชาติ,อุทยานและธรรมชาติ,1,https://img.wongnai.com/p/_-x_/2022/02/03/86ca169169aa4141853535a97ee346c1.jpg,https://www.wongnai.com/restaurants/342789Ho
3386397,3386397fz,09VyYZqOq2g0UnsnsJ82SMvKXmNcHu,ร้านแล้วแต่รมณ์ Por &Waii -,ร้านแล้วแต่รมณ์ Por &Waii,,17.239783216955,102.90373541415,,คาเฟ่,คาเฟ่,1,https://img.wongnai.com/p/_-x_/2025/09/16/88a7532b414b4a24add446088d698c71.jpg,https://www.wongnai.com/restaurants/3386397fz
2295229,2295229KM,09VxwuJW2KIN2ipMeI1jiGQNgZbAcL,ควายไทย Coffee & Food,,,17.508591,102.928619,,อาหารไทย,อาหารไทย,1,https://img.wongnai.com/p/_-x_/2024/10/31/2c56d7190e6744658e4185ea4e62172a.jpg,https://www.wongnai.com/restaurants/2295229KM
3484139,3484139ZC,09VybB32KWoFvP8d4mhAO3sDWKRUPp,บาร์ คูล ซิกตี้ไนน์,บาร์ คูล ซิกตี้ไนน์,,17.3645735,103.0933171,10330,ร้านขายของชำ|อื่นๆ,ร้านขายของชำ,0,https://img.wongnai.com/p/_-x_/2026/01/16/c25f0e4335454a66a353db7eff332e42.jpg,https://www.wongnai.com/restaurants/3484139ZC
3375487,3375487Rw,09VyYET76gqotyr9lu3mgyaVi1YEPz,ขนมโตเกียวกองทรัพย์,,,17.69971750283404,103.25856434181333,41190,ของหวาน,ของหวาน,1,https://img.wongnai.com/p/_-x_/2025/09/06/298222fe1e584d7faf334862109a9a07.jpg,https://www.wongnai.com/restaurants/3375487Rw
3452146,3452146Ku,09VyaUrVYz8MusBC0N7OaCOELiW9gj,มุมอร่อย @ หนองหาน มุมอร่อย @ หนองหาน,มุมอร่อย @ หนองหาน,,17.3634233,103.1107766,41130,ร้านข้าวต้ม,ร้านข้าวต้ม,1,https://img.wongnai.com/p/_-x_/2025/09/30/f6f21691e4324b148d4f90d1d4caf32d.jpg,https://www.wongnai.com/restaurants/3452146Ku
3370616,3370616CS,09VyY608k12pDz1cswkmEMZncyYveU,ครัวเหมือนบ้าน,ครัวเหมือนบ้าน,,17.70577281615802,103.2506527297209,41190,อาหารตามสั่ง|อาหารอีสาน/ร้านส้มตำ,อาหารตามสั่ง,1,https://img.wongnai.com/p/_-x_/2025/08/09/7716a296174a4d7289d43bfecbb69dc3.jpg,https://www.wongnai.com/restaurants/3370616CS
93001,93001co,09VwpBTRMMKLA6FpUhOAcRO05yX1cN,ครัวฟ้าหนาว,ครัวฟ้าหนาว,KHRUA FA NAO RESTAURANT,17.406427,103.236201,41130,อาหารไทย,อาหารไทย,1,https://img.wongnai.com/p/_-x_/2015/01/17/c8de36ad939846f69ba0416a13825a82.jpg,https://www.wongnai.com/restaurants/93001co
362575,362575fF,09VwpBTRZqhRsqa3UOvlZP59we2y1S,พิพิธภัณฑ์บ้านเชียง,พิพิธภัณฑ์บ้านเชียง,National Museum of Ban Chiang,17.407226321688015,103.23622123167274,,พิพิธภัณฑ์,พิพิธภัณฑ์,0,https://img.wongnai.com/p/_-x_/2019/08/24/253dfa238d2644b69371be31f97e8f06.jpg,https://www.wongnai.com/restaurants/362575fF
3403575,3403575MH,09VyZ2XsWD1biBZpGPdlKoha9PkjJY,คำชะโนด คาเฟ่ คำชะโนด คาเฟ่,คำชะโนด คาเฟ่,,17.7425642,103.3597542,41190,คาเฟ่,คาเฟ่,1,https://img.wongnai.com/p/_-x_/2025/09/22/c8e958b9f79f45a792bea5445d99d54c.jpg,https://www.wongnai.com/restaurants/3403575MH
3530051,3530051BF,09VycGrFKQQJhXYk04JqBQZin8b6RM,PunThai Coffee ตลาดสดเทศบาลตำบลกุดจับ,กาแฟพันธุ์ไทย,PunThai Coffee,17.42057,102.566943,,ร้านกาแฟ/ชา,ร้านกาแฟ/ชา,1,https://img.wongnai.com/p/_-x_/2025/12/01/ecbca21995b8453bac4677132a5588b6.jpg,https://www.wongnai.com/restaurants/3530051BF
3132513,3132513iR,09VyQoKqf6PsCy8QQfDtg0ReryKrjc,ทะเลบัวแดง บ้านแชแล,,,17.179045784636227,103.05737536400557,,เขื่อน/อ่างเก็บน้ำ,เขื่อน/อ่างเก็บน้ำ,0,https://img.wongnai.com/p/_-x_/2025/02/25/ac335689079e4a1c81c66c3cc7094c45.jpg,https://www.wongnai.com/restaurants/3132513iR
3344263,3344263RC,09VyXJOnKq0uvC3bXAVyXByt1ACOl3,ห่อหมกไข่ข้นบ้านๆ,,,17.697783859829975,103.26234507871978,41190,อาหารอีสาน/ร้านส้มตำ,อาหารอีสาน/ร้านส้มตำ,1,https://img.wongnai.com/p/_-x_/2025/08/06/f2802f0081f84a1ba5496e9947a8a791.jpg,https://www.wongnai.com/restaurants/3344263RC
3475763,3475763Uh,09Vyb5LNJR8FPmCpn2IiBDTJOHmNqY,ครัวแม่ค้าบ๊วยByลิซลิน,อลิซ อลิน Restaurants,Alice Alin food day,17.11039160359844,102.95001743361354,41370,อาหารตามสั่ง,อาหารตามสั่ง,1,https://img.wongnai.com/p/_-x_/2025/10/08/6b1de91e5a344fc0b145305a36d24298.jpg,https://www.wongnai.com/restaurants/3475763Uh
308832,308832TV,09VwpBTRVDzOzZLGGPrUUjerzTgDQu,Rieto Cafe',ริเอโต้ คาเฟ่,Rieto Cafe',17.728062509674462,103.25131228836062,,ร้านกาแฟ/ชา|ไอศกรีม|ของหวาน,ร้านกาแฟ/ชา,1,https://img.wongnai.com/p/_-x_/2018/02/08/fda5263db9884357be400490998a2438.jpg,https://www.wongnai.com/restaurants/308832TV
2435385,2435385jW,09Vy0e94ZsGSrMjojs2BUGRVUXbghD,ศาลตาศรีกับยายปทุมกัลยา,,,17.7434606,103.3625896,,อนุสาวรีย์/รูปปั้น,อนุสาวรีย์/รูปปั้น,0,https://img.wongnai.com/p/_-x_/2023/08/14/dcbcddcb584b42b283b6f9fabac53798.jpg,https://www.wongnai.com/restaurants/2435385jW
3638277,3638277bP,09Vyg3OzGVHAZQLuDsgRI3VTmF0auS,สมใจหมูกระทะ,,,17.105353311308203,103.01549216732383,41110,หมูกระทะ,หมูกระทะ,0,https://img.wongnai.com/p/_-x_/2026/01/25/fa0ca41a5def452dbefcbc7e81a65259.jpg,https://www.wongnai.com/restaurants/3638277bP
3287031,3287031dv,09VyVhrWaen10eJyR1U5dCeuHGWqaN,อิชิ สเต็ก คาเฟ่ บ้านดุง อุดรธานี,อิชิ สเต็ก คาเฟ่,ISHI STEAK CAFE,17.686893244228,103.26739466281,41190,สเต๊ก,สเต๊ก,0,https://img.wongnai.com/p/_-x_/2025/06/15/b7950f2b4691486c984140cf1dd6ad66.jpg,https://www.wongnai.com/restaurants/3287031dv
3812078,3812078ww,09VylZ6P4eawmfCceFNEw828qKub5W,Hipster Steak สาขาบ้านดุง,,,17.695321177557723,103.25870918889895,41190,สเต๊ก,สเต๊ก,0,https://img.wongnai.com/p/_-x_/2026/05/26/e081deaadd2949869abffb6d9e352bb7.jpg,https://www.wongnai.com/restaurants/3812078ww
3461955,3461955Xh,09VyafcWYpgsHXbpE3A5JW70MWfsgp,PunThai Coffee ถนน 2023 (ศรีธาตุ),กาแฟพันธุ์ไทย,PunThai Coffee,16.974733,103.214578,,ร้านกาแฟ/ชา,ร้านกาแฟ/ชา,1,https://img.wongnai.com/p/_-x_/2025/12/01/0ccba49016c44b779ac48a49c8b1f73e.jpg,https://www.wongnai.com/restaurants/3461955Xh
3284613,3284613mE,09VyVdTiwpuGtqz4me2BZdSYZZmsXE,ครัวอินดี้,,,17.69791445601107,103.26098000630736,41190,อาหารตามสั่ง,อาหารตามสั่ง,1,https://img.wongnai.com/p/_-x_/deleted/2018/10/31/610e64cff4a940f6882f5026fffd45b8.jpg,https://www.wongnai.com/restaurants/3284613mE
3355912,3355912cX,09VyXd273FcfIfLDavvto4OSfenWkf,ครัวบิ๊กบอส,,,17.695559757803352,103.2575243152678,41190,อาหารจานเดียว,อาหารจานเดียว,1,https://img.wongnai.com/p/_-x_/2026/04/22/31cf95fa929447e1ac1dbc6b72460ebc.jpg,https://www.wongnai.com/restaurants/3355912cX
3356802,3356802zJ,09VyXfSnZv8LDWQIUFlDiiClxuLEcu,บัตเตอร์มิลค์ คาเฟ่,บัตเตอร์มิลค์ คาเฟ่ (หน้าดุงวิทย์),Buttermilk Cafe & Bakery,17.699257209975645,103.26419647743381,41190,ร้านกาแฟ/ชา,ร้านกาแฟ/ชา,1,https://img.wongnai.com/p/_-x_/2025/07/25/856e5e30d9b94a0c802352340d7f7d36.jpg,https://www.wongnai.com/restaurants/3356802zJ
3321337,3321337Bb,09VyWfgmkVax1rycpndxJGtvv9vvfp,กาแฟหน้าบ้าน ข้างซีเจ.มอล กุมภวาปี,,NaaBarn® Coffee,17.10716146216083,103.01911761825062,41110,คาเฟ่|ร้านกาแฟ/ชา|ของหวาน,คาเฟ่,1,https://img.wongnai.com/p/_-x_/2026/02/09/7cafb15f3b404a72872f6ac9224c90c1.jpg,https://www.wongnai.com/restaurants/3321337Bb
3319800,3319800Wc,09VyWd0ggY5QFg0fHck3X5FAUz5V4x,หนุมานค๊อฟฟี่ กุมภวาปี,หนุมานค๊อฟฟี่,HANUMAN COFFEE,17.108792595097,103.01528549483,41110,คาเฟ่,คาเฟ่,1,https://img.wongnai.com/p/_-x_/2025/07/26/3159925584a94158b32e8aba780732e9.jpg,https://www.wongnai.com/restaurants/3319800Wc
3334165,3334165qH,09VyX266lcxBTiunzNj4QtrmX4CKbK,โมเน่ โมเน่ สาขา เซ็นทรัลขอนแก่น แคมปัส,โมเน่,Monnaie,17.4294081,102.989615,40000,เบเกอรี/เค้ก,เบเกอรี/เค้ก,1,https://img.wongnai.com/p/_-x_/2026/05/08/9daf6983d09040f299145cb177259d1e.jpg,https://www.wongnai.com/restaurants/3334165qH
3337137,3337137vS,09VyX7rPXtlTAMwEla3L4nwpLuxcka,ก๋วยเตี๋ยวแม่ย่านางหมู่8 หลังโรงเรียนเทพปัญญา,,,17.114494581156766,103.01205845436427,41110,ก๋วยเตี๋ยว,ก๋วยเตี๋ยว,1,https://img.wongnai.com/p/_-x_/2025/07/21/ccf8910422ba43609ef71acd80819964.jpg,https://www.wongnai.com/restaurants/3337137vS
3333107,3333107Vt,09VyWzeK5hJmuusGhvy6GOGCcNOvhC,ร้านน้ำปั่นหน้าสวน(มะพร้าวปั่น),,,17.695534524743806,103.2639049552381,41190,ร้านกาแฟ/ชา,ร้านกาแฟ/ชา,1,https://img.wongnai.com/p/_-x_/2025/07/10/93bc85d04ddc4338954bc93be7677149.jpg,https://www.wongnai.com/restaurants/3333107Vt
2244867,2244867YZ,09VxvS4E36FhibhagRofiAKzfhzH67,ดูดนมอมไข่มุก สาขาหลัก สาขาหลัก,ดูดนมอมไข่มุก สาขาหลัก,,16.9551657,103.4245678,,ชานมไข่มุก,ชานมไข่มุก,1,https://img.wongnai.com/p/_-x_/2023/04/28/99567a2167d5482a929810aa3c1585f3.jpg,https://www.wongnai.com/restaurants/2244867YZ
3290880,3290880Yc,09VyVnyW0uGl4qtkDIZFqhKhl6FWBP,นายเปิ้ล ลูกชิ้นปลาระเบิด part 3 สาขาที่ 7,,,17.688964409834966,103.26783807948232,41190,อื่นๆ,อื่นๆ,0,https://img.wongnai.com/p/_-x_/2025/06/15/2160492248604522ac7e6c75fc0d973e.jpg,https://www.wongnai.com/restaurants/3290880Yc
1960125,1960125mu,09VxncjQGXb7kEsjNcrGizetaRzRYU,ร้านขนมจีนชาววัง,,,17.362943262547727,103.12537408421666,41130,อาหารไทย,อาหารไทย,1,https://img.wongnai.com/p/_-x_/2022/10/18/45a299328b97488db63c379aa23ac590.jpg,https://www.wongnai.com/restaurants/1960125mu
3315726,3315726pX,09VyWWb6VQNntwxWYkwfr79k1liOmu,ร้านลูกชิ้น-เกี๊ยวทอด TP กุมภวาปี,,,17.135141474610435,103.0150146320562,41110,อาหารจานเดียว,อาหารจานเดียว,1,https://img.wongnai.com/p/_-x_/2025/07/23/08b659e0a8e7417abf53c389bce69c4a.jpg,https://www.wongnai.com/restaurants/3315726pX
3322556,3322556bY,09VyWhyDkSOSxujQERXXDutQ2gGBhs,Rakkii Ban Kapow & Matcha (รักกิบ้านกะเพรา&มัทฉะ),,,17.107380696329525,103.01902744996427,41110,อาหารตามสั่ง,อาหารตามสั่ง,1,https://img.wongnai.com/p/_-x_/2025/07/04/985b171e34104897b258ebd456ee4026.jpg,https://www.wongnai.com/restaurants/3322556bY
3324131,3324131zi,09VyWkv7H0JarHBzc9cEgFpxh1JH5q,Rosnor cafe,,,17.110821965870482,103.01370372450151,41110,คาเฟ่,คาเฟ่,1,https://img.wongnai.com/p/_-x_/2025/07/09/384d66494a9146dc97605e89b8befc77.jpg,https://www.wongnai.com/restaurants/3324131zi
3372752,3372752yI,09VyYASEkxbEw2EBj7Ega81K6y9h9r,น็อต ทะลุฟ้า ชานมไข่มุก(บ้านท่าเปลือย),,,17.096994941128422,103.02666015225776,41110,ร้านกาแฟ/ชา,ร้านกาแฟ/ชา,1,https://img.wongnai.com/p/_-x_/2025/08/05/60f4107e652240e5a920c9502df298cf.jpg,https://www.wongnai.com/restaurants/3372752yI
3298088,3298088Ij,09VyVzXA8wAdkl6doaa1oa1un8dmbg,ร้านเด็ดใบชา & กาแฟสด บ้านดุง,,Delicious Tea Leaves & Fresh Coffee,17.69722325166078,103.26001474633813,41190,อาหารตามสั่ง|ชานมไข่มุก|ร้านกาแฟ/ชา,อาหารตามสั่ง,1,https://img.wongnai.com/p/_-x_/2025/06/19/1b271cc9dcee4dccb0d9ba2e6dcf702a.jpg,https://www.wongnai.com/restaurants/3298088Ij
3322755,3322755iG,09VyWiBNDkXuW9J9yZUzRTgResmUbs,ไคฮวดคอนเนอร์ - ถ.ยิ้มประสิทธิ์,,,17.10813837055721,103.01545836440039,41110,คาเฟ่,คาเฟ่,1,https://img.wongnai.com/p/_-x_/2025/08/15/ce138fe02270486f879ebf934f186e2b.jpg,https://www.wongnai.com/restaurants/3322755iG
3362674,3362674kh,09VyXtgz9QXI1a4yO8lBgcxoUDkKow,ส้มตำครกแตก บ้านดุง,,Pestle Papaya Salad,17.6865484288545,103.26044167186392,41190,อาหารอีสาน/ร้านส้มตำ|อาหารจานเดียว,อาหารอีสาน/ร้านส้มตำ,1,https://img.wongnai.com/p/_-x_/2025/07/30/f4bec8ca1ab3488bb80a7172e408c03f.jpg,https://www.wongnai.com/restaurants/3362674kh
3321715,3321715AT,09VyWfxsorDGTZkLlV0psvxHeESj3X,ลูกชิ้นทอด หน้า รพ. กุมภวาปี,,,17.105273188917483,103.0191481909951,41110,สตรีทฟู้ด/รถเข็น,สตรีทฟู้ด/รถเข็น,0,https://img.wongnai.com/p/_-x_/2025/07/11/46004b0f97db4089be63e9eb9a2fd0b2.jpg,https://www.wongnai.com/restaurants/3321715AT
3326151,3326151xd,09VyWnxnmZ4dxT9oufkF4OaVN6CKPu,คักเติบ - ริมปาว,,,17.098503142200997,103.02863706728367,41110,อาหารตามสั่ง,อาหารตามสั่ง,1,https://img.wongnai.com/p/_-x_/2026/02/22/546d41592aaa42aa8f5d37e8de95729a.jpg,https://www.wongnai.com/restaurants/3326151xd
3324468,3324468Hk,09VyWlIHQCBhASCs1lomb2xEaTy0vD,กงสัน หม่าล่า - กุมภวาปี,,,17.103765363031048,103.01069687245247,41110,ปิ้งย่าง,ปิ้งย่าง,1,https://img.wongnai.com/p/_-x_/2025/07/07/d8e62dceb6034a92b779948f849d2c26.jpg,https://www.wongnai.com/restaurants/3324468Hk
3325974,3325974bH,09VyWnlhWjWhX0ugbm7iXrIglJpHWo,ส้มตำเจ๊กุ้ง - ยิ้มประสิทธิ์,,,17.10357704814332,103.01542886626181,41110,อาหารอีสาน/ร้านส้มตำ,อาหารอีสาน/ร้านส้มตำ,1,https://img.wongnai.com/p/_-x_/2025/07/07/f132851a1dc34e069dca8addc1a8ad13.jpg,https://www.wongnai.com/restaurants/3325974bH
3319881,3319881Sb,09VyWd6QYvszXvtFZIoyOtKo8fEn5O,ตำเตี๋ยวป่ะ ถนนศศิกาญจน์,,,17.109121909772504,103.01539238792314,41110,ก๋วยเตี๋ยว,ก๋วยเตี๋ยว,1,https://img.wongnai.com/p/_-x_/2025/07/02/c177c28d59f34d46b65ca02eed623bdd.jpg,https://www.wongnai.com/restaurants/3319881Sb
3327205,3327205La,09VyWqKvVwcsDheEj1gNFya93Hasds,ณ กุมภวาคาเฟ่,,At Kumphawa Cafe,17.105312696673995,103.0182752945489,41110,คาเฟ่,คาเฟ่,1,https://img.wongnai.com/p/_-x_/2025/07/07/0d5fcdac65904411a3e417f0b0d269b0.jpg,https://www.wongnai.com/restaurants/3327205La
3324345,3324345nu,09VyWlAMbgSd17oPGVxhh7WTGmhBi5,นมเขา - ถนนจำปี,,,17.106746895182216,103.01030067083589,41110,ร้านกาแฟ/ชา,ร้านกาแฟ/ชา,1,https://img.wongnai.com/p/_-x_/2025/07/24/fdb3b91316944a65aad170fe92dde81e.jpg,https://www.wongnai.com/restaurants/3324345nu
3326091,3326091gi,09VyWntclBF61xDcqK7BZ824y3Z6Z2,แซ่บ P&K - กุมภวาปี,,,17.099359284203377,103.00255248131951,41110,อาหารตามสั่ง,อาหารตามสั่ง,1,https://img.wongnai.com/p/_-x_/2025/07/06/4c7ce99e1c214959a86ccdc41204f37b.jpg,https://www.wongnai.com/restaurants/3326091gi
3319976,3319976cd,09VyWdD82N86YsWizvUdEstPqfmSjB,เจ๊ณี อาหารตามสั่ง - กุมภวาปี,,,17.11253596193963,103.00409357053836,41110,อาหารตามสั่ง,อาหารตามสั่ง,1,https://img.wongnai.com/p/_-x_/2025/07/04/98b58a63ae944b45968cdd785a8ae66b.jpg,https://www.wongnai.com/restaurants/3319976cd
3327298,3327298bN,09VyWqPnfeNV8tvEfdhOPF48rg0kVV,Kim's,,,17.10561132626391,103.01905947262948,41110,คาเฟ่,คาเฟ่,1,https://img.wongnai.com/p/_-x_/2025/07/15/5ecd2e6cbc09447793eb4c9409e00eca.jpg,https://www.wongnai.com/restaurants/3327298bN
3293972,3293972SJ,09VyVtSB8PGrYlcoBY07IBknoOEuFq,คุณกาแฟสด,,,17.698748425604286,103.25768860056996,41190,ร้านกาแฟ/ชา,ร้านกาแฟ/ชา,1,https://img.wongnai.com/p/_-x_/2025/06/19/5d6161c3944c48d6a2c6394a40b07004.jpg,https://www.wongnai.com/restaurants/3293972SJ
3327375,3327375xf,09VyWqT2p9svcStmgQSIaUM3ZOOYhj,ชีอร คาเฟ่,,,17.10993229878646,103.03245663652496,41110,คาเฟ่,คาเฟ่,1,https://img.wongnai.com/p/_-x_/2025/07/07/3452a34cd5ce46f8831725985c2c6b13.jpg,https://www.wongnai.com/restaurants/3327375xf
3290404,3290404jS,09VyVnfIEBiWFqkLQaZCzosBqxbfGv,ข้าวนิ่ม แกงอร่อย,,,17.7037175,103.2539536,41190,อาหารตามสั่ง,อาหารตามสั่ง,1,https://img.wongnai.com/p/_-x_/2025/07/11/0bcc029a51574193996d32664de72467.jpg,https://www.wongnai.com/restaurants/3290404jS
3322674,3322674RT,09VyWi7AlUaHEN46Q31ppemOmTsDcf,อันจ๋าว อาหารเวียดนาม,,,17.10831626193696,103.01532430643076,41110,อาหารเวียดนาม,อาหารเวียดนาม,1,https://img.wongnai.com/p/_-x_/2025/07/04/ad0d50f9d05746dfb8cc19f3a42dcb8b.jpg,https://www.wongnai.com/restaurants/3322674RT
3322922,3322922Ik,09VyWiI9LpXE7U9UQD0LmJy4zrbsMf,Buy me cafe - ถนนแชแล,,,17.110042810868503,103.01643446169095,41110,คาเฟ่,คาเฟ่,1,https://img.wongnai.com/p/_-x_/2025/07/08/5efa7e1a71014cefa05c6ec89b0138d0.jpg,https://www.wongnai.com/restaurants/3322922Ik
3320860,3320860ZW,09VyWfFNLsHjDniFj5tGlCr9zsBWGV,ตำแหลกแซ่บเวอร์ - กุมภวาปี,,,17.110242303476753,103.01276561813717,41110,อาหารอีสาน/ร้านส้มตำ,อาหารอีสาน/ร้านส้มตำ,1,https://img.wongnai.com/p/_-x_/2025/07/12/033c30df59144e3cadb601d3d3737e83.jpg,https://www.wongnai.com/restaurants/3320860ZW
3324552,3324552sO,09VyWlO6qfvnP2HW0ErqIe2akGIHdd,ครัวกุ๊กอ้วน - ถนนอุ่มจาน,,,17.112906590431574,103.01101836937045,41110,อาหารตามสั่ง,อาหารตามสั่ง,1,https://img.wongnai.com/p/_-x_/2025/07/07/51fcd0e072794f50a866d0421f0fb099.jpg,https://www.wongnai.com/restaurants/3324552sO
3324428,3324428qt,09VyWlFDPm6lADBS6ajxtDJkhFmQt9,ฮักแฮง,,,17.103866152571218,103.01099447580158,41110,ร้านกาแฟ/ชา,ร้านกาแฟ/ชา,1,https://img.wongnai.com/p/_-x_/2025/07/06/d3505506e1da40dca23722fa062f9f51.jpg,https://www.wongnai.com/restaurants/3324428qt
3319382,3319382oL,09VyWcf2cZXouhaRAURlQMLNUWrVw3,เฮียวิศสเต๊ก 49 (ของดีแม่กลอง),,,17.108175829068855,103.01906436691344,41110,สเต๊ก,สเต๊ก,0,https://img.wongnai.com/p/_-x_/2025/07/03/ba378edaa77d443cb1cbb4c69ea49c74.jpg,https://www.wongnai.com/restaurants/3319382oL
3321164,3321164hz,09VyWfVEHFGo8PigIf5Xj9GknCAEpm,ตำตุ๊ปุ๊กุมภวาปี - ตำบลกุมภวาปี,,,17.108144509279022,103.01915517193402,41110,อาหารอีสาน/ร้านส้มตำ,อาหารอีสาน/ร้านส้มตำ,1,https://img.wongnai.com/p/_-x_/2025/07/04/a8221b0a257b4ac8af7bf96fcc94b1ac.jpg,https://www.wongnai.com/restaurants/3321164hz
2856600,2856600Fi,09VyGWtaX9m1XJVRZbcPErUMRQavIi,ก๋วยเตี๋ยว ตามสั่ง,,,17.741265,103.224672,,อาหารตามสั่ง,อาหารตามสั่ง,1,https://img.wongnai.com/p/_-x_/2024/07/14/0d9db0d7953e467ba4897ffb938a75b3.jpg,https://www.wongnai.com/restaurants/2856600Fi
3311841,3311841XZ,09VyWONH10AqR4Yckyz0CjwdoLaLAr,Saniki Sushi บ้านดุง,,,17.698018381383218,103.25675548398384,41190,อาหารญี่ปุ่น,อาหารญี่ปุ่น,1,https://img.wongnai.com/p/_-x_/2025/08/06/5f69f2a6446d42019e9f584b6fd88299.jpg,https://www.wongnai.com/restaurants/3311841XZ
3319697,3319697gj,09VyWctfazgkPxruFN6enq2BOhZaRC,ข้าวแกงปัตตานี - เวียงคำ,,,17.110777980744047,103.02531862698261,41110,อาหารใต้,อาหารใต้,1,https://img.wongnai.com/p/_-x_/2025/07/04/3d8699528e4f4691a7a6899e338c6543.jpg,https://www.wongnai.com/restaurants/3319697gj
3323114,3323114LS,09VyWiRJHNO53pTdiij0uu5QYelyCu,ก๋วยเตี๋ยวยายแสงกาแฟสด by พี่โอ๋,,,17.106817541659915,103.01835224042001,41110,ร้านกาแฟ/ชา,ร้านกาแฟ/ชา,1,https://img.wongnai.com/p/_-x_/2025/07/08/06abc520fb8c49d9b2f5ffa5190dc9aa.jpg,https://www.wongnai.com/restaurants/3323114LS
3321587,3321587aK,09VyWfvB1m9pg8gwUYybm1XyI6woNJ,ข้าวยำไก่แซ่บน้องมิลินท์,,,17.10525172267534,103.01903704181314,41110,ฟาสต์ฟู้ด/จานด่วน,ฟาสต์ฟู้ด/จานด่วน,1,https://img.wongnai.com/p/_-x_/2025/07/03/d67095726dac488796b698dd7ebea1bd.jpg,https://www.wongnai.com/restaurants/3321587aK
3334417,3334417ev,09VyX2L87F2RFITjMWjU6Sx0DWSpvQ,Monnaie โมเน่ ขอนแก่น,Monnaie,,17.4294081,102.989615,,เบเกอรี/เค้ก,เบเกอรี/เค้ก,1,https://img.wongnai.com/p/_-x_/2025/08/05/5cd406989f784cbb98d4f5e6df3671cf.jpg,https://www.wongnai.com/restaurants/3334417ev
2407638,2407638Fd,09VxzmU3aKErCPicdEp1tWHvn2qFXX,โออิชา ICHA (สาขาอุดร) สาาอุดร,,,17.111631042612373,103.01840102300048,48000,ร้านกาแฟ/ชา,ร้านกาแฟ/ชา,1,https://img.wongnai.com/p/_-x_/2023/07/12/16905ceaab9743578f0ee46b4cc070b8.jpg,https://www.wongnai.com/restaurants/2407638Fd
3286262,3286262WP,09VyVg15ARlAR31KK08y6c3J3S38p4,ครัวขุนพล ลาบก้อย,,,17.6826762,103.2555695,41190,อาหารอีสาน/ร้านส้มตำ,อาหารอีสาน/ร้านส้มตำ,1,https://img.wongnai.com/p/_-x_/2025/06/24/da31c1b12c8d4fa1bd76b5e02eb91485.jpg,https://www.wongnai.com/restaurants/3286262WP
3290406,3290406Xz,09VyVnfcJChaucbTzaxAxIhWlAFgsa,ข้าวนิ่ม แกงอร่อย ค้อยประดู่,,,17.703634327498495,103.25371557846665,41190,ก๋วยเตี๋ยว,ก๋วยเตี๋ยว,1,https://img.wongnai.com/p/_-x_/2025/08/13/76805cdb38b54dabb16743cde8cc80c0.jpg,https://www.wongnai.com/restaurants/3290406Xz
3297855,3297855gl,09VyVzHqggnPOLBKjTvCfAghFGulUQ,บาริสทีโร คาเฟ่ ( BARISTEARO CAFE ),บาริสทีโร คาเฟ่,BARISTEARO CAFE,17.688628691697453,103.25714578852057,41190,ร้านกาแฟ/ชา,ร้านกาแฟ/ชา,1,https://img.wongnai.com/p/_-x_/2025/06/24/ac3552d2319648f8810453c072dc8d8d.jpg,https://www.wongnai.com/restaurants/3297855gl
3197619,3197619Xu,09VySrYzs6ycR8CoSeV8a68MEAN1Uu,บ้านกะเพรา byยำกะตำ,บ้านกะเพรา byยำกะตำ,,17.703046951286485,103.25702039524913,41190,ก๋วยเตี๋ยว,ก๋วยเตี๋ยว,1,https://img.wongnai.com/p/_-x_/deleted/2017/11/04/1aba937ae608434ca66969023431358b.jpg,https://www.wongnai.com/restaurants/3197619Xu
3290913,3290913si,09VyVo1QfNP1mQoLEvKk2aRfNcmbjG,เถื่อนขายเครป&น้ำ,,,17.698423751573205,103.25785548246101,49110,ของหวาน,ของหวาน,1,https://img.wongnai.com/p/_-x_/2025/06/18/9d06a5d501d249a68756b7125e477604.jpg,https://www.wongnai.com/restaurants/3290913si
3290414,3290414Wg,09VyVnfqBrWYWZtfQsSjdRYBELKtsF,ข้าวนิ่ม แกงอร่อย,,,17.7037175,103.2539536,41190,ร้านกาแฟ/ชา,ร้านกาแฟ/ชา,1,https://img.wongnai.com/p/_-x_/2025/07/11/05b2f34fccca40b495ad7065fff3db02.jpg,https://www.wongnai.com/restaurants/3290414Wg
3283556,3283556sS,09VyVcXyNEYFGGyETTKcgkNwGVlsbr,ร้านต้องลอง2,,Isaan Kitchen Must Try,17.69759345044556,103.25903641059995,41190,อาหารอีสาน/ร้านส้มตำ,อาหารอีสาน/ร้านส้มตำ,1,https://img.wongnai.com/p/_-x_/2025/11/28/b97dddc990ce459d8c57a48d18f8b51b.jpg,https://www.wongnai.com/restaurants/3283556sS
3284619,3284619JV,09VyVdTtXxTfHzhKABCET3rZeoqWEn,ก๋วยเตี๋ยวคุณแชมป์,,,17.697910621714797,103.26096257194877,41190,ก๋วยเตี๋ยว,ก๋วยเตี๋ยว,1,https://img.wongnai.com/p/_-x_/deleted/2017/11/04/1aba937ae608434ca66969023431358b.jpg,https://www.wongnai.com/restaurants/3284619JV
3298076,3298076tK,09VyVzWWN1db29LiG6fJkioCzH4GHG,พิซซ่าชีสเฮาส์,,Milk Stuck,17.696930356469032,103.258933480829,41190,ชานมไข่มุก,ชานมไข่มุก,1,https://img.wongnai.com/p/_-x_/2025/06/19/9678ee0eb5774da6ae894660c591b663.jpg,https://www.wongnai.com/restaurants/3298076tK
512150,512150Zo,09Vx6hGN013ULTYUjeBkoyXZdHfCrm,บ้านข้าวหอม,บ้านข้าวหอม,,17.3638219,103.1070185,,อาหารไทย|ร้านกาแฟ/ชา|อาหารฟิวชั่น,อาหารไทย,1,https://img.wongnai.com/p/_-x_/2021/01/07/83f0185b63744dd9ad55dac067888984.jpg,https://www.wongnai.com/restaurants/512150Zo
3286912,3286912dw,09VyVhhaQKUiwspmczuD9L0WwjJB8K,ส.สันต์ ตามสั่ง,,,17.666036269971595,103.24759678915143,41190,อาหารตามสั่ง,อาหารตามสั่ง,1,https://img.wongnai.com/p/_-x_/2025/06/15/a44b44c9363145b09e5d0860280e8b1e.jpg,https://www.wongnai.com/restaurants/3286912dw
3290817,3290817rG,09VyVnuj5ZAcBFx6BdVXXBzvrSlUk3,292 หน้าบ้าน,,,17.69397386871383,103.25803762301803,41190,อาหารตามสั่ง,อาหารตามสั่ง,1,https://img.wongnai.com/p/_-x_/2025/06/18/8f9cafaed3874aca97a476ebfd69a3fe.jpg,https://www.wongnai.com/restaurants/3290817rG
1552422,1552422QY,09VxeUrirBbr1uUQpZZOqkVI9rLGkg,วัดศรีดาราม,,,17.5197335,103.2068773,,วัด,วัด,0,https://img.wongnai.com/p/_-x_/2022/05/07/de00e06a062f4d76ac4daa096ccec41e.jpg,https://www.wongnai.com/restaurants/1552422QY
3168414,3168414wu,09VyRvP9a9oEahWwIH6kvBSH64vvUI,ลองรันคอฟฟี่,,,17.696317084156018,103.26031750068069,41190,ร้านกาแฟ/ชา,ร้านกาแฟ/ชา,1,https://img.wongnai.com/p/_-x_/2026/03/14/3eb5b1a8b19645fb8b6b44745f1cf759.jpg,https://www.wongnai.com/restaurants/3168414wu
3306973,3306973Cq,09VyWFtlCvKS3w3Cb678o4A9ZSTanm,เดสึชา DESU CHA-สาขาหน้ามินิบิ๊กซีบ้านดุง,,,17.696525908529928,103.25897597902046,41190,ชานมไข่มุก,ชานมไข่มุก,1,https://img.wongnai.com/p/_-x_/2025/09/12/62096149b9bb46648475753a7ef212bf.jpg,https://www.wongnai.com/restaurants/3306973Cq
3290813,3290813Hs,09VyVnuXTztyVzEaSlcWqMYHFttYsF,อ้อยหวาน,,,17.69397386871383,103.25803762301803,41190,ก๋วยเตี๋ยว,ก๋วยเตี๋ยว,1,https://img.wongnai.com/p/_-x_/2025/06/14/cbeface921344f46b2b9b9dfa82b754d.jpg,https://www.wongnai.com/restaurants/3290813Hs
3319553,3319553GL,09VyWckePIOqACOatM6ghK2bIi0YCY,เรือนโมเมย์เรสเตอรอง - ถนนจิตประสงค์ อำเภอกุมภวาปี,,,17.109151817872643,103.01909764306914,41110,อาหารตามสั่ง,อาหารตามสั่ง,1,https://img.wongnai.com/p/_-x_/2025/07/02/33a86d48fbd3497ea11efad462fb9d96.jpg,https://www.wongnai.com/restaurants/3319553GL
2389814,2389814FF,09VxzINDIXhi8SNvaWuWpP8lq9Pr8m,ร้านต้องลอง,,Must Try Shop,17.697888260125232,103.25890867039561,41190,อาหารอีสาน/ร้านส้มตำ,อาหารอีสาน/ร้านส้มตำ,1,https://img.wongnai.com/p/_-x_/2025/06/21/6b924de7d8664e80a5853731cec14b3a.jpg,https://www.wongnai.com/restaurants/2389814FF
3294188,3294188rg,09VyVtaVY7DvBAFVnafVN8EEm2w40h,หมุอินเตอร์ กุมภวาปี,,,17.110276999999968,103.01522699999998,41110,เนื้อสด,เนื้อสด,0,https://img.wongnai.com/p/_-x_/deleted/2021/07/27/ab91431965d449e5b8ba277fc5673f3c.jpg,https://www.wongnai.com/restaurants/3294188rg
38238,38238sJ,09VwpBTRISR2vNrA8KfNyuKKE6aQVv,เฟื่องฟ้า,,,17.68914792029558,102.48141959309577,41160,อาหารตามสั่ง,อาหารตามสั่ง,1,https://img.wongnai.com/p/_-x_/deleted/2018/10/31/610e64cff4a940f6882f5026fffd45b8.jpg,https://www.wongnai.com/restaurants/38238sJ
3294214,3294214YJ,09VyVtbE2EWCNjZJDDPt6DqHpl9uVV,ร้านไก่ย่างวิเชียร(หลังโรงพัก),,,17.7016533,103.2574631,41190,อาหารอีสาน/ร้านส้มตำ,อาหารอีสาน/ร้านส้มตำ,1,https://img.wongnai.com/p/_-x_/2025/06/29/cbd777ae366e45139b7737c6dd1c805c.jpg,https://www.wongnai.com/restaurants/3294214YJ
3286243,3286243TA,09VyVfzkIfgMZf9pcRtsbb4ggLJWLS,ต.เตี๋ยวตุ๋นxกะเพราพริกแห้ง♨️,,T. Tiew Tun x Kra Prow Prik Haeng,17.6826538,103.2556559,41190,ก๋วยเตี๋ยว|ร้านกาแฟ/ชา|อาหารตามสั่ง,ก๋วยเตี๋ยว,1,https://img.wongnai.com/p/_-x_/2025/06/18/28bf0a0d650740799f899d1ea0def1e5.jpg,https://www.wongnai.com/restaurants/3286243TA
3292241,3292241ms,09VyVqk09I4h31aMB3pSrqYd5atj6d,เดอะ วิคเตอร์ คาเฟ่ - ถนนวิญญู,,,17.696200843801684,103.25767074918193,41190,คาเฟ่,คาเฟ่,1,https://img.wongnai.com/p/_-x_/2025/06/18/18c1b0e7d3af4f7cbb3a914e6489d49d.jpg,https://www.wongnai.com/restaurants/3292241ms
3319849,3319849Ul,09VyWd3WVT6ltdR2BKLLvmV1Gl6j3A,มากินนี่ หมูกระทะ,,,17.10935667665907,103.01542026026353,41110,หมูกระทะ,หมูกระทะ,0,https://img.wongnai.com/p/_-x_/2025/07/05/c70fb49fb9844f288d234e88263bb618.jpg,https://www.wongnai.com/restaurants/3319849Ul
3285674,3285674Iq,09VyVfT0OeyGjHhp6AXKEIYwVWoYa5,สกาย คอฟฟี่,,,17.679823399999986,103.2537433,41190,ร้านกาแฟ/ชา,ร้านกาแฟ/ชา,1,https://img.wongnai.com/p/_-x_/2025/06/20/53776e5ae41045569d9aa728e936ff12.jpg,https://www.wongnai.com/restaurants/3285674Iq
3292194,3292194Vh,09VyVqfewZ420V7nhYsYPjhUGh3c0Y,ชาตาโต บิ๊กซีบ้านดุง .,,,17.67513280278975,103.25134785845876,41190,ร้านกาแฟ/ชา,ร้านกาแฟ/ชา,1,https://img.wongnai.com/p/_-x_/2025/06/29/fc1a1b2f85e8496787fa934ccb98eaad.jpg,https://www.wongnai.com/restaurants/3292194Vh
3292113,3292113IU,09VyVqajSkB2QWV703KuhAoRsRRp6I,แอนนา คาเฟ่,,,17.6804639,103.2329788,41190,คาเฟ่,คาเฟ่,1,https://img.wongnai.com/p/_-x_/2025/06/19/0fa7081dc13c4bec802c8adae52e19d9.jpg,https://www.wongnai.com/restaurants/3292113IU
3287592,3287592Dg,09VyViNakj9oVBh7CNZI9BXCvLXvgm,ครัวคุณเล็ก,,,17.684109212103145,103.25912175704504,41190,อาหารตามสั่ง,อาหารตามสั่ง,1,https://img.wongnai.com/p/_-x_/2025/06/18/c25b9854b5eb49759c5c75a5a1819d38.jpg,https://www.wongnai.com/restaurants/3287592Dg
3286983,3286983Hx,09VyVhnwr27GxTPy53tGx6u3MV5x8D,ครัวอัฑฒ์แลนด์,,,17.685504689315877,103.26079661026597,49110,อาหารตามสั่ง,อาหารตามสั่ง,1,https://img.wongnai.com/p/_-x_/2025/06/16/82bd26d975a54c809dd9ea4e1f857cda.jpg,https://www.wongnai.com/restaurants/3286983Hx
3285864,3285864hI,09VyVfaAum5edqDUUWUH0fExboDrqD,แบล็ควนิลา คาเฟ่,แบล็ควนิลา,Black Vanilla,17.6923636,103.2563181,41190,ร้านกาแฟ/ชา|เครื่องดื่ม/น้ำผลไม้,ร้านกาแฟ/ชา,1,https://img.wongnai.com/p/_-x_/2025/06/15/e7b39c97f08e4a1c8c1e1bda70a3f469.jpg,https://www.wongnai.com/restaurants/3285864hI
3287085,3287085gW,09VyVhvhkDOlr9WaH3Dmw4Hih43lLm,แคนดี้บี ค๊อฟฟี่,,,17.69007216864668,103.25559312477708,41190,อาหารตามสั่ง,อาหารตามสั่ง,1,https://img.wongnai.com/p/_-x_/2025/06/12/cf775d492abd4d41bcc90b603a92cd04.jpg,https://www.wongnai.com/restaurants/3287085gW
3290763,3290763QW,09VyVnrIGUNRpvtny9IuCfF9DA2KfU,ยำ กะ ตำเหลา,,,17.69715664773442,103.25584374240667,41190,อาหารอีสาน/ร้านส้มตำ,อาหารอีสาน/ร้านส้มตำ,1,https://img.wongnai.com/p/_-x_/2025/06/17/66e9020e3fd44d369fa68b0d4bc4c0b4.jpg,https://www.wongnai.com/restaurants/3290763QW
3287089,3287089xI,09VyVhvyClCRyqtezPcHRUNDmDYSyt,ครัวคุณแม่,ครัวคุณแม่,,17.689931616950425,103.25551064684987,41190,อาหารไทย,อาหารไทย,1,https://img.wongnai.com/p/_-x_/2025/06/12/0a5f8bb6ddd04913b5be08d9beb556b8.jpg,https://www.wongnai.com/restaurants/3287089xI
3286044,3286044wW,09VyVfjV33IQkZbvM18NQUoyug5DN8,โลโซโตเกียว,,,17.697965,103.2606747,41190,ของหวาน,ของหวาน,1,https://img.wongnai.com/p/_-x_/2025/06/29/fa119594df194b6eb86aa835b604e3c8.jpg,https://www.wongnai.com/restaurants/3286044wW
3285965,3285965BD,09VyVfeafk3y7TaNmd1h4OLnqlZGAz,500/20 Specialty coffee,,,17.698195851583872,103.25814357027411,41190,ร้านกาแฟ/ชา,ร้านกาแฟ/ชา,1,https://img.wongnai.com/p/_-x_/2025/06/18/c191c652e76148fabb5681d46e83765b.jpg,https://www.wongnai.com/restaurants/3285965BD
3222383,3222383Vv,09VyTkS94ZO99IBIc8vv5vVbvsazev,มาธอนคาเฟ่ บ้านดุง,,,17.69613129026429,103.26068148878277,41190,อาหารกล่อง/ข้าวกล่อง เดลิเวอรี,อาหารกล่อง/ข้าวกล่อง เดลิเวอรี,1,https://img.wongnai.com/p/_-x_/2025/04/30/cfffefcc6bba476c9327d2036788d4e1.jpg,https://www.wongnai.com/restaurants/3222383Vv
3285766,3285766CK,09VyVfVafYBN14EydQCm9Y1bjLx5op,ครัวคุณแก้ว,,,17.6796332,103.2534651,41190,อาหารตามสั่ง,อาหารตามสั่ง,1,https://img.wongnai.com/p/_-x_/2025/06/28/1b5716a9cc2a4bdeb6f0b6d5e03f4f0d.jpg,https://www.wongnai.com/restaurants/3285766CK
3285355,3285355kv,09VyVfFgptd5JvJbLD5YS7XUuQHYPK,กระเพราถาดบ้านดุง,,,17.6875195,103.2567133,41190,อาหารตามสั่ง,อาหารตามสั่ง,1,https://img.wongnai.com/p/_-x_/2025/06/17/93d45681215c409293db9d9483db56d8.jpg,https://www.wongnai.com/restaurants/3285355kv
3283906,3283906qj,09VyVclktvKXkGsC198P0ekNI3znAG,ครัวอินดี้,,,17.69790998353416,103.26092233881354,41190,อาหารอีสาน/ร้านส้มตำ,อาหารอีสาน/ร้านส้มตำ,1,https://img.wongnai.com/p/_-x_/2025/06/15/cb9a7f96241245ceae2ec169216d32d9.jpg,https://www.wongnai.com/restaurants/3283906qj
187497,187497So,09VwpBTRRvnu7hB4gXC1mKDrFoLAIo,Green Park Boutique Hotel,,,17.958783,102.621203,43130,บุฟเฟ่ต์|อาหารเช้า,บุฟเฟ่ต์,1,https://img.wongnai.com/p/_-x_/2015/02/13/42f040a491a942d5a336dd40e5eb6f00.jpg,https://www.wongnai.com/restaurants/187497So
3286092,3286092lV,09VyVfp07DyD8t4BrtJCS82CAi6yTw,ลูกชิ้นทอด กรณ์ กันต์ - บ้านดุง,,,17.68793074710714,103.26167738065124,41190,อื่นๆ,อื่นๆ,0,https://img.wongnai.com/p/_-x_/2025/06/18/597f6eb3131d4c8f88e3071536f4e7cb.jpg,https://www.wongnai.com/restaurants/3286092lV
3097803,3097803Xi,09VyPbzJet3LblhxTi48aM6GrbskB1,ร้านBelieve@กุมภวาปี กุมภวาปี,ร้านBelieve@กุมภวาปี,,17.112413299999996,103.00441740000004,41110,กึ่งผับ/ร้านเหล้า/บาร์,กึ่งผับ/ร้านเหล้า/บาร์,1,https://img.wongnai.com/p/_-x_/2025/02/27/fceec18885f34b17a056383e19f6cd43.jpg,https://www.wongnai.com/restaurants/3097803Xi
3283380,3283380GS,09VyVcUkysoQNV8LxntyWRkdsW21nR,สุชา คาเฟ่,,,17.699732104081072,103.25826831508698,41190,ร้านกาแฟ/ชา,ร้านกาแฟ/ชา,1,https://img.wongnai.com/p/_-x_/2025/06/15/8b64ed3324f841528ff70144d2a2bbe3.jpg,https://www.wongnai.com/restaurants/3283380GS
3303634,3303634nK,09VyWAOdFzb79tDQOAAacb4JBofAgH,Huean Hao 3,เฮือนเฮา,Huean Hao,17.689743165229842,103.25723698362708,41190,อาหารจานเดียว|สตรีทฟู้ด/รถเข็น,อาหารจานเดียว,1,https://img.wongnai.com/p/_-x_/2025/06/22/c13091fe2e5f408ebd6f93192ef278c5.jpg,https://www.wongnai.com/restaurants/3303634nK
3323226,3323226vl,09VyWiZD4Mfo3lmsmeXPCyo9q18jDn,กุ๊กไชยา,,,17.10373128600741,103.01065307795236,41110,อาหารตามสั่ง,อาหารตามสั่ง,1,https://img.wongnai.com/p/_-x_/2025/07/04/b3452c819dc742d99c7f4a84779aa7cf.jpg,https://www.wongnai.com/restaurants/3323226vl
3322942,3322942Rv,09VyWiJ01VmPnODGPRzlODTzgC2lOg,2b and a half,,,17.13106378236692,102.94845491878795,41110,เบเกอรี/เค้ก,เบเกอรี/เค้ก,1,https://img.wongnai.com/p/_-x_/2025/07/09/88e1554ea8034ea4a6a4b817cfe09870.jpg,https://www.wongnai.com/restaurants/3322942Rv
3211372,3211372nu,09VyTQmzgY5fq8svqa3CIxVAU6Jne1,ร้านแจ่วฮ้อนโนนสะอาด,,,17.68407259999999,103.25441820000005,41190,อาหารตามสั่ง|ชาบู/สุกี้ยากี้/หม้อไฟ,อาหารตามสั่ง,1,https://img.wongnai.com/p/_-x_/2025/06/14/59adc162624f4a7b9372cba3a2dbad9b.jpg,https://www.wongnai.com/restaurants/3211372nu
3129719,3129719fp,09VyQi75aYUwokaMS7sg1bxE9Cxnh2,ครัวประจักษ์ ร้านมร@บ้านดุง,,Prajak Kitchen,17.696320912104888,103.25911520048976,41190,อาหารจานเดียว,อาหารจานเดียว,1,https://img.wongnai.com/p/_-x_/2025/02/24/59156c17e2f241aa9c44ade3188f734e.jpg,https://www.wongnai.com/restaurants/3129719fp
3286869,3286869Dc,09VyVheXmlaOkp0G45OIa4KR0v4FoL,ไก่ย่างทองกวาว,,Golden Grilled Chicken,17.664557452020762,103.24728498235345,41190,ปิ้งย่าง,ปิ้งย่าง,1,https://img.wongnai.com/p/_-x_/2025/06/15/cb4cd0a914184c6f8e788b225e558e64.jpg,https://www.wongnai.com/restaurants/3286869Dc
3283322,3283322mG,09VyVcSGmu6BnYhDDHX4urA1uExv0G,ชาวใต้ชาพะยอม,,,17.7006593,103.2584032,41190,ร้านกาแฟ/ชา,ร้านกาแฟ/ชา,1,https://img.wongnai.com/p/_-x_/2025/06/15/4fdfe2704829465fbe02b5e4dedc3777.jpg,https://www.wongnai.com/restaurants/3283322mG
3506534,3506534Un,09VybhVaZePWq8sQAmW0Ybv6C7bxBk,แบงค์กับแกล้ม,,,17.699376058933368,103.27688785269856,41190,ฟาสต์ฟู้ด/จานด่วน,ฟาสต์ฟู้ด/จานด่วน,1,https://img.wongnai.com/p/_-x_/2025/10/22/8c1187d636b748209c47437ecf103902.jpg,https://www.wongnai.com/restaurants/3506534Un
3362566,3362566MI,09VyXtb2ZzgXwignKaNnVnFd7wjXuW,ข้าวมันไก่ The Rock,,,17.69825078877625,103.25811238959432,41190,อาหารจานเดียว,อาหารจานเดียว,1,https://img.wongnai.com/p/_-x_/2025/07/30/3aafb6dff35c4579bbc7a1abf4cb50cd.jpg,https://www.wongnai.com/restaurants/3362566MI
2034540,2034540sQ,09VxpkzH85y9fPzGfIoRHHDgp7VvOR,ร้านยัยอ้อม ขนมไข่เต่า (ไข่นกกระทา) - ตลาดประดู่สาย 1,,,17.472910996587395,103.01427176222205,10170,ของหวาน,ของหวาน,1,https://img.wongnai.com/p/_-x_/2022/12/07/4314f450ac474429816d47aecaf58c75.jpg,https://www.wongnai.com/restaurants/2034540sQ
3293661,3293661jb,09VyVtAeKCXUYv0WOqDhOfwnqJMVUO,ครัวหลังบ้าน💒 ตลาดเทศบาล 1,ตลาดเทศบาล 1,Backyard Kitchen✨,17.69853186317918,103.25732482597232,41190,อาหารกล่อง/ข้าวกล่อง เดลิเวอรี|อาหารตามสั่ง,อาหารกล่อง/ข้าวกล่อง เดลิเวอรี,1,https://img.wongnai.com/p/_-x_/2025/06/16/ddb3bf0ec0a84bf79298a68875e25c36.jpg,https://www.wongnai.com/restaurants/3293661jb
1835403,1835403JA,09VxkjV8b4hs57OuzR2gDfjpTRLysJ,เอกทาโกยากิ,,,17.923049651993914,102.11823336589313,41380,อาหารญี่ปุ่น,อาหารญี่ปุ่น,1,https://img.wongnai.com/p/_-x_/deleted/2017/11/04/09d8204310564a78a1f645c0905210ee.jpg,https://www.wongnai.com/restaurants/1835403JA
3751903,3751903dV,09VyjcTTQ2mwJurBSgcxOhN15w1p8d,ราชาหางหมูกรอบ หมูกรอบ หางหมูกรอบ หมูกรอบบ้านดุงสาขา 3,ราชาหางหมูกรอบ หมูกรอบบ้านดุง,,17.6950295368165,103.25842687860131,41190,อาหารจีน|สตรีทฟู้ด/รถเข็น,อาหารจีน,1,https://img.wongnai.com/p/_-x_/2026/04/14/e2cf29b530394ab9ae5d94d6b8dcca7d.jpg,https://www.wongnai.com/restaurants/3751903dV
2354007,2354007zQ,09VxyMxyor5AO8UgtrbY0gfLDnl19u,ปังนึ่งไส้ทะลัก,,,16.94833126664969,103.43390805646777,20230,สตรีทฟู้ด/รถเข็น,สตรีทฟู้ด/รถเข็น,0,https://img.wongnai.com/p/_-x_/2023/06/11/e995ad3118654a90aa83d3c6ec3277b9.jpg,https://www.wongnai.com/restaurants/2354007zQ
3355302,3355302Kb,09VyXcLpljG9lhTFBh1okxrqs1U79d,PunThai Coffee กุดจับ,กาแฟพันธุ์ไทย,PunThai Coffee,17.433033,102.510189,,ร้านกาแฟ/ชา,ร้านกาแฟ/ชา,1,https://img.wongnai.com/p/_-x_/2025/12/02/9121f221a06b4c86a9fe5674dc901a79.jpg,https://www.wongnai.com/restaurants/3355302Kb
3285185,3285185qD,09VyVf7o9jl7k3245WdKQ2dmGsQxwj,โคตรปั่นสมูทตี้โยเกิร์ต - บ้านดุง บ้านดุง,,,17.683697663032028,103.2546509988606,41190,เครื่องดื่ม/น้ำผลไม้|ร้านกาแฟ/ชา,เครื่องดื่ม/น้ำผลไม้,1,https://img.wongnai.com/p/_-x_/2025/06/15/8a54d807a69d4a21a0aa32d424c3d50d.jpg,https://www.wongnai.com/restaurants/3285185qD
3294031,3294031FG,09VyVtUn0JAG4c9YkPObvcDZsp62R8,ร้านลับจั๊บญวน,ตลาดสดเทศบาล 1,,17.6988517,103.2573784,41190,ก๋วยเตี๋ยว,ก๋วยเตี๋ยว,1,https://img.wongnai.com/p/_-x_/2025/06/19/d22dfbf551c54c618ca15fefd5646f6b.jpg,https://www.wongnai.com/restaurants/3294031FG
3387875,3387875OS,09VyYcQEPiYMgyeoGpdFf8cuBZVeEu,กินดี kinnnn'd,,,17.698035508303818,103.25831623747945,41190,ของหวาน,ของหวาน,1,https://img.wongnai.com/p/_-x_/2025/08/15/db4f8694635a432e866009b9a39a3400.jpg,https://www.wongnai.com/restaurants/3387875OS
364443,364443Aa,09VwpBTRY4ct6L7GWGa7GJi0ZAcFOO,เอื้องแหนมเนืองหมูยอ สาขา กุมภวาปี,,,17.110125638927194,103.01228692755103,41110,อาหารเวียดนาม,อาหารเวียดนาม,1,https://img.wongnai.com/p/_-x_/2018/11/02/b57cd42b59b440b39e3f520ca7d1efe1.jpg,https://www.wongnai.com/restaurants/364443Aa
3358650,3358650oh,09VyXkvWctnEnl7XamnnCq2NBcYyDu,Happy เค้กกุมภวาปี,,,17.13105157599975,102.94867632910609,41470,เบเกอรี/เค้ก,เบเกอรี/เค้ก,1,https://img.wongnai.com/p/_-x_/2025/07/27/bbeb198cf37b40b388fab52dc50cbac2.jpg,https://www.wongnai.com/restaurants/3358650oh
3274746,3274746rq,09VyVNiVfEluo2wWFrrOKydEMtW5sb,ฮ้อนลิ้นหม่าล่า ฮ้อนลิ้นหม่าล่า กุมภวาปี,,,17.10381650611148,103.01749741469268,41110,ปิ้งย่าง,ปิ้งย่าง,1,https://img.wongnai.com/p/_-x_/2025/06/05/e3aeb64aff274f0089ae7185266152b3.jpg,https://www.wongnai.com/restaurants/3274746rq
523220,523220VG,09Vx71FbfX12h5xDLu64E9mgDvxLqv,Barista Pig Coffee,,,17.69716139999999,103.25865540000018,41190,คาเฟ่,คาเฟ่,1,https://img.wongnai.com/p/_-x_/2020/07/12/52a4843822d641eea710c446ecc3c446.jpg,https://www.wongnai.com/restaurants/523220VG
3315648,3315648ew,09VyWWW0M8jljOrmyDavv5ubFlnNlw,PunThai Coffee ถนนชนบทบำรุง บ้านผือ,กาแฟพันธุ์ไทย,PunThai Coffee,17.689065,102.470548,,ร้านกาแฟ/ชา,ร้านกาแฟ/ชา,1,https://img.wongnai.com/p/_-x_/2025/11/19/f99f2f3663bf44ffafb253210d2a7ea7.jpg,https://www.wongnai.com/restaurants/3315648ew
1258688,1258688Lh,09VxXOWn3Kc8F9y0k4cOgD5Wyg4YPt,Nobs coffee sangprai บ้านหนองสร้างไพร,โนบส์ คอฟฟี่ สร้างไพร,Coffee,17.496528108208143,102.60100839659572,24180,ร้านกาแฟ/ชา,ร้านกาแฟ/ชา,1,https://img.wongnai.com/p/_-x_/2021/10/27/0e7ebd0ac56f4392a285a1ede89b38c9.jpg,https://www.wongnai.com/restaurants/1258688Lh
3294906,3294906sq,09VyVuDlLGJlpBJxGMGgnv3p77gT4P,เจ้พร อาหารตามสั่ง - บ้านดุง,,,17.683853399999993,103.26057630000003,-,อาหารตามสั่ง,อาหารตามสั่ง,1,https://img.wongnai.com/p/_-x_/2025/06/23/96fc33f1ff3a4a56a42d2d7ccf84b5c5.jpg,https://www.wongnai.com/restaurants/3294906sq
480255,480255pm,09Vx3ProUPKbLI2oZeL0zRpsP5MEFL,OK Cafe Nonghan,,Ok Cafe Sleepless,17.362615,103.112861,,คาเฟ่|ร้านกาแฟ/ชา|เบเกอรี/เค้ก,คาเฟ่,1,https://img.wongnai.com/p/_-x_/2021/07/09/ee901a85c27b4c659d35dcb0be8aa191.jpg,https://www.wongnai.com/restaurants/480255pm
386268,386268Dn,09VwpBTRazPp18LvH6ygpxnOE31Mm8,วัดโพธิ์ชัยศรี,,,17.6798032,102.4251137,,วัด,วัด,0,https://img.wongnai.com/p/_-x_/2019/02/23/40b72d734c7b470483e8c10e9d6d3edf.jpg,https://www.wongnai.com/restaurants/386268Dn
3324254,3324254OJ,09VyWl3zYYMRsGuEF4ikDKqk897wRC,Five Star (ไก่ย่าง 5 ดาว) - โลตัส กุมภวาปี กุมภวาปี,,,17.111314097435322,103.00557537013941,41110,ฟาสต์ฟู้ด/จานด่วน,ฟาสต์ฟู้ด/จานด่วน,1,https://img.wongnai.com/p/_-x_/2025/07/05/0c4c0018fc2647069ab0ce03706f139e.jpg,https://www.wongnai.com/restaurants/3324254OJ
3427729,3427729aZ,09VyZl3OKXN3FArj6JduqiAJhlQWzB,ร้านร่มขามหมูสด,ร้านร่มขามหมูสด,,17.6644453,102.9429836,41150,ร้านขายของชำ,ร้านขายของชำ,0,https://img.wongnai.com/p/_-x_/2025/10/10/2334d2e5c532401fa4d0ec77e0683f7f.jpg,https://www.wongnai.com/restaurants/3427729aZ
174579,174579Dd,09VwpBTRQzshsTSyo98ne1dqWhLPZp,ไก่ย่างไทยพวน บ้านผือ,ไก่ย่างไทยพวน,Grill Chicken,17.693799,102.461855,41160,อาหารอีสาน/ร้านส้มตำ,อาหารอีสาน/ร้านส้มตำ,1,https://img.wongnai.com/p/_-x_/2014/10/12/aaebf0b58c244ebdac7c2b5c16800f0c.jpg,https://www.wongnai.com/restaurants/174579Dd
3799000,3799000pc,09VylDT6BWj1lS2xUMEwrozl6A9yqE,Milo’s green bowl สาขาใหญ่,,,17.770265699999992,102.97071399999999,41260,ร้านกาแฟ/ชา,ร้านกาแฟ/ชา,1,https://img.wongnai.com/p/_-x_/2026/05/18/99d178ef2e66495dbbd5bcb5c53ab17b.jpg,https://www.wongnai.com/restaurants/3799000pc
3080022,3080022IR,09VyOy4seFcpdH1uXYpp1qEYwEu7ve,Captain Pizza-สาขา ถ.ยิ้มประสิทธิ์ สาขา ถ.ยิ้มประสิทธิ์,กัปตันพิซซ่า สาขา ถ. ยิ้มประสิทธิ์,Captain Pizza Yim Prasit Road,17.10539175624705,103.0153469927609,41110,พิซซ่า,พิซซ่า,1,https://img.wongnai.com/p/_-x_/2025/01/16/13c58e4536ea4c6ea58feca034adcedf.jpg,https://www.wongnai.com/restaurants/3080022IR
3331026,3331026JC,09VyWvvrwEUWXJNeQ6nfwISt95iU2k,มงคลอาหารจานเดียว,มงคลอาหารจานเดียว,,17.11082629002121,103.01473166941693,41110,อาหารจานเดียว,อาหารจานเดียว,1,https://img.wongnai.com/p/_-x_/2025/07/11/1ca42fc43cab45308477a9030ee186e8.jpg,https://www.wongnai.com/restaurants/3331026JC
2088376,2088376kA,09Vxrnaw2cRQOXaDjwoJqTtqZ8EoRU,กล้วดทอดชากังลาวสูตรกลอย,,,17.1193127,102.9891216,41110,ของหวาน,ของหวาน,1,https://img.wongnai.com/p/_-x_/2023/01/18/add49aac0aae4a66974526163061d524.jpg,https://www.wongnai.com/restaurants/2088376kA
3283959,3283959Rg,09VyVcsbUDkvZpKl4T50IOldEQrTqu,โจ๊กหน้าโรงพยาบาล - ศรีสุทโธ,,,17.691966007255715,103.25757326558232,41190,อาหารไทย,อาหารไทย,1,https://img.wongnai.com/p/_-x_/2025/06/16/639e67b93597488ebafdda1f2dc8e3b2.jpg,https://www.wongnai.com/restaurants/3283959Rg
3288541,3288541rZ,09VyVkKBOHLeY0NhlKhc2ZgmPSbWqQ,Chicky Chic บ้านดุง,ไก่ทอดชิกกี้ชิก,Chicky Chic,17.698539532451207,103.25837088748813,41190,ฟาสต์ฟู้ด/จานด่วน|Food Truck,ฟาสต์ฟู้ด/จานด่วน,1,https://img.wongnai.com/p/_-x_/2026/01/26/c874c41a0889423f8b12e4d3eac0c1c6.jpg,https://www.wongnai.com/restaurants/3288541rZ
370637,370637LD,09VwpBTRakr6UQgLvB7UkM1fV5CdJw,แดงแหนมเนือง หนองหาน,,,17.3617005,103.11325349999993,,อาหารเวียดนาม,อาหารเวียดนาม,1,https://img.wongnai.com/p/_-x_/2020/01/08/dd429b2ecafc4148b47aa6280102523c.jpg,https://www.wongnai.com/restaurants/370637LD
3368098,3368098wR,09VyXzviRnRcDQMknLNDKD0BOyUTxA,Ojung ชานมไข่มุก,,,17.110037840812453,103.01593506708741,41110,ร้านกาแฟ/ชา,ร้านกาแฟ/ชา,1,https://img.wongnai.com/p/_-x_/2025/08/06/0badcbb05d9b4dbfbe3b629583a93959.jpg,https://www.wongnai.com/restaurants/3368098wR
188892,188892NF,09VwpBTRTvxQTuJDkxUWnoi532laO9,ครัวในสวน,ครัวในสวน,Krua Naisuan,17.1150134,103.0045681,41110,อาหารไทย,อาหารไทย,1,https://img.wongnai.com/p/_-x_/2018/02/19/e8c29556b0b3423bbff957501f3e90f4.jpg,https://www.wongnai.com/restaurants/188892NF
1652754,1652754dT,09Vxge588YQVKlToa4aV7mz736Od80,วัดเขาช่องขาด,,,17.0522674,102.5643016,,วัด,วัด,0,https://img.wongnai.com/p/_-x_/2022/06/10/27192aa8c9aa4962b144f07bff28bbbc.jpg,https://www.wongnai.com/restaurants/1652754dT
250299,250299YS,09VwpBTRUv3KbIGUL4RYrFXZIMWkS2,ครัวยิ่งรักษ์,ครัวยิ่งรักษ์,Krao Yinkrak,17.68546173006429,103.25584810227156,,อาหารเช้า,อาหารเช้า,1,https://img.wongnai.com/p/_-x_/2020/07/13/40edfdb9f9e64453b785efcee7c8a59f.jpg,https://www.wongnai.com/restaurants/250299YS
3291586,3291586Bo,09VyVp1kUmEs3ag2RcS6WXknrpxz4S,Five Star ปตท.บ้านดุง 1,ห้าดาว,Five Star,17.70290002328728,103.25524125248194,41190,ปิ้งย่าง|สตรีทฟู้ด/รถเข็น,ปิ้งย่าง,1,https://img.wongnai.com/p/_-x_/2024/06/04/0f72bf49d0eb4efeade0099f2602c26c.jpg,https://www.wongnai.com/restaurants/3291586Bo
674162,674162Go,09VxHUGsfpwsqD4XggHkvOPntPzyrg,Dunkin’ (ดังกิ้น โดนัท) โลตัส กุมภวาปี,ดังกิ้น โดนัท,Dunkin’,17.111315097970177,103.00634818151593,41110,เบเกอรี/เค้ก,เบเกอรี/เค้ก,1,https://img.wongnai.com/p/_-x_/2025/11/25/5e148dcd977d4a0f82d2955a33d538fa.jpg,https://www.wongnai.com/restaurants/674162Go
511924,511924El,09Vx6gkVpTDlkR6XpCVrSMQhzzNA6G,สุจิตตาปลาเผา,ร้านสุจิตตาปลาเผา,,17.8920126,102.1383717,,อาหารอีสาน/ร้านส้มตำ,อาหารอีสาน/ร้านส้มตำ,1,https://img.wongnai.com/p/_-x_/2020/08/22/b124f5a202ad43268cc77036d39007b9.jpg,https://www.wongnai.com/restaurants/511924El
3321519,3321519So,09VyWfrtmtEu6RTFIkB8PVMKz50jUI,อาซ้อเล็ก ชาบู,,A-Sor Lek  Shabu,17.10191361841847,103.01134010776877,41110,ชาบู/สุกี้ยากี้/หม้อไฟ|อาหารทะเล|อาหารไทย,ชาบู/สุกี้ยากี้/หม้อไฟ,1,https://img.wongnai.com/p/_-x_/2025/07/03/b5641162b21545d292d5418fc69624c4.jpg,https://www.wongnai.com/restaurants/3321519So
3520315,3520315aB,09Vyc2LNv2UPy034NaKBZqQlkhzruy,เตี๋ยวเรือสังสี,,,17.110105451298452,103.01033595576882,41110,ก๋วยเตี๋ยว,ก๋วยเตี๋ยว,1,https://img.wongnai.com/p/_-x_/2025/10/30/c6ee0999b333489ca0fbb919153615b8.jpg,https://www.wongnai.com/restaurants/3520315aB
3508902,3508902jM,09VybkDBeljof21ZFu55Cwwe7Db2lG,ร้านบ้านยายน้อย,ร้านบ้านยายน้อย,Baan yai noi,17.108278672685167,103.01925410447308,41110,ร้านขายของชำ,ร้านขายของชำ,0,https://img.wongnai.com/p/_-x_/2025/10/23/d0de596ee26848aaa9358a795fb737e3.jpg,https://www.wongnai.com/restaurants/3508902jM
3285334,3285334pv,09VyVfDerbjUMBqc3iKsd7fe22OULF,หม่องนี่ คาเฟ่,,,17.687976804908867,103.25644849794519,41190,ชานมไข่มุก,ชานมไข่มุก,1,https://img.wongnai.com/p/_-x_/2025/06/15/c456d8b4d47842e09a3e97fdc6bc1cf7.jpg,https://www.wongnai.com/restaurants/3285334pv
2306047,2306047KQ,09VxxD6eWxVQuoXSYDagC9wmcBkA0K,ชลดาไก่ย่าง,"ไก่ย่างเขาสวนกวาง,ส้มตำ","grilled chicken, papaya salad",17.17419358131979,102.57147645702997,41220,อาหารอีสาน/ร้านส้มตำ|ปิ้งย่าง,อาหารอีสาน/ร้านส้มตำ,1,https://img.wongnai.com/p/_-x_/2023/05/17/4c8dc228cde543459c8a7c2df473c7d7.jpg,https://www.wongnai.com/restaurants/2306047KQ
3277094,3277094rh,09VyVRLHYYMA3QAsETNYHRCjF3VBGN,สวนป๋าXเดอะโคขุนพรีเมี่ยม,,,16.9708644,103.2250453,,อาหารตามสั่ง,อาหารตามสั่ง,1,https://img.wongnai.com/p/_-x_/2025/06/07/967163327ad248a489e707e193269af4.jpg,https://www.wongnai.com/restaurants/3277094rh
3231454,3231454qO,09VyU1Ri0u67jl7sNt5oLyaK681s3M,PunThai Coffee ถนน 2022 (เพ็ญ),กาแฟพันธุ์ไทย,PunThai Coffee,17.695,102.904306,,ร้านกาแฟ/ชา,ร้านกาแฟ/ชา,1,https://img.wongnai.com/p/_-x_/2025/11/19/ec3a3aa747954d939d8fbb6a63175de8.jpg,https://www.wongnai.com/restaurants/3231454qO
3322976,3322976wm,09VyWiKqb9wDtsaFUBh5sM58L6Yu7A,บ้านส้ม Juice & Bakery,(ตลาดสดกุมภวาปี),,17.110416541300925,103.01511120485361,41110,เครื่องดื่ม/น้ำผลไม้,เครื่องดื่ม/น้ำผลไม้,1,https://img.wongnai.com/p/_-x_/2025/07/04/4f10978b840841cbb0d695d064d3c60f.jpg,https://www.wongnai.com/restaurants/3322976wm
1971185,1971185aD,09Vxnw6B3REczUn7RixMJ7H2KUs5Ao,Sunrise Coffee -,Sunrise Coffee,,17.6198856,102.5330743,,คาเฟ่,คาเฟ่,1,https://img.wongnai.com/p/_-x_/2022/12/09/eca386b0913f48adac40f568c8f9e4dc.jpg,https://www.wongnai.com/restaurants/1971185aD
3358093,3358093Ha,09VyXinxSbFptavI99I3Qfb76uwIUW,อาหารเช้า(ข้าง CP),,,17.694274756516354,103.25745793059468,41000,อาหารเช้า,อาหารเช้า,1,https://img.wongnai.com/p/_-x_/2025/07/30/dd5be1a3ca0b459087c8b81f73fd2d57.jpg,https://www.wongnai.com/restaurants/3358093Ha
3295725,3295725AD,09VyVw9GTD5UicDAf5vMhqNYtznIFS,ก๋วยจั๊บญวน-เกาเหลาเลือดหมู กุ๊กไก่ฟู้ด,,,17.702900027580434,103.25524142012,41190,อาหารตามสั่ง,อาหารตามสั่ง,1,https://img.wongnai.com/p/_-x_/deleted/2018/10/31/610e64cff4a940f6882f5026fffd45b8.jpg,https://www.wongnai.com/restaurants/3295725AD
353667,353667Qm,09VwpBTRXTi8ZmVrSJa6zpUBKm476Y,ภูฝอยลม,,,17.1600385,102.69140040000002,,สวนสาธารณะและสิ่งก่อสร้างอื่น ๆ,สวนสาธารณะและสิ่งก่อสร้างอื่น ๆ,0,https://img.wongnai.com/p/_-x_/2020/01/24/f412582fe1ab4f9b86733600d8e6aa63.jpg,https://www.wongnai.com/restaurants/353667Qm
14669,14669Zj,09VwpBTRLutecypspvaaukiJcYCxfO,เจิน,,,17.411007,102.784095,41000,อาหารเวียดนาม|สตรีทฟู้ด/รถเข็น|อาหารเช้า,อาหารเวียดนาม,1,https://img.wongnai.com/p/_-x_/2014/11/26/b274320f81464798992f2c9a96a73aba.jpg,https://www.wongnai.com/restaurants/14669Zj
3196112,3196112Ra,09VySpluuSKQpZhP5ukYkYcfAIOAjz,PunThai Coffee บ้านดุง1,กาแฟพันธุ์ไทย,PunThai Coffee,17.549026,103.235378,,ร้านกาแฟ/ชา,ร้านกาแฟ/ชา,1,https://img.wongnai.com/p/_-x_/2025/11/19/f5709b4f10fb40d28098dd0364f1d039.jpg,https://www.wongnai.com/restaurants/3196112Ra
3163719,3163719Yj,09VyRn83A7qN21wIO4w5m9V5fcbedG,ตำแซ่บอุดรธานี 1 (หน้าราชภัฏอุดร)1 ตำแซ่บ อุดรธานี 2, ตำแซ่บอุดรธานี 1 (หน้าราชภัฏอุดร)1,,17.605061,102.7940213,41150,อาหารอีสาน/ร้านส้มตำ,อาหารอีสาน/ร้านส้มตำ,1,https://img.wongnai.com/p/_-x_/2025/07/05/61e26a8cd221475ea389b463c6bc01f9.jpg,https://www.wongnai.com/restaurants/3163719Yj
3728271,3728271rD,09Vyiq6cmDDAZlobE0IhjGYV8iLSXh,ตามสั่ง ตามใจพ่อค้า,,,17.688946242001713,103.25494028053778,41190,อาหารตามสั่ง,อาหารตามสั่ง,1,https://img.wongnai.com/p/_-x_/2026/03/27/d40f053dd15f4003b780dad483ad58de.jpg,https://www.wongnai.com/restaurants/3728271rD
3290653,3290653qL,09VyVnoNreFUxm1KRfuzMCFehoXYLl,เตี๋ยวโว้ย พ่อบักแบงค์,,,17.69663553667348,103.25582077726722,41009,ก๋วยเตี๋ยว,ก๋วยเตี๋ยว,1,https://img.wongnai.com/p/_-x_/2025/06/14/cf8c020e08b9482a87c93bf378ebd160.jpg,https://www.wongnai.com/restaurants/3290653qL
161009,161009kc,09VwpBTRQ2Jmejc0vjKlhs8JBp8TB5,ก๋วยเตี๋ยวเฮง&เฮง,,,17.110062,103.017264,41110,ก๋วยเตี๋ยว,ก๋วยเตี๋ยว,1,https://img.wongnai.com/p/_-x_/2017/01/03/b2a91f8b8a6747f8aaf8dd74922fbc53.jpg,https://www.wongnai.com/restaurants/161009kc
3196115,3196115pK,09VySpluxyZ7Tf4xV50d0rRJ6ewrex,PunThai Coffee ข้างไทยฟู้ดส์กุมภวาปี,กาแฟพันธุ์ไทย,PunThai Coffee,17.111306,103.009806,,ร้านกาแฟ/ชา,ร้านกาแฟ/ชา,1,https://img.wongnai.com/p/_-x_/2025/11/19/20181bd6d3fb4efdbbee21a3694beb2e.jpg,https://www.wongnai.com/restaurants/3196115pK
3349610,3349610Ct,09VyXTpzOM5WdQitjHRqdkKVDhbLtY,รวมมิตรลูกชิ้นปลาเยาวราช อำเภอบ้านดุง,,Fishbomb,17.6980357,103.2583167,41190,ฟาสต์ฟู้ด/จานด่วน,ฟาสต์ฟู้ด/จานด่วน,1,https://img.wongnai.com/p/_-x_/2025/07/21/3417fbfa26b04f29ad20e1932a488568.jpg,https://www.wongnai.com/restaurants/3349610Ct
3321467,3321467pk,09VyWfp7qTRvUoIXWOoR99K42rsBAK,ตำนัว หน้า รพ. กุมภวาปี,,,17.104899514428993,103.01920078905978,41110,อาหารอีสาน/ร้านส้มตำ,อาหารอีสาน/ร้านส้มตำ,1,https://img.wongnai.com/p/_-x_/2025/07/04/c419a07ad54a47cea30ca1968d96e677.jpg,https://www.wongnai.com/restaurants/3321467pk
3406421,3406421ZI,09VyZ7xPwkf5H00a0mUMeAGyALjsaR,ร้าน นับดาว ริมปาว,,,17.111208074126424,103.01945613697171,41110,ร้านริมน้ำ,ร้านริมน้ำ,0,https://img.wongnai.com/p/_-x_/2025/08/26/6d5596ec845a4a7aacefd4cd69558aae.jpg,https://www.wongnai.com/restaurants/3406421ZI
3185330,3185330mr,09VySTPWiZlia9gm4Z3WhYxyFJKwqZ,Five Star ปตท.บ้านดุง 2,ห้าดาว,Five Star,17.70283912736349,103.25495587920742,41190,ปิ้งย่าง|สตรีทฟู้ด/รถเข็น,ปิ้งย่าง,1,https://img.wongnai.com/p/_-x_/2025/04/29/902cd32e40a24aebab1ccb3f61bed6fc.jpg,https://www.wongnai.com/restaurants/3185330mr
3172868,3172868Cb,09VyS45kyT3kSSQ9icA1MXPXA37Tdz,PunThai Coffee ตรงข้ามบิ๊กซีโนนสะอาด,กาแฟพันธุ์ไทย,PunThai Coffee,16.967917,102.895306,,ร้านกาแฟ/ชา,ร้านกาแฟ/ชา,1,https://img.wongnai.com/p/_-x_/2025/11/19/eb9706f77c4d43979ea31fd9c33e82e8.jpg,https://www.wongnai.com/restaurants/3172868Cb
269570,269570xg,09VwpBTRVbLTLbkPueVw8x2zrSbl0D,ส้มแข่ว อุดรธานี อ.บ้านดุง,,,17.688928,103.256743,,กึ่งผับ/ร้านเหล้า/บาร์,กึ่งผับ/ร้านเหล้า/บาร์,1,https://img.wongnai.com/p/_-x_/2019/02/10/2dad8273dc2e47b1a5ef0b79cd05042d.jpg,https://www.wongnai.com/restaurants/269570xg
3439566,3439566Mv,09Vya5BiR8Owz8YuI5u0X61eQnkaq5,จั๊บใจ ก๋วยจั๊บน้ำข้น,,,17.115604900000005,103.01135430000006,41110,อื่นๆ,อื่นๆ,0,https://img.wongnai.com/p/_-x_/2025/09/26/c215f84e7a0f4d91a175492c30b5bb32.jpg,https://www.wongnai.com/restaurants/3439566Mv
3360879,3360879Yt,09VyXqWult2idzLpYaJUWHaNxJ6twC,ผลไม้ปอกไอ้อ้วน,ผลไม้ปอกไอ้อ้วน,,17.69014663127597,103.2586141816603,41190,ของหวาน|อาหารเจ|อาหารมังสวิรัติ,ของหวาน,1,https://img.wongnai.com/p/_-x_/2025/07/29/6116df461a164a5bb5d5a245ebdc74fe.jpg,https://www.wongnai.com/restaurants/3360879Yt
3295732,3295732KN,09VyVw9bA9TQIDJxFaAoK26LWRFS33,ข้าวมันไก่ กุ๊กไก่ฟู๊ด,,,17.702900027580434,103.25524142012,41190,อาหารจานเดียว,อาหารจานเดียว,1,https://img.wongnai.com/p/_-x_/2025/06/29/73deb88ba46b4aaf8b78364cbea3f38b.jpg,https://www.wongnai.com/restaurants/3295732KN
3322646,3322646cQ,09VyWi4mumT0UtkZWJhwzsIjpQIoTG,ก๋วยเตี๋ยวนิวสตาร์ (ยายลุน) - กุมภวาปี,,,17.10826247929546,103.01591781330724,41110,ก๋วยเตี๋ยว,ก๋วยเตี๋ยว,1,https://img.wongnai.com/p/_-x_/2025/07/04/89e0dbea83944115b6ccb990a88b41d3.jpg,https://www.wongnai.com/restaurants/3322646cQ
3784568,3784568hX,09VykqDIZouBMiG6qErg1dFdSM9PuE,ก๋วยเตี๋ยวเรือบ้านรักลูก,,,17.697786387605973,103.26320253580457,41190,ก๋วยเตี๋ยว,ก๋วยเตี๋ยว,1,https://img.wongnai.com/p/_-x_/2026/05/10/d9031df0745d425084e5d3dddf91eeb5.jpg,https://www.wongnai.com/restaurants/3784568hX
3295738,3295738rL,09VyVw9xoqbJ24AqAbunVu8lY0Uuxp,ลูกชิ้นทอด กุ๊กไก่ฟู๊ด,,,17.702900027580434,103.25524142012,41190,อื่นๆ,อื่นๆ,0,https://static2.wongnai.com/static/7.91.0/category/common/images/color/37.png,https://www.wongnai.com/restaurants/3295738rL
2975850,2975850Ig,09VyKY2GcwH5yDyKbUIUnZXl8qYyyh,พิมมี่เทสตี้ (PIMMYTASTY) -,พิมมี่เทสตี้ (PIMMYTASTY),,17.0615937,103.0846211,,คาเฟ่,คาเฟ่,1,https://img.wongnai.com/p/_-x_/2025/03/10/1642b1fba3c7480d917b78f1d0f45716.jpg,https://www.wongnai.com/restaurants/2975850Ig
3012719,3012719bw,09VyM0t7hAs6bp8bW1LXk7sLDUhzeu,กินลม ชมควาย กินลม ชมควาย,กินลม ชมควาย,,17.4151422,103.1843376,41130,กึ่งผับ/ร้านเหล้า/บาร์,กึ่งผับ/ร้านเหล้า/บาร์,1,https://img.wongnai.com/p/_-x_/2024/11/22/f04fbe9f5dc244ba9c994fb6e3825bad.jpg,https://www.wongnai.com/restaurants/3012719bw
3319002,3319002rw,09VyWcLvSZMEHq8UwJrjiAqXSIRpVQ,ไก่ทอดหาดใหญ่ - กุมภวาปี,,Hat Yai Fried Chicken - Kumphawapi,17.10587519916597,103.01929423929059,41110,สตรีทฟู้ด/รถเข็น,สตรีทฟู้ด/รถเข็น,0,https://img.wongnai.com/p/_-x_/2025/07/02/8aa5699cf4f64ce0bf16995db149fd7a.jpg,https://www.wongnai.com/restaurants/3319002rw
3364558,3364558cj,09VyXuZbpcRFauNydKYc0cGOLA7aTz,เอ๋ไก่ย่างส้มตำ กุมภวาปี กุมภวาปี,,,17.107038977713334,103.0200079209751,41110,อาหารอีสาน/ร้านส้มตำ,อาหารอีสาน/ร้านส้มตำ,1,https://img.wongnai.com/p/_-x_/2025/07/30/e32590c5126b48a286d255a2901dc7cb.jpg,https://www.wongnai.com/restaurants/3364558cj
243948,243948Zt,09VwpBTRRZfk7dAAEZ3xV3XeiJ6zbW,โอหวะชาบู โอหวะชาบู สาขาหนองหาน,โอหวะชาบู,,17.363649358220176,103.11031982209012,,ชาบู/สุกี้ยากี้/หม้อไฟ|บุฟเฟ่ต์,ชาบู/สุกี้ยากี้/หม้อไฟ,1,https://img.wongnai.com/p/_-x_/2019/07/30/a878038d86e64845b3c9f4497cbff741.jpg,https://www.wongnai.com/restaurants/243948Zt
3325893,3325893tW,09VyWneWKjOhScbmiblhZdJ96lESfA,สองกอ อาหารตามสั่ง - เวียงคำ,,,17.10880799680538,103.03302677348256,41110,อาหารตามสั่ง,อาหารตามสั่ง,1,https://img.wongnai.com/p/_-x_/2025/07/09/9a8feb11a647438a80091fff9851e551.jpg,https://www.wongnai.com/restaurants/3325893tW
3307122,3307122HM,09VyWG10oniYN8fHsw2W8fHvxfC3r9,ลองชิมเบิ่ง,,,17.69791445168527,103.26152449473739,41190,อาหารอีสาน/ร้านส้มตำ,อาหารอีสาน/ร้านส้มตำ,1,https://img.wongnai.com/p/_-x_/2025/06/29/2aecb4a5d2454db1a88d6d5f64291c3e.jpg,https://www.wongnai.com/restaurants/3307122HM
3321395,3321395iy,09VyWflHVP6viqWyskD2rGVmp4vSi6,ตาเย็นลาบเป็ด,,,17.10318578954193,103.01900172756099,41110,อาหารไทย,อาหารไทย,1,https://img.wongnai.com/p/_-x_/2025/07/04/9513abaf74d64b4882625622258d7bc0.jpg,https://www.wongnai.com/restaurants/3321395iy
3054618,3054618hd,09VyNpM2RuVOMipgVIkMAP6mVuSSjn,ร้านมันนี่ ชาบู & ปิ้งย่าง -,ร้านมันนี่ ชาบู & ปิ้งย่าง,,17.2514252,103.1179123,41130,ชาบู/สุกี้ยากี้/หม้อไฟ,ชาบู/สุกี้ยากี้/หม้อไฟ,1,https://img.wongnai.com/p/_-x_/2025/07/31/313a905d88c94244808861d41dd7f212.jpg,https://www.wongnai.com/restaurants/3054618hd
3308437,3308437Ac,09VyWIIWDkrfomyEevH3E2W3oQfodf,อาทิก เหนียวไก่ทอด,,,17.69332485591629,103.25826161854779,43100,อาหารจานเดียว,อาหารจานเดียว,1,https://img.wongnai.com/p/_-x_/2025/06/28/77a774beaa4045c2876d6abd6883a031.jpg,https://www.wongnai.com/restaurants/3308437Ac
419276,419276Pd,09VwuGElxJPDvG2hPgK7ItfXRQEJsX,โนเบลปั่นผลไม้สด ตลาดรุ่งเจริญ (หน้าหมู่บ้านเอื้ออาทรร่มเกล้า2),,,17.716827862776533,103.3923220820725,41190,ร้านกาแฟ/ชา,ร้านกาแฟ/ชา,1,https://img.wongnai.com/p/_-x_/2021/01/16/bc388df31a944925ab9ed0d10516ca20.jpg,https://www.wongnai.com/restaurants/419276Pd
3319085,3319085xO,09VyWcPKTDMNfrvgBg3yQysYFkTgxv,โอปอยำเสียบไม้ (ยำฟรี),,,17.10541094802526,103.01913618444382,41110,สตรีทฟู้ด/รถเข็น,สตรีทฟู้ด/รถเข็น,0,https://img.wongnai.com/p/_-x_/2025/07/02/2df4934775854f7a909bfac0411c6532.jpg,https://www.wongnai.com/restaurants/3319085xO
3097336,3097336si,09VyPbNzZv1uwMVtxSNY6buB4g31G7,Five Star ตลาดบ้านหยวก,ห้าดาว,Five Star,17.7695097,102.1727644,,ปิ้งย่าง|สตรีทฟู้ด/รถเข็น,ปิ้งย่าง,1,https://img.wongnai.com/p/_-x_/2025/07/31/b6af1aaea0544d3a9b3272b4c76ba126.jpg,https://www.wongnai.com/restaurants/3097336si
3137205,3137205GN,09VyQy9eEQtw4PL1TiQLCWCEvsEaxa,PunThai Coffee บ้านดุง2,กาแฟพันธุ์ไทย,PunThai Coffee,17.748983,103.267946,41190,ร้านกาแฟ/ชา,ร้านกาแฟ/ชา,1,https://img.wongnai.com/p/_-x_/2025/12/01/979a2f7fd2a747209dd29ba8b42d41d7.jpg,https://www.wongnai.com/restaurants/3137205GN
3285584,3285584Gv,09VyVfOYAWEYATxD3HNPBmaOsh0Q5c,ก๋วยเตี๋ยวลูกชิ้นแชมป์(หน้า รพ.),,,17.6922554,103.2575348,41190,ก๋วยเตี๋ยว,ก๋วยเตี๋ยว,1,https://img.wongnai.com/p/_-x_/2026/01/14/cd5b0462dfda4d688ba0b6625cf78e84.jpg,https://www.wongnai.com/restaurants/3285584Gv
3037149,3037149GU,09VyN34KOftf8d5LbTql17R0eOv0Yc,Mug-Cug cafe,มักคัก คาเฟ่,Mug-Cug,17.190716685213726,102.93583558872342,41370,ร้านกาแฟ/ชา|คาเฟ่|เครื่องดื่ม/น้ำผลไม้,ร้านกาแฟ/ชา,1,https://img.wongnai.com/p/_-x_/2024/12/04/9ff9d63d369a45e0a3b330051845e706.jpg,https://www.wongnai.com/restaurants/3037149GU
138488,138488qa,09VwpBTRL7d1UWvcnRxKoG9qZtc5PB,Kualao,ครัวลาว,Kualao Restaurant,17.964814,102.610605,43130,อื่นๆ,อื่นๆ,0,https://img.wongnai.com/p/_-x_/2015/06/21/35ea2fde218c4e7db535219898d07795.jpg,https://www.wongnai.com/restaurants/138488qa
3302178,3302178iC,09VyW7LsHXyRzk0zraVVn8YoFNbA2N,ครัวข้าวหอม,ครัวข้าวหอม,Khaohom cooking,17.7046618,103.2525157,41190,อาหารกล่อง/ข้าวกล่อง เดลิเวอรี,อาหารกล่อง/ข้าวกล่อง เดลิเวอรี,1,https://img.wongnai.com/p/_-x_/2025/06/21/21d2eb61ee8f4cc08d3038ccd7fd287c.jpg,https://www.wongnai.com/restaurants/3302178iC
326558,326558Ss,09VwpBTRTn0yXDz92ieMWfuXavrfHr,วัดป่าศรีคุณาราม,วัดป่าศรีคุณาราม,,17.17497265,103.1611182,41130,วัด,วัด,0,https://img.wongnai.com/p/_-x_/2019/05/11/a7bd757dc225493ebe784224f87d3545.jpg,https://www.wongnai.com/restaurants/326558Ss
3355676,3355676xR,09VyXcogjWVJiaNuZwxNovuiHG4fBg,นาตลดาสลัดโรล และทาโกยากิ,,,17.696577080603284,103.25881546363235,41190,อาหารฟิวชั่น,อาหารฟิวชั่น,1,https://img.wongnai.com/p/_-x_/2025/08/21/9106ef94bb6d43e182f2201652921d77.jpg,https://www.wongnai.com/restaurants/3355676xR
93064,93064eI,09VwpBTRLD1AiGWfhIgRZbVJOj1xlu,ครัวกานดา,ครัวกานดา,KHRUA KANDA RESTAURANT,17.36295,103.101416,41130,อาหารไทย,อาหารไทย,1,https://img.wongnai.com/p/_-x_/2021/12/07/5a769a137186471f8c1326f0b6af62f0.jpg,https://www.wongnai.com/restaurants/93064eI
3319470,3319470Ob,09VyWchBSEz92HWYRRoXgmhYmq7ORS,ก๋วยเตี๋ยวคุณกรณ์ (บ้านท่าเปลือย) - ประชาร่วมใจ,,,17.098770083233436,103.0269651843571,41110,ก๋วยเตี๋ยว,ก๋วยเตี๋ยว,1,https://img.wongnai.com/p/_-x_/2025/07/20/b5124104425a49358eb746333c808662.jpg,https://www.wongnai.com/restaurants/3319470Ob
3259073,3259073bk,09VyUqhibuu0fhpY9lQgmrViLuzbyd,ร้านข้าวราดแกง ถนนบ้านดุง-สุมเส้า,,,17.677830208961495,103.24576718732715,41190,อาหารไทย,อาหารไทย,1,https://img.wongnai.com/p/_-x_/2025/06/18/b1174d0006194552913b83f6281e66f3.jpg,https://www.wongnai.com/restaurants/3259073bk
3321236,3321236mE,09VyWfYn2gteqVV59HPlEoxB8cCYEt,ข้าวมันไก่ ตระกูล อ.,,,17.108423311925904,103.01909489730168,41110,ก๋วยเตี๋ยว,ก๋วยเตี๋ยว,1,https://img.wongnai.com/p/_-x_/2025/07/03/850d871325254435988d151395f8cdbf.jpg,https://www.wongnai.com/restaurants/3321236mE
3051190,3051190Lg,09VyNeSxZ74hwwWeeaSlBfHFTzieLF,หยวนหยวนหมูกระทะ ทะเลปิ้งย่าง -,หยวนหยวนหมูกระทะ ทะเลปิ้งย่าง,,16.971756264067,103.23415416128,,บุฟเฟ่ต์,บุฟเฟ่ต์,0,https://img.wongnai.com/p/_-x_/2026/04/10/2873c3b42ed245f08b05f58c751a2de4.jpg,https://www.wongnai.com/restaurants/3051190Lg
3362754,3362754FE,09VyXtkkJE5Ba4EacrG7zg39yBuwoJ,Ai Tim Mai,,,17.684374226235413,103.25747363648817,41190,คาเฟ่,คาเฟ่,1,https://img.wongnai.com/p/_-x_/2025/07/30/be5e8836248c421abd4a516d92e1cf02.jpg,https://www.wongnai.com/restaurants/3362754FE
1999218,1999218hw,09VxokNgo1BzgDb3KSUn68Iy8qqJuu,seasonal cafe ซีเซินเนิลคาเฟ่ #SSNCAFE,seasonal cafe ซีเซินเนิลคาเฟ่,,17.295523378535815,103.22970727233754,41290,คาเฟ่,คาเฟ่,1,https://img.wongnai.com/p/_-x_/2024/11/04/86e2a581943845d6b91b4359554fb559.jpg,https://www.wongnai.com/restaurants/1999218hw
2933868,2933868pJ,09VyJ0hfWWW1OFbtvVSUU3lAHO8wve,BOTAN Vientiane,BOTAN,,17.848759,102.2483223,,ของหวาน,ของหวาน,1,https://img.wongnai.com/p/_-x_/2024/11/28/c1e26823d1c145fabfbb93f5cdba8001.jpg,https://www.wongnai.com/restaurants/2933868pJ
3103402,3103402cY,09VyPprCaiwpdJ5zmdr3Ov7kqJzjnd,PunThai Coffee กู่แก้ว2,กาแฟพันธุ์ไทย,PunThai Coffee,17.181102,103.160251,,ร้านกาแฟ/ชา,ร้านกาแฟ/ชา,1,https://img.wongnai.com/p/_-x_/2025/11/19/b10c7b1deeac4875846e7554ba646987.jpg,https://www.wongnai.com/restaurants/3103402cY
2554350,2554350qz,09Vy5HsCFojoAuPyj70ZTdGRLUcpyr,PTK ตั๊กเเตนทอดสด โนนสะอาด,,,16.968493498314526,102.89167301729321,41240,อาหารแห้งและอาหารแปรรูป,อาหารแห้งและอาหารแปรรูป,1,https://img.wongnai.com/p/_-x_/2023/11/10/1af9677bff1e4be784f374e3c9bbbf50.jpg,https://www.wongnai.com/restaurants/2554350qz
2072202,2072202uK,09VxrK0WhcExUynq4kBAYRmMafxalM,ร้านฝันหวาน,,,16.97466990762059,103.22215959326904,41230,อาหารตามสั่ง,อาหารตามสั่ง,1,https://img.wongnai.com/p/_-x_/2023/01/08/9714f68383fa4b8380c60682e95ea17a.jpg,https://www.wongnai.com/restaurants/2072202uK
3297192,3297192Nv,09VyVyekwY19wRnyicqmFi2xi2bauB,ร้านไก่ทอดหาดใหญ่@บ้านดุง,,,17.69799270353429,103.26066551730037,41190,อื่นๆ,อื่นๆ,0,https://img.wongnai.com/p/_-x_/2025/06/18/468f8eeac5874b7f9fe4e82c053fa44e.jpg,https://www.wongnai.com/restaurants/3297192Nv
247310,247310aP,09VwpBTROC9dxtp3N4yXNicmail4Qs,สุดยอดลาบเป็ด,,,17.026378,103.123104,,อาหารอีสาน/ร้านส้มตำ,อาหารอีสาน/ร้านส้มตำ,1,https://img.wongnai.com/p/_-x_/2018/04/07/461b2a13939a4c9a8f5908ce6ac1cefc.jpg,https://www.wongnai.com/restaurants/247310aP
3039285,3039285IX,09VyN8tgBJuG3yI2DvNFRvQ68wK8Q5,ร้านตองสาม 333,333,,17.692610918813276,103.26144637539983,41190,อาหารกล่อง/ข้าวกล่อง เดลิเวอรี,อาหารกล่อง/ข้าวกล่อง เดลิเวอรี,1,https://img.wongnai.com/p/_-x_/2024/12/19/124a698c469b4151be3114692dfd3968.jpg,https://www.wongnai.com/restaurants/3039285IX
246007,246007GN,09VwpBTRRHnNsxdE8nl9VEEjoxGOm7,บะหมี่ Eleven Noodle,,,17.975748,102.614761,,ก๋วยเตี๋ยว|อาหารตามสั่ง,ก๋วยเตี๋ยว,1,https://img.wongnai.com/p/_-x_/2016/08/26/c6e3dc8125244efc8de6540739767380.jpg,https://www.wongnai.com/restaurants/246007GN
3285539,3285539sK,09VyVfMUdeSmj94UR6JvJnqSgFlp6p,ครัวเลิศรส,,,17.692351868152414,103.25752967968583,41190,อาหารจานเดียว,อาหารจานเดียว,1,https://img.wongnai.com/p/_-x_/2025/06/15/00b4d249b08c48a0b52649517acdb89d.jpg,https://www.wongnai.com/restaurants/3285539sK
93236,93236mT,09VwpBTRNSa259os3gMcQijpypDPwi,แจ่วฮ้อนบ้านสวน,แจ่วฮ้อนบ้านสวน,CHAEO HON BAN SUAN RESTAURANT,16.981989,102.89327,41110,อาหารไทย,อาหารไทย,1,https://img.wongnai.com/p/_-x_/2019/12/06/cf371b686cb344c7b94f501be17526d4.jpg,https://www.wongnai.com/restaurants/93236mT
3311944,3311944cv,09VyWOTE6L7k7FwqgTNnRNmeLfDiqu,กะเพราบ้านๆ,,,17.69786119320391,103.26227160423967,41190,อาหารตามสั่ง,อาหารตามสั่ง,1,https://img.wongnai.com/p/_-x_/2025/06/27/522b00545de6481684a67ca725b78fca.jpg,https://www.wongnai.com/restaurants/3311944cv
3362995,3362995mu,09VyXtzsjMBCFgm0J6uAYDmqoz4cWi,ครัวส้มจีน,ครัวส้มจีน,Somjeen Kitchen,17.121747199999987,102.97949480000007,41110,อาหารตามสั่ง,อาหารตามสั่ง,1,https://img.wongnai.com/p/_-x_/2025/07/30/f30d4573c5524869836888fd900c3d86.jpg,https://www.wongnai.com/restaurants/3362995mu
640560,640560Wj,09VxFa3PW7A6GeO5uiIQIzIpP3mh3W,Café Amazon - DD2346 สน.แสนอุดม 2016 ต.ศรีสุทโธ,คาเฟ่ อเมซอน - DD2346,Café Amazon - DD2346,17.70260424647426,103.25545042142642,,ร้านกาแฟ/ชา,ร้านกาแฟ/ชา,1,https://img.wongnai.com/p/_-x_/2023/11/05/efebb45ff3a54389a6eb0c1b99cd2126.jpg,https://www.wongnai.com/restaurants/640560Wj
3319123,3319123UV,09VyWcRsOR2itDuROcqI0aEqp9eaDm,ก๋วยเตี๋ยวไก่มะระ ข้าวมันไก่ - ศูนย์อาหารโชว์พุง,,,17.10589129369321,103.01917138695056,41110,อาหารจานเดียว,อาหารจานเดียว,1,https://img.wongnai.com/p/_-x_/2025/07/02/d531a208bd2e4ad9b403f41338fe4532.jpg,https://www.wongnai.com/restaurants/3319123UV
3319182,3319182DO,09VyWcUXvxtM3Ea8vtE2yfMGOuudI6,โมเมอาหารตามสั่ง - ศูนย์อาหารโชพุง,,,17.105944859811213,103.01898976797526,41110,อาหารตามสั่ง,อาหารตามสั่ง,1,https://img.wongnai.com/p/_-x_/2025/07/02/887ebc09ea7b4b6b8447a697d168158b.jpg,https://www.wongnai.com/restaurants/3319182DO
3061741,3061741Sr,09VyONCdkf07U1sYaHU6xugxjnJ1yb,PunThai Coffee กุมภวาปี8,กาแฟพันธุ์ไทย,PunThai Coffee,17.122571,102.978363,,ร้านกาแฟ/ชา,ร้านกาแฟ/ชา,1,https://img.wongnai.com/p/_-x_/2025/12/02/bf770345882644978df4542331f0c75b.jpg,https://www.wongnai.com/restaurants/3061741Sr
2406356,2406356ym,09VxzkGGwnNdnOZWfHZgllbnqTc5eK,ข้าวแกง@บ้านดุง,,,17.698522,103.262134,,สตรีทฟู้ด/รถเข็น,สตรีทฟู้ด/รถเข็น,0,https://img.wongnai.com/p/_-x_/2023/07/11/3edd09ef674141f79f49e40095c8f3c8.jpg,https://www.wongnai.com/restaurants/2406356ym
3315148,3315148nO,09VyWV9ouPr4U9GVfhLxUSfp0urf2s,พิซซ่าชีส,,,17.6924154,103.2589882,41190,พิซซ่า,พิซซ่า,1,https://img.wongnai.com/p/_-x_/2017/11/04/82561b3b0eac4a85be62867670928bb8.jpg,https://www.wongnai.com/restaurants/3315148nO
3284554,3284554BN,09VyVdQBecQrRkQ4VTIcOK0naCBUYQ,มีนากาแฟสด,,,17.69191042835127,103.25746832415462,41190,ร้านกาแฟ/ชา,ร้านกาแฟ/ชา,1,https://img.wongnai.com/p/_-x_/2025/06/16/b47c2bd5d5aa447d891235e4f1528e52.jpg,https://www.wongnai.com/restaurants/3284554BN
3307010,3307010Bh,09VyWFwLp6fDlXnNQkfgHuVeQnarcG,ร้านหมึกย่างน้ำจิ้มรสเด็ดอร่อยไม่ซ้ำ ร้านหมึกย่างน้ำจิ้มรสเด็ดอร่อยไม่ซ้ำ,,,17.698153663566405,103.25932076474045,41190,ปิ้งย่าง,ปิ้งย่าง,1,https://img.wongnai.com/p/_-x_/2025/06/24/0ff043e3073745f38cb89ede2add7305.jpg,https://www.wongnai.com/restaurants/3307010Bh
3303005,3303005SG,09VyW8PrRvX1NPVV8jFkRQbH0XXDQj,อาหารเช้าบ้านข้าวแกง,,,17.69690767786669,103.2590719498694,41190,อาหารเช้า,อาหารเช้า,1,https://img.wongnai.com/p/_-x_/2025/06/21/46c23f26a02c41cb9bf944ac53f962e4.jpg,https://www.wongnai.com/restaurants/3303005SG
3577952,3577952Rz,09VydddDeF1iSpykciBMwZwKLtcqAh,ร้าน ต.ตาลตั๊กแตนทอด,,,17.69013733314661,102.46489131823182,41160,อื่นๆ,อื่นๆ,0,https://img.wongnai.com/p/_-x_/2025/12/03/2f58239f7a6c4b0ab1c3b9bbc6eebb3d.jpg,https://www.wongnai.com/restaurants/3577952Rz
3291957,3291957jz,09VyVqWYiTcj0kjicTWOVkzMhLvdEy,ครัวเจ๊อ้วน&ก๋วยเตี๋ยวเนื้อเปื่อย หมู่9,,,17.678578499999983,103.25120900000002,41190,ก๋วยเตี๋ยว,ก๋วยเตี๋ยว,1,https://img.wongnai.com/p/_-x_/2025/06/18/8a36c5c843d044ecade29a6b7e553fce.jpg,https://www.wongnai.com/restaurants/3291957jz
3028336,3028336Hj,09VyMdyzb3EEe4DCaTm3dpTlPVgZMW,PunThai Coffee PTF หจก.สหธรรมรุ่งโรจน์,กาแฟพันธุ์ไทย,PunThai Coffee,17.1666666,102.572273,,ร้านกาแฟ/ชา,ร้านกาแฟ/ชา,1,https://img.wongnai.com/p/_-x_/2025/11/19/84290f7e10c441c4bd750542928801e5.jpg,https://www.wongnai.com/restaurants/3028336Hj
807961,807961Iz,09VxN4Y37ZdSWlmSwbTzkBPcDzlwbf,Vassana Cafe คำชะโนด คำชะโนด,วาสนา คาเฟ่ คำชะโนด,Vassana Cafe Khamchanod,17.741665,103.290087,41190,คาเฟ่,คาเฟ่,1,https://img.wongnai.com/p/_-x_/2024/06/26/9231fac9843b433097c8a180e8399f7f.jpg,https://www.wongnai.com/restaurants/807961Iz
696693,696693Fx,09VxIlmD65ocH7WqlAKJvqtINbC38m,สุขใจแลนด์  อุดรธานี,,,17.602365865171482,102.79620013752137,,อาหารอีสาน/ร้านส้มตำ,อาหารอีสาน/ร้านส้มตำ,1,https://img.wongnai.com/p/_-x_/2022/03/19/3cab43b0178b4c98a01158e8f6c22cb2.jpg,https://www.wongnai.com/restaurants/696693Fx
3403542,3403542mi,09VyZ2UwMIOlVX40UOkboDRvsGdvPD,ชอบกินชา Mak Gin Cha,,,17.686889734335143,103.26494263485074,41190,ร้านกาแฟ/ชา,ร้านกาแฟ/ชา,1,https://img.wongnai.com/p/_-x_/2025/08/24/81e5c0623b1c4453a3bdb286d0953b6c.jpg,https://www.wongnai.com/restaurants/3403542mi
215448,215448Zt,09VwpBTRUEMJq7J0D4tkaTTtfP8S1A,ไก่ย่างครูพเยาว์ วัดป่าภูก้อน,ไก่ย่างครูพเยาว์,,17.892196607316002,102.13801967898189,,อาหารอีสาน/ร้านส้มตำ,อาหารอีสาน/ร้านส้มตำ,1,https://img.wongnai.com/p/_-x_/2018/07/15/984497011ef342e29a03dc028f6633bc.jpg,https://www.wongnai.com/restaurants/215448Zt
3311477,3311477Df,09VyWN29Igc8hBmD5ycUelKrxwVGwY,Sandwiches KhunTon,แซนวิชคุณต้น,,17.690275454148082,103.25819165772872,41190,อาหารกล่อง/ข้าวกล่อง เดลิเวอรี,อาหารกล่อง/ข้าวกล่อง เดลิเวอรี,1,https://img.wongnai.com/p/_-x_/2025/06/27/336d52cd803c47bea4b640652cce8dac.jpg,https://www.wongnai.com/restaurants/3311477Df
93313,93313ZM,09VwpBTRI2Ums3I6cYdUXu3EUwYXxk,ดาวเรืองจิ้มจุ่ม,ดาวเรืองจิ้มจุ่ม,DAO RUEANG CHIM CHUM RESTAURANT,17.681976,103.254848,41190,อาหารอีสาน/ร้านส้มตำ,อาหารอีสาน/ร้านส้มตำ,1,https://img.wongnai.com/p/_-x_/2017/01/17/eed5f80e20404e669b46ec3d8a668ded.jpg,https://www.wongnai.com/restaurants/93313ZM
3321806,3321806Bu,09VyWg3lxqPiYgnZAr1PwnT0F29nn6,ก๋วยเตี๋ยวโกเด้ง โฮเด้ง หน้า CJ,,,17.10703408449013,103.01941700734795,41110,ก๋วยเตี๋ยว,ก๋วยเตี๋ยว,1,https://img.wongnai.com/p/_-x_/2025/07/03/dd85bbc60cd74c8e8c29c6a218db7050.jpg,https://www.wongnai.com/restaurants/3321806Bu
2959634,2959634RT,09VyJuUItJE6ylN5jdXBzEPmlTf1ft,ชาบู ชาบู & ปิ้งย่าง หนองหาน  -,ชาบู ชาบู & ปิ้งย่าง หนองหาน ,,17.3677971,103.1044622,,ชาบู/สุกี้ยากี้/หม้อไฟ,ชาบู/สุกี้ยากี้/หม้อไฟ,1,https://img.wongnai.com/p/_-x_/2024/10/17/3d3135162fae46b3b99f9df4690997a3.jpg,https://www.wongnai.com/restaurants/2959634RT
3349783,3349783jA,09VyXTunAfSzLO99pOASET9C0psQwD,เกษรการเกษตร,,,17.3069444,102.5980556,41360,อื่นๆ,อื่นๆ,0,https://img.wongnai.com/p/_-x_/2025/09/24/c85d9565be434f8faa31b84bc8187062.jpg,https://www.wongnai.com/restaurants/3349783jA
384727,384727ro,09VwpBTRZyukwjUw7P7c5aNg61EUZT,วัดถ้ำสุมณฑาภาวนา,,,17.210718924215694,103.45999900615152,,วัด,วัด,0,https://img.wongnai.com/p/_-x_/2019/08/11/7ff07052f4e1496d846c0f87cc5b6310.jpg,https://www.wongnai.com/restaurants/384727ro
2977071,2977071fn,09VyKaiczRO3wZPvX3yEKBwM4CxEBH,หม่าล่าคาเฟ่ สาขา PT ห้วยเกิ้ง -,หม่าล่าคาเฟ่ สาขา PT ห้วยเกิ้ง,,17.0815406,102.9315627,,ปิ้งย่าง,ปิ้งย่าง,1,https://img.wongnai.com/p/_-x_/2024/11/18/94480862ca124f4580d3eae195167405.jpg,https://www.wongnai.com/restaurants/2977071fn
2947402,2947402fT,09VyJSljy0bBHA8cFB78rQFTOeNDiy,เลดี้วรรณ -,เลดี้วรรณ,,17.721767492486,102.49235015832,,อาหารตามสั่ง,อาหารตามสั่ง,1,https://img.wongnai.com/p/_-x_/2025/01/24/713ebcf9713e47758cb5f757099b4817.jpg,https://www.wongnai.com/restaurants/2947402fT
3041949,3041949ed,09VyNH01v36UHzVrpdpgJMDaDYMMhy,PunThai Coffee กู่แก้ว,กาแฟพันธุ์ไทย,PunThai Coffee,17.202322062345594,103.11493417738494,,ร้านกาแฟ/ชา,ร้านกาแฟ/ชา,1,https://img.wongnai.com/p/_-x_/2025/11/20/cc316c27e5964de08f473e6d69e7294d.jpg,https://www.wongnai.com/restaurants/3041949ed
2995465,2995465DG,09VyLJsRv5emOE0DpmHmgi5bvAw6Ko,คิงส์ อารีน่า -,คิงส์ อารีน่า,,17.6828155,102.9214323,41150,คาเฟ่,คาเฟ่,1,https://img.wongnai.com/p/_-x_/2024/11/06/d45f4d97699a41e59a56ee6bc87ecf3d.jpg,https://www.wongnai.com/restaurants/2995465DG
3293827,3293827gV,09VyVtNnjOLnAdJ3vB4RT0ziDOuEyK,ก๋วยเตี๋ยวเรืออยุธยา กุ๊กไก่ฟู๊ด,,,17.70248193315888,103.25494972988963,41190,ก๋วยเตี๋ยว,ก๋วยเตี๋ยว,1,https://img.wongnai.com/p/_-x_/deleted/2017/11/04/1aba937ae608434ca66969023431358b.jpg,https://www.wongnai.com/restaurants/3293827gV
3314238,3314238xY,09VyWTqgea4KupSmT3iA4I34apP0QF,ร้านอาหารต้นเงิน,,,17.67660226155349,103.24969226494431,49110,อาหารจานเดียว,อาหารจานเดียว,1,https://img.wongnai.com/p/_-x_/deleted/2018/10/31/7ad45931ab89480083fa5d7ba21e965e.jpg,https://www.wongnai.com/restaurants/3314238xY
3498143,3498143Xi,09VybUXIIAES6um8dHZo8TjWefl795,แคร์แบร์ไส้กรอกอีสาน,,,17.1776446,103.1163739,10330,ร้านขายของชำ,ร้านขายของชำ,0,https://img.wongnai.com/p/_-x_/2026/05/25/ea6981ec7d8d4464acedecac2b8e2a7b.jpg,https://www.wongnai.com/restaurants/3498143Xi
3355953,3355953Om,09VyXd4kh7WwgFqJONjMQKO8dUC3co,ยายแม็กกล้วยทอด,,,17.6919730384609,103.25752230361104,41190,ของหวาน,ของหวาน,1,https://img.wongnai.com/p/_-x_/2025/07/30/b2dd5a8b3296413ea539e3c8c1db4b0d.jpg,https://www.wongnai.com/restaurants/3355953Om
421212,421212iK,09Vwud4lxuxG9ZIhcKCiFfP9T7Dz6n,ก๋วยเตี๋ยวเรือคลองสระบัว,,,17.68643119903596,102.49414835125208,,ก๋วยเตี๋ยว,ก๋วยเตี๋ยว,1,https://img.wongnai.com/p/_-x_/2019/06/29/2d87cfd2755b425e9b84d5a7b8d6a196.jpg,https://www.wongnai.com/restaurants/421212iK
610520,610520Bm,09VxDTrT6okSEEmnemwuB4o4C47W4X,ก๋วยเตี๋ยวเรืออยุธยา พุดตาน,ก๋วยเตี๋ยวเรืออยุธยา พุดตาน,,17.362827729368256,103.10299189255547,,อาหารไทย|ก๋วยเตี๋ยว|ร้านริมน้ำ,อาหารไทย,1,https://img.wongnai.com/p/_-x_/2020/08/16/3196f7a9dbc84b41bc9dcd43b6f4ab17.jpg,https://www.wongnai.com/restaurants/610520Bm
3344316,3344316vM,09VyXJTgcwJYOSOTkwSrkNJqbi9CrJ,Care-Khun tea ร้านน้ำชงแคร์คุณ หน้าเทคนิคพิชญ,,,17.68498930000002,103.25764380000004,41190,ชานมไข่มุก,ชานมไข่มุก,1,https://img.wongnai.com/p/_-x_/2025/07/22/f6377d9db4784b5a974ef13a558450dd.jpg,https://www.wongnai.com/restaurants/3344316vM
3313669,3313669AX,09VyWRwjafOSRoQwP0P4qexo5b8M7A,วรรณา ขนมจีนน้ำเงี้ยว,,,17.715459654189075,103.2450252212584,41190,อาหารเหนือ,อาหารเหนือ,1,https://img.wongnai.com/p/_-x_/2026/04/02/f3bef484385c41adbefb9337fff664fe.jpg,https://www.wongnai.com/restaurants/3313669AX
625106,625106rN,09VxEa1yeA8BAmoGoRNMrhf54JawVY,ยำมักม่วน ข้าว น้ำ ยำ  ยำมะม่วง  งามวงศ์วาน งามวงศ์วาน ชินเขต2,ยำมะม่วง ข้าว เเละเครื่องดื่ม,Yum mugmuan,17.11117507219867,103.00864247605205,41110,อาหารอีสาน/ร้านส้มตำ|ร้านกาแฟ/ชา|อาหารตามสั่ง,อาหารอีสาน/ร้านส้มตำ,1,https://img.wongnai.com/p/_-x_/2021/07/26/0f2fad8481e74db78508ae78f5290509.jpg,https://www.wongnai.com/restaurants/625106rN
386093,386093Bg,09VwpBTRWVtFNarBIXFIo9Wv9i42yu,ครัวนายแม่ อุดรธานี,,Krua Nay- Mae,16.956569,103.442913,,อาหารไทย|อาหารอีสาน/ร้านส้มตำ,อาหารไทย,1,https://img.wongnai.com/p/_-x_/2019/02/22/b38385a4d35943fb9b9cdebb1777e333.jpg,https://www.wongnai.com/restaurants/386093Bg
572240,572240Wd,09Vx9nG41tQCbKRLOyx2JckvCvMeqN,กินเส้น,กินเส้น,,17.3641329,103.0992029,,อาหารไทย|อาหารจานเดียว|อาหารตามสั่ง,อาหารไทย,1,https://img.wongnai.com/p/_-x_/2020/06/19/bfd1d190c4f440c69a84ca171140d439.jpg,https://www.wongnai.com/restaurants/572240Wd
431122,431122rw,09VwwLbm4tbB82Zt3yGEf6TVTHztJy,พระธาตุเทพจินดาบ้านเดียม หรือ วัดพระธาตุบ้านเดียม,พระธาตุเทพจินดาบ้านเดียม หรือ วัดพระธาตุบ้านเดียม,,17.2144181,103.03539520000004,,วัด,วัด,0,https://img.wongnai.com/p/_-x_/2019/11/01/e58f5828436549a8bf42415df4d83257.jpg,https://www.wongnai.com/restaurants/431122rw
375504,375504IV,09VwpBTRauDl1BEj4dQPWitk3iUXpO,วัดโพธิ์ศรีใน,,,17.4084227,103.24389819999999,,วัด,วัด,0,https://img.wongnai.com/p/_-x_/2021/12/03/c44924155f9f4db8ba5eb5509721dea8.jpg,https://www.wongnai.com/restaurants/375504IV
3384660,3384660aq,09VyYX1euOpgqyOTWiBmSXQJSFJK84,ชงชา ชานมไข่มุก สาขาปั๊มบางจากกุมภวาปี,,,17.119253846609563,102.98907698551045,41110,ร้านกาแฟ/ชา,ร้านกาแฟ/ชา,1,https://img.wongnai.com/p/_-x_/2025/08/13/87fd502e733a44ca818cd7ae66f91216.jpg,https://www.wongnai.com/restaurants/3384660aq
93293,93293JO,09VwpBTRGzgnrSY8cjKlSk6sWBZfEH,เจ๊จันก๋วยเตี๋ยวเป็ด,เจ๊จันก๋วยเตี๋ยวเป็ด,CHE CHAN DUCK NOODLE,17.056076,102.920086,41110,ก๋วยเตี๋ยว,ก๋วยเตี๋ยว,1,https://img.wongnai.com/p/_-x_/2020/03/06/101bf306c7bc467da77c22df7c5ae79e.jpg,https://www.wongnai.com/restaurants/93293JO
3448297,3448297YA,09VyaMJYbfPF79LasaJzesqxYDYNhI,เอลินปังนิยม,,,17.10378023798045,103.01614528521895,41110,ปิ้งย่าง,ปิ้งย่าง,1,https://img.wongnai.com/p/_-x_/2025/09/22/5d95fde1fced473791266eba839334d3.jpg,https://www.wongnai.com/restaurants/3448297YA
2598566,2598566oC,09Vy7VuBhMUuzedTHONe2KUude5gi4,โชว์ดาว -,โชว์ดาว,,17.110301871188,103.01791329133,,กึ่งผับ/ร้านเหล้า/บาร์,กึ่งผับ/ร้านเหล้า/บาร์,1,https://img.wongnai.com/p/_-x_/2024/03/03/5585a747a9b648dc82e35bff9a756c2e.jpg,https://www.wongnai.com/restaurants/2598566oC
2829548,2829548vT,09VyFibabllqJeEZaWXX0BM8p9N4QX,Mother Cows ทาวน์ อิน ทาวน์,Mother Cows,Mother Cows,17.429408,102.989615,,คาเฟ่,คาเฟ่,1,https://img.wongnai.com/p/_-x_/2025/06/06/83197b3cd0d440f7a8fab969e871e180.jpg,https://www.wongnai.com/restaurants/2829548vT
1962548,1962548Le,09VxnhIaBggDVcTFoI955bFeDOCrGb,โมเมย์แซนวิชไส้แตก,,,17.354409004687227,103.10476072971265,41130,อาหารเช้า,อาหารเช้า,1,https://img.wongnai.com/p/_-x_/2022/10/20/d211123ddc814a4cbdd91d658d023a5a.jpg,https://www.wongnai.com/restaurants/1962548Le
3096068,3096068NX,09VyPYNID0DNqQtdjDpT56rOJ5X5fO,ข้าวแกงจับกัง โชว์พุง -,ข้าวแกงจับกัง โชว์พุง,,17.1059618,103.0189664,41110,อาหารกล่อง/ข้าวกล่อง เดลิเวอรี,อาหารกล่อง/ข้าวกล่อง เดลิเวอรี,1,https://img.wongnai.com/p/_-x_/2025/06/19/9240fdee80b143e2b4247392f7f10feb.jpg,https://www.wongnai.com/restaurants/3096068NX
3364901,3364901GI,09VyXw1U04NfZjZTCP3zhvhO53leOG,ร้านเชฟเอก,,,17.689819184530528,103.24299579486251,41190,อาหารกล่อง/ข้าวกล่อง เดลิเวอรี,อาหารกล่อง/ข้าวกล่อง เดลิเวอรี,1,https://img.wongnai.com/p/_-x_/2025/07/31/a5ff83e243334e179315f358600a1b16.jpg,https://www.wongnai.com/restaurants/3364901GI
2081974,2081974Co,09Vxra5GHjF5tRSVd658yBzeokZhWO,สบายกาย นวดเพื่อสุขภาพ บ้านผือ,,,17.691289640567774,102.46614469710619,,นวดแผนไทย,นวดแผนไทย,0,https://img.wongnai.com/p/_-x_/2023/01/13/48a00d35a7ce4599a78f8615e59463b4.jpg,https://www.wongnai.com/restaurants/2081974Co
2879703,2879703uc,09VyHHEombiHt7hFmFnipmKZ0542rW,PunThai Coffee บ้านผือ,กาแฟพันธุ์ไทย,,17.566498,102.672693,,ร้านกาแฟ/ชา,ร้านกาแฟ/ชา,1,https://img.wongnai.com/p/_-x_/2025/11/19/de2e3eb7bf3845b984e136fef8f81af7.jpg,https://www.wongnai.com/restaurants/2879703uc
3285466,3285466QD,09VyVfJYSLoMfWPu1kT2N5wQefnCPX,วันวาน เคดแกลเลอรี่,,,17.6908777,103.2545632,41190,คาเฟ่,คาเฟ่,1,https://img.wongnai.com/p/_-x_/deleted/2017/11/04/8405770b540b487da058421748fd2073.jpg,https://www.wongnai.com/restaurants/3285466QD
685193,685193ve,09VxI4ZbO2PmAnWBuzKk7MH2uCJ0N3,ก๋วยเตี๋ยวไก่มะระสูตรเด็ด,ร้านกินอิ่ม,,16.978915151674418,102.89263408631086,41240,ก๋วยเตี๋ยว|อาหารกล่อง/ข้าวกล่อง เดลิเวอรี,ก๋วยเตี๋ยว,1,https://img.wongnai.com/p/_-x_/2021/01/08/3e61e4703d6140ca85c02f44cde937ce.jpg,https://www.wongnai.com/restaurants/685193ve
2637084,2637084KZ,09Vy9DVujFlJxxPSqgI4ippf37VCee,ยำแซ่บ สเตชั่น,,,17.4573172,102.5382081,,อาหารอีสาน/ร้านส้มตำ,อาหารอีสาน/ร้านส้มตำ,1,https://img.wongnai.com/p/_-x_/2024/02/04/3a4317df11e041529ea50bb05b1bf5ab.jpg,https://www.wongnai.com/restaurants/2637084KZ
838587,838587wg,09VxO9fN2XukMjldGHUxFMPE9aDwaP,StarCoffee หนองแวง,,,17.773024,102.229159,41210,คาเฟ่|เบเกอรี/เค้ก|ของหวาน,คาเฟ่,1,https://img.wongnai.com/p/_-x_/2021/04/07/fe823e321cb5458791ef79e2aa9e1619.jpg,https://www.wongnai.com/restaurants/838587wg
3669027,3669027JV,09VygxT4ytIz23H4Fr5SCrWj858nsG,เฟื่องฟ้า อ. บ้านผือ จ.อุดรธานี,เฟื่องฟ้า อ.บ้านผือ จ.อุดรธานี,,17.6891495,102.4813402,,อาหารไทย,อาหารไทย,1,https://img.wongnai.com/p/_-x_/2026/02/14/c57cb38ebc1d4ccaa47cc82b9d270a36.jpg,https://www.wongnai.com/restaurants/3669027JV
3568760,3568760Bf,09VydI3mvQWPrZOIGNWZdDOpe1bVyq,ลองดองดุง,,,17.692797574975025,103.24325421402658,41190,อาหารญี่ปุ่น,อาหารญี่ปุ่น,1,https://img.wongnai.com/p/_-x_/2025/11/25/b4e2b51c32644e74a275d98275d9980b.jpg,https://www.wongnai.com/restaurants/3568760Bf
