id,publicId,gid,displayName,name_thai,name_english,lat,lng,zipcode,categories,primary_category,is_likely_food,default_photo_url,detail_url
3015483,3015483xt,09VyM6mjwwZpIjaI70BnHa5l9WLL3Z,NGON Vietnamese Restaurant - งอน เวียดนาม The Kad Farang Maerim,,,18.902187,98.949744,,อาหารเวียดนาม,อาหารเวียดนาม,1,https://img.wongnai.com/p/_-x_/2025/04/09/8fe6876cac47491d95a9e8f85d89ec57.jpg,https://www.wongnai.com/restaurants/3015483xt
2428553,2428553kA,09Vy0NDMvVZplAyKVglxxILoucwxN1,ครัวคุณแม่หมูกระทะ  เชียงใหม่(แยกหลุยส์),,,18.781808971892055,99.06970342627561,,ปิ้งย่าง|หมูกระทะ|อาหารไทย,ปิ้งย่าง,1,https://img.wongnai.com/p/_-x_/2023/09/05/b0139f35fda24cc1ac14837cd5d80918.jpg,https://www.wongnai.com/restaurants/2428553kA
3028654,3028654oV,09VyMeQZisIlMrxwTzpW7s5kDKwgb4,Pizza Hut โลตัสสันกำแพง,พิซซ่าฮัท,Pizza Hut,18.744682183251978,99.12019478157163,50220,พิซซ่า|ฟาสต์ฟู้ด/จานด่วน,พิซซ่า,1,https://img.wongnai.com/p/_-x_/2026/05/14/33f874c2489140b2b572044385ca4e84.jpg,https://www.wongnai.com/restaurants/3028654oV
3028656,3028656Ag,09VyMeRDLxVrrbhl5fh1aL4HyJDo5g,Pizza Hut กาดฝรั่งแม่ริม,พิซซ่าฮัท,Pizza Hut,18.90223737995857,98.94955230876803,65000,พิซซ่า|ฟาสต์ฟู้ด/จานด่วน,พิซซ่า,1,https://img.wongnai.com/p/_-x_/2026/05/14/5f2a731f97514d7da893cf23736aaa4a.jpg,https://www.wongnai.com/restaurants/3028656Ag
300482,300482KT,09VwpBTRVLHRQHuqoRSrLEXRxVKsZa,Pizza Hut กาดฝรั่ง เชียงใหม่,พิซซ่าฮัท,Pizza Hut,18.701335,98.932076,,พิซซ่า|ฟาสต์ฟู้ด/จานด่วน,พิซซ่า,1,https://img.wongnai.com/p/_-x_/2026/05/14/5f1c3fb1bc0e4c758afd27977c126297.jpg,https://www.wongnai.com/restaurants/300482KT
2250825,2250825zf,09VxvfnN7E5ZbpVAJJGFxuwsjKJRy8,สปอร์ตคิงดอม -,,,18.890501366580594,99.03427390381694,-,ตลาดสด|สินค้าแฟชั่น|ร้านสุขภาพและความงาม,ตลาดสด,0,https://img.wongnai.com/p/_-x_/2024/12/20/3ef40e1b841f4c38b24506de8214e409.jpg,https://www.wongnai.com/restaurants/2250825zf
2390950,2390950fV,09VxzL1WFp9v2zxTZM1qawkjdFhWEi,ก๋วยเตี๋ยวคุณแม่ สาขาแม่ริม,,,18.91786889599323,98.94340313852807,50180,ก๋วยเตี๋ยว,ก๋วยเตี๋ยว,1,https://img.wongnai.com/p/_-x_/2024/09/27/d18847da493a4e038e3229020fd0074c.jpg,https://www.wongnai.com/restaurants/2390950fV
1922686,1922686kh,09VxmeIFjYCTLnCCDDZw7DlpPYCkzc,ลูกชิ้นทอด เจ้นก สันผักหวาน หางดง เชียงใหม่,ลูกชิ้นทอด เจ้นก,,18.709695584726106,98.94845997914672,50230,อาหารไทย,อาหารไทย,1,https://img.wongnai.com/p/_-x_/2023/10/04/2cfe372dfd7b44f2b17db1ad3da52429.jpg,https://www.wongnai.com/restaurants/1922686kh
1819243,1819243QJ,09VxkLSLxG9aspFdhyJDg6899H2Yuk,ข้าวซอยสูตรโบราณ  ท้ายซอย,ข้าวซอยสูตรโบราณ  ท้ายซอย,,18.814661945399518,99.1020603580443,50220,ก๋วยเตี๋ยว,ก๋วยเตี๋ยว,1,https://img.wongnai.com/p/_-x_/2025/07/27/6d74184e03eb48fa96fa5e71683ea744.jpg,https://www.wongnai.com/restaurants/1819243QJ
2496528,2496528zP,09Vy2ltv98zH4Qf7kOEkEAojcr2QPN,ชานมไข่มุก กาฟิลด์ Chill Cafe สามแยกแม่โจ้,,,18.892134717003678,99.01064498350024,50210,ชานมไข่มุก,ชานมไข่มุก,1,https://img.wongnai.com/p/_-x_/2023/09/16/1b93e797c4fa41e891e47ec9edfa3b5b.jpg,https://www.wongnai.com/restaurants/2496528zP
2452442,2452442wi,09Vy1BUuCNtBCmpWWGn1cDymItbpjY,อาหารคลีน(The Clean Table) 1,,The Clean Table,18.878289620739142,99.03800921514632,50210,อาหารคลีน/สลัด|อาหารกล่อง/ข้าวกล่อง เดลิเวอรี|เครื่องดื่ม/น้ำผลไม้,อาหารคลีน/สลัด,1,https://img.wongnai.com/p/_-x_/2025/04/03/a6a29031d6644f74b6ccfd49a02d46b3.jpg,https://www.wongnai.com/restaurants/2452442wi
444812,444812ZU,09VwyYFkvs8WMN1juH0jkF11sAkEMN,เวลา Vela เวลา Vela,เวลา Vela,,18.77779,99.052002,50130,ร้านกาแฟ/ชา|อาหารมุสลิม/ฮาลาล,ร้านกาแฟ/ชา,1,https://img.wongnai.com/p/_-x_/2022/07/28/0be2d11780ac4a76a05dc6b101123a9e.jpg,https://www.wongnai.com/restaurants/444812ZU
11644,11644mU,09VwpBTRMdoAr634YCVlRMIRtHk1iP,Mr. Chan & Miss Pauline Pizzeria Restaurant,มิสเตอร์ชาญ แอนด์ มิสเพาลีน,Mr. Chan & Miss Pauline Pizzeria Restaurant,18.7079578,98.9659274,,พิซซ่า|อาหารอิตาเลียน,พิซซ่า,1,https://img.wongnai.com/p/_-x_/2020/06/17/2c9d9167a9bd490db689a7329d655078.jpg,https://www.wongnai.com/restaurants/11644mU
3789180,3789180zN,09Vykw4IEqOHtFxe3oXNyVIrYLUQrz,ส้มตำ หมื่นคำนัว ท่ารั่ว,,,18.813724366211225,99.06615799292922,50220,อาหารอีสาน/ร้านส้มตำ,อาหารอีสาน/ร้านส้มตำ,1,https://img.wongnai.com/p/_-x_/2021/01/09/f768ac337c30402a8a052eb0e8814a7a.jpg,https://www.wongnai.com/restaurants/3789180zN
243057,243057Wp,09VwpBTRTu5QqiV1lZHTP0LBReMn5C,ครัวหลองข้าว เชียงใหม่,ครัวหลองข้าว,Lhongkao Kitchen,18.91700598558,98.95149724558,*,อาหารเหนือ,อาหารเหนือ,1,https://img.wongnai.com/p/_-x_/2018/12/27/41a6eae88e8f4e00a392811d07e2476c.jpg,https://www.wongnai.com/restaurants/243057Wp
2627786,2627786CF,09Vy8pwlOT2tDFQveGlih9nOlxhXDr,ร้านชำบาร์ Local Carft Beer สำนักงานใหญ่,ร้านชำบาร์ Local Carft Beer,Raanchumbar Local Craft Beer,18.707689617362,98.949635671281,,อาหารไทย,อาหารไทย,1,https://img.wongnai.com/p/_-x_/2026/01/15/edd5a88872f842b19d8aef15df9c65dd.jpg,https://www.wongnai.com/restaurants/2627786CF
1732182,1732182Hl,09VxiJuAsi8AkJe7buPWUwWpubUOu5,ฟีล ฟิลด์ feel field,ฟีล ฟิลด์,feel field,18.85704296467,99.048167746514,50210,ร้านกาแฟ/ชา,ร้านกาแฟ/ชา,1,https://img.wongnai.com/p/_-x_/2022/06/28/25242d66b3754c90adaafb2d59e3cf59.jpg,https://www.wongnai.com/restaurants/1732182Hl
2057547,2057547wZ,09VxqZwi0lgPZXMcdTgulJdtVtlpH2,บัวไหลก๋วยเตี๋ยวต้มยำ รวมโชค -,บัวไหลก๋วยเตี๋ยวต้มยำ รวมโชค,,18.837840239984,99.013142637548,,กึ่งผับ/ร้านเหล้า/บาร์,กึ่งผับ/ร้านเหล้า/บาร์,1,https://img.wongnai.com/p/_-x_/2025/06/01/d6cec1dd361b4afeb7d5de335f25d899.jpg,https://www.wongnai.com/restaurants/2057547wZ
2507433,2507433oY,09Vy3CqBCRgzqL76Zxb1Ad00b1w9TZ,Loaf & Fish Chiangmai -,Loaf & Fish Chiangmai,,18.699299187141,98.92422772944,,เบเกอรี/เค้ก,เบเกอรี/เค้ก,1,https://img.wongnai.com/p/_-x_/2024/02/29/cbc427e9ff27447da86fa031c7e27b7a.jpg,https://www.wongnai.com/restaurants/2507433oY
192145,192145ws,09VwpBTROawVNFcRf2gHJqdkpUB5ea,มีนา เชียงใหม่,มีนา,Meena rice based cuisine,18.784859484952406,99.04595957949118,,อาหารไทย,อาหารไทย,1,https://img.wongnai.com/p/_-x_/2016/11/05/407fc34679b24e77acf40985fedfd40e.jpg,https://www.wongnai.com/restaurants/192145ws
243646,243646oX,09VwpBTRUn4IlvZrg2fp5Of3A9PMp9,Charm Bakery Factory,ชาร์ม เบเกอรี่  ,Charm bakery,18.7239262,98.94191959999999,,ร้านกาแฟ/ชา|อาหารนานาชาติ|เบเกอรี/เค้ก,ร้านกาแฟ/ชา,1,https://img.wongnai.com/p/_-x_/2016/08/17/ca1e8cdf77c84eb8b6925dd3075f9045.jpg,https://www.wongnai.com/restaurants/243646oX
378307,378307sU,09VwpBTRZw2199uuBx7HOw3Lu6LSo0,Pete Croissanterie,,,18.82831228255844,99.01313005015254,,เบเกอรี/เค้ก,เบเกอรี/เค้ก,1,https://img.wongnai.com/p/_-x_/2020/09/24/10d6ba4768ac442e9b37bc00e5f12bc1.jpg,https://www.wongnai.com/restaurants/378307sU
3015483,3015483xt,09VyM6mjwwZpIjaI70BnHa5l9WLL3Z,NGON Vietnamese Restaurant - งอน เวียดนาม The Kad Farang Maerim,,,18.902187,98.949744,,อาหารเวียดนาม,อาหารเวียดนาม,1,https://img.wongnai.com/p/_-x_/2025/04/09/8fe6876cac47491d95a9e8f85d89ec57.jpg,https://www.wongnai.com/restaurants/3015483xt
3706123,3706123Kk,09VyiBqKaJOCqw3SGcmeViBcBQ5iiB,Yody Coffee & Family,โยดี้คอฟฟี่แอนด์แฟมิลี,,18.9163651,98.92764249999999,50180,ร้านกาแฟ/ชา,ร้านกาแฟ/ชา,1,https://img.wongnai.com/p/_-x_/2020/07/26/c9c4f22fbfe64999b839c0c3038cc011.jpg,https://www.wongnai.com/restaurants/3706123Kk
2462840,2462840vY,09Vy1W7xljBA50dWSgFZ6jc7qwciGy,ร้านนิยมเส้น 1,ร้านนิยมเส้น,,18.941249635555,98.946491405368,50180,ก๋วยเตี๋ยว|อาหารอีสาน/ร้านส้มตำ,ก๋วยเตี๋ยว,1,https://img.wongnai.com/p/_-x_/2024/06/29/0ddd9fe7062145589f89e4d13e3d025e.jpg,https://www.wongnai.com/restaurants/2462840vY
3610192,3610192Is,09VyfBr9tpmPcJdVVeNEWJfW8Jl3B1,บรรจง วัวหันสันกำแพง (เจ้าเก่า),,,18.738542162361583,99.12541081057053,50130,ปิ้งย่าง,ปิ้งย่าง,1,https://img.wongnai.com/p/_-x_/2021/01/04/279aa9e6930d4b0d9e31a263f6b5810c.jpg,https://www.wongnai.com/restaurants/3610192Is
2324380,2324380Ru,09Vxxd2BqO5vDGnkgJFU6LVKcTffOC,Five Star เซเว่นอีเลฟเว่น บ้านยวม (อ.สารภี),ห้าดาว,Five Star,18.753280620238726,99.10187629982829,50130,ปิ้งย่าง|ก๋วยเตี๋ยว,ปิ้งย่าง,1,https://img.wongnai.com/p/_-x_/2023/09/19/28f0361e66844310af4b5fec47f3332d.jpg,https://www.wongnai.com/restaurants/2324380Ru
8039,8039DA,09VwpBTRIHmKtMNrI5j7PtoiJKGzxA,เฮือนใจ๋ยอง เชียงใหม่,เฮือนใจ๋ยอง,Huen Jai Yong,18.725337,99.102821,50130,อาหารไทย|อาหารเหนือ,อาหารไทย,1,https://img.wongnai.com/p/_-x_/2021/05/25/a0645e9d120b47fda0c3d140f8bcab38.jpg,https://www.wongnai.com/restaurants/8039DA
131724,131724AK,09VwpBTRLy3ZmmtF2vAMn6I82iEL16,สวนผัก โอ้กะจู๋ สันทราย,สวนผัก โอ้กะจู๋,Ohkajhu,18.840597498832935,99.0246278484621,,อาหารคลีน/สลัด|อาหารเจ,อาหารคลีน/สลัด,1,https://img.wongnai.com/p/_-x_/2025/08/26/e8eff8b966f24ea1b85f632ef1ef8f97.jpg,https://www.wongnai.com/restaurants/131724AK
2073140,2073140eV,09VxrM53BQKjZSeslSVtm6JQS8Ifd1,บ้านอิสาน ส้มตำ ยำ แม่คือ,บ้านอิสาน,Baan Isan,18.77286590185055,99.1020436026156,50220,อาหารอีสาน/ร้านส้มตำ,อาหารอีสาน/ร้านส้มตำ,1,https://img.wongnai.com/p/_-x_/2023/01/08/09cae5ec4829497cabf483cf7ee38642.jpg,https://www.wongnai.com/restaurants/2073140eV
211579,211579DR,09VwpBTRQlFXjgdD7WHkpZ4VVuP49a,ระเบียงบ้าน,ระเบียงบ้าน,RabiengBaan ,18.922174635501086,98.93658097833395,,อาหารไทย|อาหารนานาชาติ,อาหารไทย,1,https://img.wongnai.com/p/_-x_/2016/10/27/e1e45df1c146478e83454e1238bc0d35.jpg,https://www.wongnai.com/restaurants/211579DR
1516415,1516415AP,09Vxdk7lDheUyPJ3YwYMVKhzwBbcPG,Chicky chic🔥(ไก่ทอดเกาหลี)-หางดง,,,18.680447024217475,98.95260740551151,50230,อาหารเกาหลี|ฟาสต์ฟู้ด/จานด่วน|อาหารไทย,อาหารเกาหลี,1,https://img.wongnai.com/p/_-x_/2022/05/30/cdd6ef0c708b455c9d7d703163825da8.jpg,https://www.wongnai.com/restaurants/1516415AP
2141,2141zH,09VwpBTRKkwazOj96u1KYWLiCwh3vS,ข้าวเม่า-ข้าวฟ่าง เชียงใหม่,ข้าวเม่า-ข้าวฟ่าง,Khaomao-Khaofang Restaurant,18.73013545348045,98.94365999847649,50230,อาหารไทย,อาหารไทย,1,https://img.wongnai.com/p/_-x_/2012/07/08/dd4ea9313b744bfa951d603d41504e5f.jpg,https://www.wongnai.com/restaurants/2141zH
153862,153862dk,09VwpBTRU5W7y0WhglWbXDCBrvyuKV,ต้อมเตี๋ยวเรือยกซด สาขาหน้า ม.พายัพ หน้า ม.พายัพ,ต้อมเตี๋ยวเรือยกซด,,18.7939358,99.0256633,50000,ก๋วยเตี๋ยว|อาหารไทย,ก๋วยเตี๋ยว,1,https://img.wongnai.com/p/_-x_/2020/05/10/575eb0a435844474b3e9fd576856989c.jpg,https://www.wongnai.com/restaurants/153862dk
357406,357406FM,09VwpBTRX8b6kb0RmioUeJESZ94liO,Hinoki Land (ฮิโนกิแลนด์) ไชยปราการ,,,19.655652329464644,99.14765386969759,,จุดชมวิว|ร้านขายของฝาก,จุดชมวิว,0,https://img.wongnai.com/p/_-x_/2019/01/13/3ac1990552d6403082353c5a00770e3a.jpg,https://www.wongnai.com/restaurants/357406FM
2340790,2340790kS,09Vxy5W5dya63f0zOjhgBVzvWYojLT,TAKDANAI coffee,ทักดนัย คอฟฟี่,TAKDANAI coffee,18.919413591047057,98.94629778340459,50180,คาเฟ่|เบเกอรี/เค้ก,คาเฟ่,1,https://img.wongnai.com/p/_-x_/2023/06/05/76801d95fee144a5a1596b62d8e508d4.jpg,https://www.wongnai.com/restaurants/2340790kS
324274,324274Qg,09VwpBTRUAuaPt3l7JLy6kPX83GsbX,ม่อนแจ่ม,ม่อนแจ่ม,,18.93576804489993,98.82241958470513,,อุทยานและธรรมชาติ,อุทยานและธรรมชาติ,1,https://img.wongnai.com/p/_-x_/2018/10/29/2c8a3896799749a0a52cc28b7cad5432.jpg,https://www.wongnai.com/restaurants/324274Qg
324277,324277FT,09VwpBTRO9s5Eu1sofnThrz2PwFGHF,สวนพฤกษศาสตร์สมเด็จพระนางเจ้าสิริกิติ์,สวนพฤกษศาสตร์สมเด็จพระนางเจ้าสิริกิติ์,,18.896816486288262,98.86004526826162,,อุทยานและธรรมชาติ,อุทยานและธรรมชาติ,1,https://img.wongnai.com/p/_-x_/2018/10/29/363f79e0994a4561a18fc678a853bc3e.jpg,https://www.wongnai.com/restaurants/324277FT
3472254,3472254sV,09VyazzgSBtgIlER2DwnRkDyzumB8U,อาเกี๋ยงลูกชิ้นปลาไร้สาร,,,18.814631392055652,99.02877436950803,50210,ก๋วยเตี๋ยว,ก๋วยเตี๋ยว,1,https://img.wongnai.com/p/_-x_/2025/10/30/e7cafa5a192f4d77973d9f6754247a87.jpg,https://www.wongnai.com/restaurants/3472254sV
370711,370711Yz,09VwpBTRWbNplq0ziwpVD9G7C06j76,สวนป่าดอยบ่อหลวง,สวนป่าดอยบ่อหลวง,,18.143347,98.317057,,บ้านพักอุทยาน/โครงการหลวง,บ้านพักอุทยาน/โครงการหลวง,0,https://img.wongnai.com/p/_-x_/2019/01/20/f4325cc6a7c74144a04a93273f40d866.jpg,https://www.wongnai.com/restaurants/370711Yz
443140,443140hM,09VwyJ5XAgzuoDrBYtfTI1D2caQGre,Café Amazon - CC3119 ปตท.ทุ่งรวงทอง(แม่วาง),คาเฟ่ อเมซอน - CC3119,Café Amazon - CC3119,18.554107670152906,98.848633242599,50360,ร้านกาแฟ/ชา|คาเฟ่,ร้านกาแฟ/ชา,1,https://img.wongnai.com/p/_-x_/2023/02/17/868af97e248f4a588d87b0e221b1d6d2.jpg,https://www.wongnai.com/restaurants/443140hM
121958,121958NZ,09VwpBTRNaljZjULsR88wIVi3TzdYH,Johoney,โจฮันนี่,,18.819580078125,99.07470703125,50220,ไอศกรีม,ไอศกรีม,1,https://img.wongnai.com/p/_-x_/2017/05/26/c2f1ad0a2b8d49059b9a2ad2153d6946.jpg,https://www.wongnai.com/restaurants/121958NZ
1074490,1074490fV,09VxU1KJ8zEmuhEdEsYw704AJ5eOow,Wine Connection กาดฝรั่ง วิลเลจ,ไวน์ คอนเน็คชั่น,Wine Connection,18.701806287574023,98.93186280503869,,ร้านไวน์|อาหารฟิวชั่น,ร้านไวน์,1,https://img.wongnai.com/p/_-x_/2024/06/17/cc03749c436045a594ee0f4a932a5b37.jpg,https://www.wongnai.com/restaurants/1074490fV
2260758,2260758Sz,09VxvzsfgDQiMeOAsRxVv5GhR74gWr,Five Star โครงการเพลินเพลส,ห้าดาว,Five Star,18.691729376335196,98.92306851223111,51000,ปิ้งย่าง,ปิ้งย่าง,1,https://img.wongnai.com/p/_-x_/deleted/2023/02/16/e8c7bffe55c843a88b8d39bffab523f8.jpg,https://www.wongnai.com/restaurants/2260758Sz
2428553,2428553kA,09Vy0NDMvVZplAyKVglxxILoucwxN1,ครัวคุณแม่หมูกระทะ  เชียงใหม่(แยกหลุยส์),,,18.781808971892055,99.06970342627561,,ปิ้งย่าง|หมูกระทะ|อาหารไทย,ปิ้งย่าง,1,https://img.wongnai.com/p/_-x_/2023/09/05/b0139f35fda24cc1ac14837cd5d80918.jpg,https://www.wongnai.com/restaurants/2428553kA
1997085,1997085YK,09VxohVS3FliSg2TTJZTMEfliKtemx,Catera Cat Cafe -,Catera Cat Cafe,,18.8164268,99.0182483,50210,คาเฟ่|ร้านกาแฟ/ชา,คาเฟ่,1,https://img.wongnai.com/p/_-x_/2022/11/19/3568d4d8318a4b36a59b02f13d71deb8.jpg,https://www.wongnai.com/restaurants/1997085YK
2123666,2123666jd,09VxstbDeCjmArwzthD2PMjBhpFrJv,ราดหน้าผัดซีอิ้วในซอยbyร้านกวักข้าวตามสั่ง บ้านแม่ย่อยสันศรี,จะมีป้ายร้านกวักข้าวตามสั่งอยู่หน้าปากซอยขับเข้ามาเลยค่ะไม่ต้องดูลูกศรซอยบ้านจะตรงกับประตูบ้านของป้ายร้านสมใจไม่ใช่ซอย3นะคะ,,18.817993806383726,99.04087448492646,50210,ก๋วยเตี๋ยว|อาหารจานเดียว,ก๋วยเตี๋ยว,1,https://img.wongnai.com/p/_-x_/2023/02/11/56dd6c08b1a046f0b4780a3a7ee32cb7.jpg,https://www.wongnai.com/restaurants/2123666jd
2530815,2530815bE,09Vy4CXskzgIEyb9Yc2VmZ4SsOw9FV,Isbjorn coffee shop Chiangdao 1,Isbjorn coffee shop,,19.334126566367,98.961886949837,,กึ่งผับ/ร้านเหล้า/บาร์,กึ่งผับ/ร้านเหล้า/บาร์,1,https://img.wongnai.com/p/_-x_/2023/10/28/65725290548949f88b17f5d4d6f7e9c3.jpg,https://www.wongnai.com/restaurants/2530815bE
1763313,1763313Pd,09Vxj6rpr0uSQHO2rx96Aj1Up1WCvY,สุขมีดีชา:Sukmee Deecha Fresh Tea & Juice สาขา ปั้มปตท.สันนาเม็ง,สุขมีดีชา:Sukmee Deecha Fresh Tea & Juice,,18.834494,99.056608,50210,เครื่องดื่ม/น้ำผลไม้,เครื่องดื่ม/น้ำผลไม้,1,https://img.wongnai.com/p/_-x_/2022/12/10/91bff3d2553541ab95264cf72fd0324e.jpg,https://www.wongnai.com/restaurants/1763313Pd
782086,782086nN,09VxM7VEmJ6KHujrzWVW2I1voRU1uI,Fleur Cafe & Eatery (เฟลอ คาเฟ่) -,Fleur Cafe & Eatery (เฟลอ คาเฟ่),,18.906802,98.9068,50180,อาหารฟิวชั่น|ร้านกาแฟ/ชา|อาหารเช้า,อาหารฟิวชั่น,1,https://img.wongnai.com/p/_-x_/2021/09/26/4af43b834d7e44749ae282d5cb856d99.jpg,https://www.wongnai.com/restaurants/782086nN
773033,773033kY,09VxLp8uMieeaUepaf3l8CVZPFKYDV,ก๋องคำ อาหารพื้นเมืองแม่ริม,,Gongkham,18.91001508645347,98.95103724871795,50180,อาหารเหนือ|ร้านกาแฟ/ชา|ร้านไวน์,อาหารเหนือ,1,https://img.wongnai.com/p/_-x_/2021/01/29/b548c6fbc93c46b4a91eb440316b7c1e.jpg,https://www.wongnai.com/restaurants/773033kY
8440,8440ld,09VwpBTRMahoNLYa0gQbHR4D4jtSkM,G&M German Sausage (ไส้กรอกเยอรมัน ขาหมูดอยสะเก็ด),ไส้กรอกเยอรมัน ขาหมูดอยสะเก็ด,G&M German Sausage,18.79748403843941,99.1418966233482,,อาหารอเมริกัน,อาหารอเมริกัน,1,https://img.wongnai.com/p/_-x_/2016/01/07/ce7b848bdd274625a5b53097342ee804.jpg,https://www.wongnai.com/restaurants/8440ld
1529114,1529114qG,09Vxe0Aj1TDziX19tjJ2iKgV12uj2j,ร้านซ๊ะป๊ะถาด ดอยสะเก็ด,ซ๊ะป๊ะถาด,SAPATAD,18.864027122734843,99.11744920536876,50220,อาหารตามสั่ง,อาหารตามสั่ง,1,https://img.wongnai.com/p/_-x_/2022/03/28/154c179b1f714a52a8f9703f4ef8f5eb.jpg,https://www.wongnai.com/restaurants/1529114qG
2085180,2085180hF,09VxrhwQudXoAWa0YJBV46ll8O5HqJ,Five Star บ้านร้องขุ่น สันปูเลย,ห้าดาว,Five Star,18.78351219381189,99.06013844534755,,ปิ้งย่าง|สตรีทฟู้ด/รถเข็น,ปิ้งย่าง,1,https://img.wongnai.com/p/_-x_/2023/07/13/e903128293c04f3fa36d43760974c7b6.jpg,https://www.wongnai.com/restaurants/2085180hF
245024,245024tA,09VwpBTRUeKgyoEWWCobNAljTZCdHr,แดนข้าวมันไก่  ตลาดสามแยกสันทราย,,,18.811341944705397,99.028165997743,50210,อาหารไทย|อาหารตามสั่ง,อาหารไทย,1,https://img.wongnai.com/p/_-x_/2017/02/19/137fee6687644f1f9bfccb7e7acd685b.jpg?v=17,https://www.wongnai.com/restaurants/245024tA
153862,153862dk,09VwpBTRU5W7y0WhglWbXDCBrvyuKV,ต้อมเตี๋ยวเรือยกซด สาขาหน้า ม.พายัพ หน้า ม.พายัพ,ต้อมเตี๋ยวเรือยกซด,,18.7939358,99.0256633,50000,ก๋วยเตี๋ยว|อาหารไทย,ก๋วยเตี๋ยว,1,https://img.wongnai.com/p/_-x_/2020/05/10/575eb0a435844474b3e9fd576856989c.jpg,https://www.wongnai.com/restaurants/153862dk
144580,144580BN,09VwpBTRIqgbwNd6pNAGaTJ2DUtw3f,บะหมี่เจ๊หัว สาขาฝาง,ต้นตำหรับจีนยูนนาน,Original Yunnan Chinese,19.912289960152833,99.20627994462848,-,อาหารจีน,อาหารจีน,1,https://img.wongnai.com/p/_-x_/2018/08/08/9333dd72d53147e7ad7815d9b4a32d1c.jpg,https://www.wongnai.com/restaurants/144580BN
1323935,1323935pO,09VxZRmF0tdDgXrYMmSZajFLk7WKbF,เอเลฟิน ฟาร์ม แอนด์ คาเฟ่ ELEFIN FARM & CAFE,เอเลฟิน ฟาร์ม แอนด์ คาเฟ่,ELEFIN FARM & CAFE,18.804111334704,98.819529376924,,คาเฟ่|ร้านกาแฟ/ชา|อาหารนานาชาติ,คาเฟ่,1,https://img.wongnai.com/p/_-x_/2021/12/11/11b936c8c9c14c79a9a87410ab95778c.jpg,https://www.wongnai.com/restaurants/1323935pO
465546,465546SC,09Vx1NOHnjmcZCv9yjZmR4Xbx8WZyA,เว-ฬา-ดี : We-La-Dee Cafe & Restaurant,เว-ฬา-ดี,We-La-Dee Cafe & Restaurant,18.8439818,99.02830429999995,,อาหารไทย|คาเฟ่|ร้านกาแฟ/ชา,อาหารไทย,1,https://img.wongnai.com/p/_-x_/2021/01/28/543f29266f834a3d9a667d4b1e02d734.jpg,https://www.wongnai.com/restaurants/465546SC
120309,120309Dg,09VwpBTRNs0Bdg4xpQ07w1s521LMTm,ข้าวซอยกะโหล้ง,ข้าวซอยกะโหล้ง,,18.435733861390332,98.68643399999996,,ก๋วยเตี๋ยว|อาหารเหนือ,ก๋วยเตี๋ยว,1,https://img.wongnai.com/p/_-x_/2017/03/04/d9d4dad5ea164fb9b466bed59d5a41fc.jpg,https://www.wongnai.com/restaurants/120309Dg
301075,301075Ud,09VwpBTRPoaGf5YENa6PRgsYRGlz7h,Chez Nous Artisan Baking Atelier(สันกำแพง) เชียงใหม่,ร้านเชนู สันกำแพง,Chez Nous ,18.775166199999994,99.06013760000015,50130,ร้านกาแฟ/ชา|เบเกอรี/เค้ก|เครื่องดื่ม/น้ำผลไม้,ร้านกาแฟ/ชา,1,https://img.wongnai.com/p/_-x_/2022/04/22/440bf79453db42498ac35eeef0b927f6.jpg,https://www.wongnai.com/restaurants/301075Ud
218683,218683qJ,09VwpBTRVGTfoByuFdsTKf6o6c4z10,ร้านไส้อั่วแม่นิ่ม,ไส้อั่วแม่นิ่ม,,18.86507232677561,99.35006458780094,,อาหารเหนือ,อาหารเหนือ,1,https://img.wongnai.com/p/_-x_/2017/11/18/dae69a24543d429facf33c1670c288e5.jpg,https://www.wongnai.com/restaurants/218683qJ
3804343,3804343io,09VylKmogmrKALzCvKmMWTBMFx2bMi,ต.เตี๋ยวตุ๋นเมืองนนท์,,,18.806382623588526,99.06360399342933,50220,ก๋วยเตี๋ยว,ก๋วยเตี๋ยว,1,https://img.wongnai.com/p/_-x_/2015/08/02/a082d222575049fda4713cf42e05008e.jpg,https://www.wongnai.com/restaurants/3804343io
909228,909228nh,09VxPpfCVElcfRfd9Xx5X5QUKPnHqv,. -,,,18.63494867169,98.891427568152,10520,อาหารจานเดียว|อาหารกล่อง/ข้าวกล่อง เดลิเวอรี,อาหารจานเดียว,1,https://img.wongnai.com/p/_-x_/2022/03/04/6a76a78b896a4295864383a692e71c0a.jpg,https://www.wongnai.com/restaurants/909228nh
181818,181818hL,09VwpBTRPSeqny7QlRh5xuUVn1hnvY,Im Cafe',อิม คาเฟ่,Im Cafe',18.733298244698865,98.93891651183367,50230,เครื่องดื่ม/น้ำผลไม้,เครื่องดื่ม/น้ำผลไม้,1,https://img.wongnai.com/p/_-x_/2015/04/19/fa1ff26013834e179b34eb8931563c8b.jpg,https://www.wongnai.com/restaurants/181818hL
2364949,2364949ua,09VxyawWl2henRunHPXiYAeinmnAjk,"ก๋วยเตี๋ยว(น้ำใส,น้ำตุ๋น,น้ำตก,น้ำข้น,ต้มยำ)-ซอยกรุงไทย แม่โจ้",ก๋วยเตี๋ยว_ข้าว,KuaiTiao_Khaw,18.895636413880887,99.00428177788854,50290,อาหารนานาชาติ|อาหารจานเดียว|ก๋วยเตี๋ยว,อาหารนานาชาติ,1,https://img.wongnai.com/p/_-x_/2026/04/01/660723ac257e4ffcbf77d661aabefaee.jpg,https://www.wongnai.com/restaurants/2364949ua
153862,153862dk,09VwpBTRU5W7y0WhglWbXDCBrvyuKV,ต้อมเตี๋ยวเรือยกซด สาขาหน้า ม.พายัพ หน้า ม.พายัพ,ต้อมเตี๋ยวเรือยกซด,,18.7939358,99.0256633,50000,ก๋วยเตี๋ยว|อาหารไทย,ก๋วยเตี๋ยว,1,https://img.wongnai.com/p/_-x_/2020/05/10/575eb0a435844474b3e9fd576856989c.jpg,https://www.wongnai.com/restaurants/153862dk
35723,35723ln,09VwpBTRKfLMdaipuQpXBvfrbO2I96,ไม้เฮือน ๖๐(กาแฟดอยช้างแม่ริม) แม่ริม เชียงใหม่,กาแฟดอยช้างแม่ริม,DOI CHAANG COFFEE MAE RIM,18.93886,98.943118,,คาเฟ่|อาหารเหนือ|อาหารไทย,คาเฟ่,1,https://img.wongnai.com/p/_-x_/2019/12/29/1ec7a472cb76421299ecc8decc8c8995.jpg,https://www.wongnai.com/restaurants/35723ln
2342758,2342758Oj,09Vxy8LCDzCc8EbgogwGFKz5tnRm8k,มาม่าซอสเผ็ดเกาหลีห่อไข่&หน้่าธนาคารออมสิน สาขา หางดง ☺️,,Zaap Sud Soi,18.697445453954213,98.90335688088417,50230,อาหารอีสาน/ร้านส้มตำ,อาหารอีสาน/ร้านส้มตำ,1,https://img.wongnai.com/p/_-x_/2023/06/06/be7ec2ae08e84d2b90cc7f67a1812f7c.jpg,https://www.wongnai.com/restaurants/2342758Oj
1421437,1421437Io,09VxbtgY5hw1EsO026VilPqFMovCik,เฮียตี๋ กาแฟสด โรตี นม ขนมปัง สันป่าตอง,บิงซู&โรตี,Rotee117,18.62375411502407,98.89069635484884,50120,ของหวาน,ของหวาน,1,https://img.wongnai.com/p/_-x_/2022/09/24/474a65db5c1249c890f3d3b16675212f.jpg,https://www.wongnai.com/restaurants/1421437Io
97565,97565fo,09VwpBTRJtnQQjcdA8UZm9kyFu6TvO,ชมนกชมไม้,ชมนกชมไม้,CHOM NOK CHOM MAI,18.865947,99.355474,,ร้านกาแฟ/ชา|เบเกอรี/เค้ก,ร้านกาแฟ/ชา,1,https://img.wongnai.com/p/_-x_/2018/11/22/155e15f5feb648cd96a0e89dfb56b352.jpg,https://www.wongnai.com/restaurants/97565fo
1987604,1987604rm,09VxoTJpGWx4QmAB1ghPxjCBpVpWbd,C-Fa Cafe -ซีฟา คาเฟ่ C-Fa Cafe -ซีฟา คาเฟ่,C-Fa Cafe -ซีฟา คาเฟ่,,18.7022692,98.9651552,50230,คาเฟ่|ร้านกาแฟ/ชา|เบเกอรี/เค้ก,คาเฟ่,1,https://img.wongnai.com/p/_-x_/2022/11/06/a72bbbe7a9b34f7e98962446d6298dad.jpg,https://www.wongnai.com/restaurants/1987604rm
220613,220613zH,09VwpBTRSqjxttNbbGjgKfNPIvQhIO,สวนทูนอิน,,,18.868219249091133,98.82143318465569,,อาหารไทย,อาหารไทย,1,https://img.wongnai.com/p/_-x_/2018/10/14/c48919b5510343eea7dfb6d7a447ef94.jpg,https://www.wongnai.com/restaurants/220613zH
2345562,2345562aL,09VxyBQ0HXHL1mtU4U6mrkfNXWMiQS,ครัวนายแดน ครัวนายแดน,ครัวนายแดน,,18.623931979474836,98.89514837393227,50120,อาหารไทย|อาหารตามสั่ง,อาหารไทย,1,https://img.wongnai.com/p/_-x_/2025/04/02/369f71b710c54f04920398e103c08dba.jpg,https://www.wongnai.com/restaurants/2345562aL
19080,19080dP,09VwpBTRNFqO19g9T72VGeB9L3N20m,แดนข้าวมันไก่ สาขาสันทรายสายเก่าเยื้องปั๊มPT,แดนข้าวมันไก่,Dan Khao Mun Kai,18.821811560068465,99.03336978406143,,อาหารจานเดียว|อาหารเช้า,อาหารจานเดียว,1,https://img.wongnai.com/p/_-x_/2015/10/03/90e6ccfea49a4c6cb13e2911374ad311.jpg,https://www.wongnai.com/restaurants/19080dP
3147983,3147983na,09VyRImkvBmwVmMkwDx5zNX32T3YOn,Kinsou Ramen อาหารญี่ปุ่น สันทราย,คินโซ ราเมง อาหารญี่ปุ่น,Kinsou Ramen Japanese restaurant ,18.838812901287803,99.04301991686225,50210,ราเมง|ซูชิ|อาหารญี่ปุ่น,ราเมง,1,https://img.wongnai.com/p/_-x_/2025/12/31/db1df620e2a84b48ab5622ec3d78945d.jpg,https://www.wongnai.com/restaurants/3147983na
731091,731091qI,09VxKRrLvtcNOZovsorEydUZpLxv0G,Wtf Coffee Camp,,Wtf Coffee Camp,18.873026,98.8122641,,ร้านกาแฟ/ชา|คาเฟ่,ร้านกาแฟ/ชา,1,https://img.wongnai.com/p/_-x_/2021/01/29/5c3a621ca82841bb8e904a1d12dc857c.jpg,https://www.wongnai.com/restaurants/731091qI
3015483,3015483xt,09VyM6mjwwZpIjaI70BnHa5l9WLL3Z,NGON Vietnamese Restaurant - งอน เวียดนาม The Kad Farang Maerim,,,18.902187,98.949744,,อาหารเวียดนาม,อาหารเวียดนาม,1,https://img.wongnai.com/p/_-x_/2025/04/09/8fe6876cac47491d95a9e8f85d89ec57.jpg,https://www.wongnai.com/restaurants/3015483xt
1709858,1709858zq,09Vxhpfdfmq1H0KVjuA0Yj1KGrn3ZT,อังเคิล สกรู๊จ คาเฟ่ หางดง,อังเคิล สกรู๊จ คาเฟ่,Uncle Scrooge Cafe,18.724151584328993,98.9474479726116,50230,คาเฟ่|ร้านกาแฟ/ชา,คาเฟ่,1,https://img.wongnai.com/p/_-x_/2022/08/31/37bb49056b1a42db9653f40a09e09763.jpg,https://www.wongnai.com/restaurants/1709858zq
302632,302632np,09VwpBTRP7MQqkbcKnxovzUCjdb9bs,ริมภิรมณ์,ริมภิรมณ์,Rimm Phi Romm,18.915643332444354,98.94198537913326,,อาหารไทย|อาหารฟิวชั่น,อาหารไทย,1,https://img.wongnai.com/p/_-x_/2020/07/18/1ee2284b60c54da584268b49d55a7804.jpg,https://www.wongnai.com/restaurants/302632np
199845,199845KL,09VwpBTRQOGyd2zwfJ5Fl0WF0wW6z8,Chic 39,ชิค 39,Chic 39,18.88779976302548,98.97942457348108,,อาหารอิตาเลียน|เบเกอรี/เค้ก|เครื่องดื่ม/น้ำผลไม้,อาหารอิตาเลียน,1,https://img.wongnai.com/p/_-x_/2016/11/24/0890b2f7e68143b08cb12766ddf30718.jpg,https://www.wongnai.com/restaurants/199845KL
324494,324494Sm,09VwpBTRSOxm95YwVvpk7rQF7YchL5,อุทยานแห่งชาติดอยอินทนนท์,อุทยานแห่งชาติดอยอินทนนท์,,18.53664331,98.52089544,50160,ภูเขา,ภูเขา,0,https://img.wongnai.com/p/_-x_/2018/07/17/06254a51ba7143fabd1f4d5376565239.jpg,https://www.wongnai.com/restaurants/324494Sm
2595375,2595375rW,09Vy7FNtmoaLggwi728YsZySQvnRo6,บ้านธารชีวี,,,19.320169,98.889995,,คาเฟ่,คาเฟ่,1,https://img.wongnai.com/p/_-x_/2024/11/30/7bd65c9dd0f847429f09a8527fdfb015.jpg,https://www.wongnai.com/restaurants/2595375rW
324876,324876Vg,09VwpBTROHxAFw6V9mIV3GMPjzMjJ2,วัดป่าดาราภิรมย์,วัดป่าดาราภิรมย์,,18.910724334651317,98.94126522227998,,วัด,วัด,0,https://img.wongnai.com/p/_-x_/2018/03/28/dc2b1cc7d52f47c6acd80622bbb44cb0.jpg,https://www.wongnai.com/restaurants/324876Vg
338498,338498Dd,09VwpBTRY7wmsuXYI2jLjxfcYPzNuC,สวนสนบ่อแก้ว,,,18.156728,98.388589,,อุทยานและธรรมชาติ,อุทยานและธรรมชาติ,1,https://img.wongnai.com/p/_-x_/2019/01/20/2c109ce0efa3481e8ba3ff96fde021a5.jpg,https://www.wongnai.com/restaurants/338498Dd
178122,178122xm,09VwpBTRTs26L2WuF2sx5gjCeKh1N9,โซ้ยเตี๋ยว,โซ้ยเตี๋ยว,ZOIYTIEW,18.734105205357167,98.96435340866446,,ก๋วยเตี๋ยว,ก๋วยเตี๋ยว,1,https://img.wongnai.com/p/_-x_/2017/12/25/1e85107afacd4ac1b70290ad0ec6f941.jpg,https://www.wongnai.com/restaurants/178122xm
130939,130939bS,09VwpBTRNhwq3X8QufqJlhN6mmEonj,ลำดีตี้ขัวแดง เชียงใหม่,ลำดีตี้ขัวแดง,Lumdee Te Khuadang,18.7984862348048,99.03316107605747,,อาหารไทย|อาหารเหนือ,อาหารไทย,1,https://img.wongnai.com/p/_-x_/2020/06/09/e534b9383e1a404cb4a576a7b2708eb5.jpg,https://www.wongnai.com/restaurants/130939bS
2428553,2428553kA,09Vy0NDMvVZplAyKVglxxILoucwxN1,ครัวคุณแม่หมูกระทะ  เชียงใหม่(แยกหลุยส์),,,18.781808971892055,99.06970342627561,,ปิ้งย่าง|หมูกระทะ|อาหารไทย,ปิ้งย่าง,1,https://img.wongnai.com/p/_-x_/2023/09/05/b0139f35fda24cc1ac14837cd5d80918.jpg,https://www.wongnai.com/restaurants/2428553kA
3015483,3015483xt,09VyM6mjwwZpIjaI70BnHa5l9WLL3Z,NGON Vietnamese Restaurant - งอน เวียดนาม The Kad Farang Maerim,,,18.902187,98.949744,,อาหารเวียดนาม,อาหารเวียดนาม,1,https://img.wongnai.com/p/_-x_/2025/04/09/8fe6876cac47491d95a9e8f85d89ec57.jpg,https://www.wongnai.com/restaurants/3015483xt
2049516,2049516Kz,09VxqG0oVfH8iEkG5p6IEJrFBe5wML,ตี๋อ้วน สุกี้หม่าล่า,,,18.824953883400873,99.02089145346409,50210,อาหารจีน|ชาบู/สุกี้ยากี้/หม้อไฟ,อาหารจีน,1,https://img.wongnai.com/p/_-x_/2022/12/30/70ee03c6508849159a5f299d2c834258.jpg,https://www.wongnai.com/restaurants/2049516Kz
2991342,2991342hC,09VyL9HTjW6Sbg1y6suyLHzT6zDz3W,ขนมหวาย 1,ขนมหวาย,khanomwaii,18.844287,99.028426,,คาเฟ่|ร้านกาแฟ/ชา|เบเกอรี/เค้ก,คาเฟ่,1,https://img.wongnai.com/p/_-x_/2024/11/29/e2c070fd8a94411b8dd8bffe606cf3eb.jpg,https://www.wongnai.com/restaurants/2991342hC
982914,982914TC,09VxRt2Wz88W24RpVJPxWt0oOQAC4k,Café Amazon - SC3775 ม.ราชภัฏเชียงใหม่ แม่ริม,คาเฟ่ อเมซอน - SC3775,Café Amazon - SC3775,19.0219047,98.9227728,,ร้านกาแฟ/ชา,ร้านกาแฟ/ชา,1,https://img.wongnai.com/p/_-x_/2026/05/29/1db4c89bb08e462baff2649add19e66c.jpg,https://www.wongnai.com/restaurants/982914TC
3721270,3721270dU,09VyigfSAGVtx7TVcINtBmIClAxP36,เฉาก๊วยเต็งหนึ่ง food truck,,,18.903865853691975,98.9410094730556,50180,ร้านกาแฟ/ชา,ร้านกาแฟ/ชา,1,https://img.wongnai.com/p/_-x_/2021/11/17/88109d3f1b134da292ce20559e3234fa.jpg,https://www.wongnai.com/restaurants/3721270dU
324891,324891iJ,09VwpBTRUcRe8GvpNxKwooXw1VhLdB,วัดเด่นสะหลีศรีเมืองแกน (วัดบ้านเด่น),วัดเด่นสะหลีศรีเมืองแกน (วัดบ้านเด่น),,19.15773716,98.97849819,50150,วัด,วัด,0,https://img.wongnai.com/p/_-x_/2018/07/16/a5a6b82992384b4fa384a66db5de1a2a.jpg,https://www.wongnai.com/restaurants/324891iJ
2181139,2181139xj,09Vxu54UpTqkJPelP88meO0qVusTy3,ไม่ได้ขายละครับกำลังทำเรื่องปิดร้าน แม่โจ้,,,18.890945473521633,99.01180068030953,50290,อาหารและอุปกรณ์สัตว์เลี้ยง,อาหารและอุปกรณ์สัตว์เลี้ยง,1,https://img.wongnai.com/p/_-x_/2023/03/09/e5e1bec30f8240b3a2edc85b4fb311e5.jpg,https://www.wongnai.com/restaurants/2181139xj
2746251,2746251ny,09VyDGkhcfsxnEdiUndLUTP8MKxEVI,Tana Coffee & Brew กาดฝรั่งแม่ริม,ธนาคอฟฟี่ แอนด์ บริว,Tana Coffee & Brew,18.901400050759666,98.94797645691456,50180,คาเฟ่,คาเฟ่,1,https://img.wongnai.com/p/_-x_/2024/03/21/64cd98f4f7634d109117ee23d9ae4c9c.jpg,https://www.wongnai.com/restaurants/2746251ny
137791,137791Gu,09VwpBTRMzcZ8oaO5KDujUq9VI3Wjl,จ๋ายบะหมี่ เกี๊ยวกุ้ง,,Jai Wonton Shrimp Dumpling Noodle,18.80916190023022,99.02545044198634,-,สตรีทฟู้ด/รถเข็น,สตรีทฟู้ด/รถเข็น,0,https://img.wongnai.com/p/_-x_/2014/08/01/468b7511ad8c4e4980b2f8b34261a915.jpg,https://www.wongnai.com/restaurants/137791Gu
1060093,1060093XG,09VxThQniYokGgX8TNxOckWLYNlJMa,Café Amazon - DD1627 ปตท.ดอยสะเก็ด,คาเฟ่ อเมซอน - DD1627,Café Amazon - DD1627,18.846550838696462,99.0794993667458,50220,ร้านกาแฟ/ชา,ร้านกาแฟ/ชา,1,https://img.wongnai.com/p/_-x_/2023/02/17/9ed6957200a24e0f90269eef067b9201.jpg,https://www.wongnai.com/restaurants/1060093XG
3258060,3258060Bq,09VyUo9HVb4jh2ypC5mzakwsIWjjVD,Seichi Yakiniku หางดง,Seichi Yakiniku,,18.729643,98.9400751,,ชาบู/สุกี้ยากี้/หม้อไฟ|บุฟเฟ่ต์,ชาบู/สุกี้ยากี้/หม้อไฟ,1,https://img.wongnai.com/p/_-x_/2025/12/17/e8603536209542adac402fecdd60f2fa.jpg,https://www.wongnai.com/restaurants/3258060Bq
2428553,2428553kA,09Vy0NDMvVZplAyKVglxxILoucwxN1,ครัวคุณแม่หมูกระทะ  เชียงใหม่(แยกหลุยส์),,,18.781808971892055,99.06970342627561,,ปิ้งย่าง|หมูกระทะ|อาหารไทย,ปิ้งย่าง,1,https://img.wongnai.com/p/_-x_/2023/09/05/b0139f35fda24cc1ac14837cd5d80918.jpg,https://www.wongnai.com/restaurants/2428553kA
13087,13087SF,09VwpBTRN5kiyupkXed4ikfDDXO0Gs,Cake Cottage,เค้ก คอทเทจ  ,Cake Cottage,18.883318463069777,98.95813714204078,,ของหวาน,ของหวาน,1,https://img.wongnai.com/p/_-x_/2012/10/01/f5ba27a8104942e98de7419e89044176.jpg,https://www.wongnai.com/restaurants/13087SF
3049971,3049971KT,09VyNbp0eys6yAMmN8vxgCmj3Od2L7,The Hill Chiangmai,,,18.7225428,98.9054393,,อาหารนานาชาติ|คาเฟ่|อาหารไทย,อาหารนานาชาติ,1,https://img.wongnai.com/p/_-x_/2025/07/23/9fa6d91a10a543eaac0a378d948652bf.jpg,https://www.wongnai.com/restaurants/3049971KT
3086303,3086303xx,09VyPBqnyzZlZp9vjYpGNhprk7wXjQ,บ้านลันได แม่ริม,,,18.902318,98.949704,,อาหารไทย,อาหารไทย,1,https://img.wongnai.com/p/_-x_/2025/12/15/4864d838d6ab45d5b39ec0192f1496a3.jpg,https://www.wongnai.com/restaurants/3086303xx
3325959,3325959sS,09VyWnjqwD6AKn2GdCl8B2atvCwpuc,Phu House,,,19.91815284532737,99.21625105664134,-,อาหารคลีน/สลัด|สเต๊ก|ร้านกาแฟ/ชา,อาหารคลีน/สลัด,1,https://img.wongnai.com/p/_-x_/2016/08/13/4ee728d9ed3d4e73ba7d464f871815ad.jpg,https://www.wongnai.com/restaurants/3325959sS
378083,378083UW,09VwpBTRYJa9TAyYiHRF8Zws3K7YvE,บ้านแม่กำปอง,,,18.865282,99.350289,,ชุมชน|ไร่/ฟาร์ม/สวนเกษตร|ภูเขา,ชุมชน,0,https://img.wongnai.com/p/_-x_/2019/02/10/ceda5d67b6174e62887e1376b55c88a1.jpg,https://www.wongnai.com/restaurants/378083UW
2100539,2100539UV,09VxsAfolUQe0ntV1c9BQPcnUhNQNU,Khunnai Gallery สันป่าตอง,คุณนายแกลลอรี่,,18.627655688200313,98.89601608738303,50120,อาหารกล่อง/ข้าวกล่อง เดลิเวอรี,อาหารกล่อง/ข้าวกล่อง เดลิเวอรี,1,https://img.wongnai.com/p/_-x_/2023/03/29/021538630bef4c81a21c47a374e103f9.jpg,https://www.wongnai.com/restaurants/2100539UV
1354203,1354203Im,09VxaSDLMEebJIevSJWxViokSWOUOw,Rab•A•Bit,,Rab•A•Bit,18.9442156472102,98.92800495028497,,อาหารนานาชาติ|อาหารฟิวชั่น|อาหารเช้า,อาหารนานาชาติ,1,https://img.wongnai.com/p/_-x_/2022/01/02/5b34c897276a41cb969769d8a0fd72e1.jpg,https://www.wongnai.com/restaurants/1354203Im
436419,436419mz,09VwxIyVSjca0wmMb9CK752dfHqDmH,green moon cafe & bistro,,green moon cafe & bistro,18.727632,99.18147,,อาหารเม็กซิกัน,อาหารเม็กซิกัน,1,https://img.wongnai.com/p/_-x_/2021/03/09/d493430af2c64578963152a55b8e4624.jpg,https://www.wongnai.com/restaurants/436419mz
96227,96227GZ,09VwpBTRMdXB0KxxbgUnWdAfwVpReo,คุ้มแสงดาว,คุ้มแสงดาว,KHUM SAENG DAO RESTAURANT,18.885897,98.957098,,อาหารไทย,อาหารไทย,1,https://img.wongnai.com/p/_-x_/2020/07/18/07a6a488490d459a83f82426569a839d.jpg,https://www.wongnai.com/restaurants/96227GZ
1624448,1624448DU,09Vxg96xn3ZkW4XUhdVN6bg6is769c,Skugga Estate,,,18.779929915618517,99.24193605780602,,ของหวาน|คาเฟ่,ของหวาน,1,https://img.wongnai.com/p/_-x_/2022/06/04/7f0aebc76c274b11aa5fe554e7f39efd.jpg,https://www.wongnai.com/restaurants/1624448DU
3015483,3015483xt,09VyM6mjwwZpIjaI70BnHa5l9WLL3Z,NGON Vietnamese Restaurant - งอน เวียดนาม The Kad Farang Maerim,,,18.902187,98.949744,,อาหารเวียดนาม,อาหารเวียดนาม,1,https://img.wongnai.com/p/_-x_/2025/04/09/8fe6876cac47491d95a9e8f85d89ec57.jpg,https://www.wongnai.com/restaurants/3015483xt
2523644,2523644Gj,09Vy3t0yy8TXthPqFgHNSgyJz0ywHq,ร้าน พีพี สันพระศรี,,,18.811493290622096,99.03448445722461,50000,อาหารจานเดียว,อาหารจานเดียว,1,https://img.wongnai.com/p/_-x_/2026/03/05/d1dc03aca27042a584169f7710caba16.jpg,https://www.wongnai.com/restaurants/2523644Gj
1375072,1375072nH,09VxawnXFgyKPMRQZqCpEUCvzHITnS,Per La Mer Cafe,เป้อ หละ เหม้อ คาเฟ่,,18.9035853,98.90693420000001,,คาเฟ่|อาหารนานาชาติ|เบเกอรี/เค้ก,คาเฟ่,1,https://img.wongnai.com/p/_-x_/2023/08/12/51d95d78663e47ff971a50563a04d966.jpg,https://www.wongnai.com/restaurants/1375072nH
1953348,1953348Pr,09VxnQt9TR1pPzZ06CD7BZKM4pu8c3,วิลล่าแอทออน Villa At On Organic Farm Cafe & Restaurant,วิลล่าแอทออน,,18.754415446678,99.257139824331,50130,คาเฟ่,คาเฟ่,1,https://img.wongnai.com/p/_-x_/2022/10/21/1d39789e082745ffa4fd611ee8e322c0.jpg,https://www.wongnai.com/restaurants/1953348Pr
2464622,2464622vh,09Vy1ah7UnftALVLfDr4jrZxmRMde7,อบ-อุ่น โฮมเมดเบเกอรี่ -,อบ-อุ่น โฮมเมดเบเกอรี่,OB-UNE Homemadebakery,18.725605329052,99.102873913944,,เบเกอรี/เค้ก,เบเกอรี/เค้ก,1,https://img.wongnai.com/p/_-x_/2023/09/08/c087f0d8fe9b439090736e727c974002.jpg,https://www.wongnai.com/restaurants/2464622vh
195993,195993KY,09VwpBTRRMrih7DfxwLtiSRjBN9Fzp,เจ้เหมยสุกี้จีนยูนนาน,เจ๊เหมยสุกี้ยูนนานและอาหารจีน-เชิงดอยอ่างขาง,,19.807414546503153,99.10314409019566,,ชาบู/สุกี้ยากี้/หม้อไฟ|อาหารจีน,ชาบู/สุกี้ยากี้/หม้อไฟ,1,https://img.wongnai.com/p/_-x_/2015/05/09/4de74109655a49dc9fc3382b3fda57eb.jpg,https://www.wongnai.com/restaurants/195993KY
2316261,2316261Cv,09VxxRm9ZjbXQpOOuA7M6Uk69WGAS5,กับข้าว@ในบ้าน,กับข้าว@ในบ้าน,Kap Khao @Nai Ban,18.745823605843672,99.10132111494713,50130,อาหารตามสั่ง|ฟาสต์ฟู้ด/จานด่วน,อาหารตามสั่ง,1,https://img.wongnai.com/p/_-x_/2023/05/29/d1b3eb85544c451c873e79e660f42e9e.jpg,https://www.wongnai.com/restaurants/2316261Cv
42423,42423NH,09VwpBTRIP6wZspTq5gLMIkXguxhbV,คาเฟ่โรงบ่ม เก๊าไม้ล้านนา สันป่าตอง,เก๊าไม้ล้านนารีสอร์ท,Cafe Rongbom Kaomailanna Lanna,18.56932288406074,98.87958752151619,50120,ร้านกาแฟ/ชา|อาหารไทย,ร้านกาแฟ/ชา,1,https://img.wongnai.com/p/_-x_/2022/05/08/1c8db9f4342f48e79965b1545d6fef66.jpg,https://www.wongnai.com/restaurants/42423NH
3580970,3580970ZL,09VydlymeWEzpBpEmXAudDwiDsjOq1,KaffeCheewan,,,18.876818249804394,99.01498010382056,50290,ร้านกาแฟ/ชา,ร้านกาแฟ/ชา,1,https://img.wongnai.com/p/_-x_/2025/12/09/fcadfb5210344eebb1c4249e6cf262b4.jpg,https://www.wongnai.com/restaurants/3580970ZL
3015483,3015483xt,09VyM6mjwwZpIjaI70BnHa5l9WLL3Z,NGON Vietnamese Restaurant - งอน เวียดนาม The Kad Farang Maerim,,,18.902187,98.949744,,อาหารเวียดนาม,อาหารเวียดนาม,1,https://img.wongnai.com/p/_-x_/2025/04/09/8fe6876cac47491d95a9e8f85d89ec57.jpg,https://www.wongnai.com/restaurants/3015483xt
174149,174149Ng,09VwpBTRUcpHCKN9LX6rBCZtwhzjZ7,สวนครัว Backyard,สวนครัว ออร์แกนิก,My Backyard,18.92263578227692,98.97516086697578,,สเต๊ก|อาหารคลีน/สลัด|อาหารฟิวชั่น,สเต๊ก,1,https://img.wongnai.com/p/_-x_/2018/07/30/6403d809f6114c5997de91950ff24ae0.jpg,https://www.wongnai.com/restaurants/174149Ng
2428553,2428553kA,09Vy0NDMvVZplAyKVglxxILoucwxN1,ครัวคุณแม่หมูกระทะ  เชียงใหม่(แยกหลุยส์),,,18.781808971892055,99.06970342627561,,ปิ้งย่าง|หมูกระทะ|อาหารไทย,ปิ้งย่าง,1,https://img.wongnai.com/p/_-x_/2023/09/05/b0139f35fda24cc1ac14837cd5d80918.jpg,https://www.wongnai.com/restaurants/2428553kA
848293,848293sL,09VxOYx5xY2JBj7MA2z507pyKFAhuy,ผลิ : phli cafe x khaosoi -,ผลิ : phli cafe x khaosoi,phli cafe x khaosoi,18.843071,99.0138084,50210,อาหารเหนือ|คาเฟ่|ร้านกาแฟ/ชา,อาหารเหนือ,1,https://img.wongnai.com/p/_-x_/2021/05/08/fcca3a0eb94a47ae9fc3dc64e627c230.jpg,https://www.wongnai.com/restaurants/848293sL
1624696,1624696jX,09Vxg9JdcX3Qq5QxIA5ni15r1NMKv8,162 HOME CAFE’ Coffee - SanPhakWan สาขาสันผักหวาน หางดง,162 โฮมคาเฟ่ คอฟฟี่ - สันผักหวาน ม.1,162 Home Cafe @San Phak Wan,18.711337993048,98.943418432027,50230,เครื่องดื่ม/น้ำผลไม้|คาเฟ่|ร้านกาแฟ/ชา,เครื่องดื่ม/น้ำผลไม้,1,https://img.wongnai.com/p/_-x_/2023/04/11/f5cc272bf0c44d88a252b7c45f3860ce.jpg,https://www.wongnai.com/restaurants/1624696jX
325924,325924Hp,09VwpBTRPZRmJIMvPk1BmF1i0KMQm0,ถ้ำเชียงดาว,ถ้ำเชียงดาว,,19.39418497,98.9278712,50170,ถ้ำ,ถ้ำ,0,https://img.wongnai.com/p/_-x_/2018/04/02/023e7a83b43943c39a0d0efa4eeec90a.jpg,https://www.wongnai.com/restaurants/325924Hp
325949,325949Yd,09VwpBTRTzBOqspqSWkgPVl6fhXWYn,เส้นทางศึกษาธรรมชาติกิ่วแม่ปาน,เส้นทางศึกษาธรรมชาติกิ่วแม่ปาน,,18.55616462,98.48200362,50270,ศูนย์การเรียนรู้|จุดชมวิว,ศูนย์การเรียนรู้,0,https://img.wongnai.com/p/_-x_/2019/01/12/f332f5c7ba824b99883d0a58fdb52c3c.jpg,https://www.wongnai.com/restaurants/325949Yd
2375611,2375611Sk,09VxyrYozmxxPOP7u1dPMYuMW48UE2,ข้าวแกงใต้ ครัวแม่จณัฐ,,,18.65706361590487,98.86486653520059,50120,อาหารใต้,อาหารใต้,1,https://img.wongnai.com/p/_-x_/2023/09/08/a733b889d333465c97926c4d70011630.jpg,https://www.wongnai.com/restaurants/2375611Sk
1837370,1837370qa,09Vxkkvyf2aMrNZQK8qrt0xJEtFGQj,อิ่มสุข หางดง,อิ่มสุข,Imsook,18.725596799654507,98.91747963577608,50230,อาหารตามสั่ง|อาหารไทย,อาหารตามสั่ง,1,https://img.wongnai.com/p/_-x_/2022/08/18/a19d416988af498b964ac8353a10b09c.jpg,https://www.wongnai.com/restaurants/1837370qa
133566,133566ST,09VwpBTRI7WAYGgEawItPnUqd6mpD4,เก๊าบ่ะต๋ากบ Frog Eye,เก๊าบ่ะต๋ากบ แก้มแดง,Frog Eye,18.831149717130224,99.04294129461051,,อาหารไทย,อาหารไทย,1,https://img.wongnai.com/p/_-x_/2020/01/17/873cb6d576af4481a9e812bbcdf6308a.jpg,https://www.wongnai.com/restaurants/133566ST
2147568,2147568EN,09VxtMLrl70HF3v362BvqtyugUNPjY,หมี่ไก่ฉีก&เพิ่มพูนเป็ดย่าง ติดถ.เชียงใหม่หางดง สันผักหวาน,,"Shredded Chicken Noodles, Traditional Dry Noodles, SAND BOX",18.69862284996177,98.92875463241998,50230,อาหารจานเดียว|สตรีทฟู้ด/รถเข็น,อาหารจานเดียว,1,https://img.wongnai.com/p/_-x_/2024/04/03/16001836e1bc4c39a9429570dae408a4.jpg,https://www.wongnai.com/restaurants/2147568EN
599995,599995fF,09VxCUFFLvESXSbvJlhP3NoYpaRFFz,ก่องข้าวเมือง,,,18.9118574,98.9554249,,อาหารเหนือ,อาหารเหนือ,1,https://img.wongnai.com/p/_-x_/2020/10/29/17a2be63225c4a08a45c1934d2fc2229.jpg,https://www.wongnai.com/restaurants/599995fF
3684433,3684433GJ,09VyhVqWE6XYQ7gkCAA7b8tfZyi0VZ,Heyday Cafe,,,18.60860838932212,98.89473969116807,50130,ร้านกาแฟ/ชา,ร้านกาแฟ/ชา,1,https://img.wongnai.com/p/_-x_/2026/03/19/794095dd9c1740c9a96d10ccba4b6a8c.jpg,https://www.wongnai.com/restaurants/3684433GJ
2428553,2428553kA,09Vy0NDMvVZplAyKVglxxILoucwxN1,ครัวคุณแม่หมูกระทะ  เชียงใหม่(แยกหลุยส์),,,18.781808971892055,99.06970342627561,,ปิ้งย่าง|หมูกระทะ|อาหารไทย,ปิ้งย่าง,1,https://img.wongnai.com/p/_-x_/2023/09/05/b0139f35fda24cc1ac14837cd5d80918.jpg,https://www.wongnai.com/restaurants/2428553kA
257949,257949ZA,09VwpBTRVAOzCaB0W6h2CscSKSHsoP,กิ๋นลำกิ๋นดี สันทราย,กิ๋นลำกิ๋นดี,Kinlum Kindee,18.86088879999999,99.065505,,อาหารเหนือ,อาหารเหนือ,1,https://img.wongnai.com/p/_-x_/2018/11/25/9d687039c3d54e6a8556e692ed4b8e96.jpg,https://www.wongnai.com/restaurants/257949ZA
2391471,2391471Mm,09VxzMetQAx9b110a3mt8CaIQEMddg,Taikin ไทคิน,,,18.76557510603552,99.08243598416448,50130,อาหารญี่ปุ่น,อาหารญี่ปุ่น,1,https://img.wongnai.com/p/_-x_/2023/07/04/ffb40539c30d4b2b9ed58a36fdfdde0d.jpg,https://www.wongnai.com/restaurants/2391471Mm
3325878,3325878rC,09VyWndFoH5uFz3F5dHBqT2ZRMgEvu,ฮามี ชาชัก (HAME CHACHAK),,,19.92010499074469,99.21588962897658,-,ร้านกาแฟ/ชา,ร้านกาแฟ/ชา,1,https://img.wongnai.com/p/_-x_/2020/07/05/8dd13a3e4ea240609f5f110100ec112e.jpg,https://www.wongnai.com/restaurants/3325878rC
507018,507018AU,09Vx6KVzVA1R0ggCxTWpZOAm2tu01v,ลาบไก่ป้าศิล,ลาบไก่ป้าศิล,,18.726947,98.913172,50230,อาหารเหนือ,อาหารเหนือ,1,https://img.wongnai.com/p/_-x_/2020/03/12/d298e158f777432dbf2962454459082d.jpg,https://www.wongnai.com/restaurants/507018AU
336972,336972iL,09VwpBTRdA7r27pZeQ5vJKyUscVIhO,พระตำหนักภูพิงคราชนิเวศน์,พระตำหนักภูพิงคราชนิเวศน์,Bhubing Palace,18.804111,98.899275,50230,พระราชวัง,พระราชวัง,0,https://img.wongnai.com/p/_-x_/2018/07/25/cf9713a8c2ef4a1eb030c6f3dd8268c4.jpg,https://www.wongnai.com/restaurants/336972iL
1381991,1381991OD,09Vxb7V4vAgmuCMgQzLuVVA3wt5RDD,ทอดกินเล่น,,,18.877786312255722,98.96109082320626,50180,ก๋วยเตี๋ยว,ก๋วยเตี๋ยว,1,https://img.wongnai.com/p/_-x_/2024/11/21/7ba74e5bbeb14cffaa3c982e60f8b8ee.jpg,https://www.wongnai.com/restaurants/1381991OD
3439678,3439678qc,09Vya5INGDrh5wuyftrliYZSwMeCHh,Sunny Side Up Cnx Sunny Side Up Cnx,Sunny Side Up Cnx,,18.693279,98.92433,,คาเฟ่|ร้านกาแฟ/ชา|อาหารนานาชาติ,คาเฟ่,1,https://img.wongnai.com/p/_-x_/2026/05/30/f6d234f287e544efb18aa0f17e6e13ef.jpg,https://www.wongnai.com/restaurants/3439678qc
1171550,1171550Dp,09VxVie67klgghsjAKE9rwBnGxLpue,โครงการอนุรักษ์กล้วยไม้รองเท้านารีอินทนนท์,,,18.584761,98.512441,,อุทยานและธรรมชาติ|จุดชมวิว,อุทยานและธรรมชาติ,1,https://img.wongnai.com/p/_-x_/2023/01/23/a1e12081bc1544bdb70c2ea29385ac69.jpg,https://www.wongnai.com/restaurants/1171550Dp
2072638,2072638ny,09VxrLXhdC9g2WxiXsw5WMjg3WIX2U,Good Morning Hod,,,18.192217,98.607519,,คาเฟ่,คาเฟ่,1,https://img.wongnai.com/p/_-x_/2026/02/14/a260fc61528d4833a211977bd7143a4a.jpg,https://www.wongnai.com/restaurants/2072638ny
2015969,2015969rh,09VxpAB1vv2ZyMk5PYeu4ZuCRzPoeT,poongbu korean bbq,,,18.8421137,99.02381779999999,50210,บุฟเฟ่ต์,บุฟเฟ่ต์,0,https://img.wongnai.com/p/_-x_/2022/11/22/bb5238b485d0427e8eead9fc90a283dc.jpg,https://www.wongnai.com/restaurants/2015969rh
3015483,3015483xt,09VyM6mjwwZpIjaI70BnHa5l9WLL3Z,NGON Vietnamese Restaurant - งอน เวียดนาม The Kad Farang Maerim,,,18.902187,98.949744,,อาหารเวียดนาม,อาหารเวียดนาม,1,https://img.wongnai.com/p/_-x_/2025/04/09/8fe6876cac47491d95a9e8f85d89ec57.jpg,https://www.wongnai.com/restaurants/3015483xt
2834813,2834813qY,09VyFtYFhK41jivhWwDZi6QhDMswh5,ฮั้วหอยทอด เชียงใหม่,,,18.698356436091203,98.92890282958228,50230,สตรีทฟู้ด/รถเข็น,สตรีทฟู้ด/รถเข็น,0,https://img.wongnai.com/p/_-x_/2024/12/03/73f480d845c84baaaf21630ef5162439.jpg,https://www.wongnai.com/restaurants/2834813qY
2145084,2145084ls,09VxtJZvi90AS9kpqLQ1igdYxMQi6U,ปังปะป๊า ชาถัง ชานมไข่มุก ขนมปังปิ้ง น้ำแข็งใส,,"Pang Papa""",18.846088791379657,98.97144282236695,50180,เบเกอรี/เค้ก|ชานมไข่มุก|ร้านกาแฟ/ชา,เบเกอรี/เค้ก,1,https://img.wongnai.com/p/_-x_/2023/02/23/809d0badaab84fa08a0e997bc78718c0.jpg,https://www.wongnai.com/restaurants/2145084ls
324496,324496cS,09VwpBTRPOOXaT2TTwSkYS9rnmIuXK,อุทยานแห่งชาติออบหลวง,อุทยานแห่งชาติออบหลวง,,18.22260452922625,98.48173241016354,,อุทยานและธรรมชาติ,อุทยานและธรรมชาติ,1,https://img.wongnai.com/p/_-x_/2019/01/20/5d691c0a3ff14736aa68aa3d05c7bee0.jpg,https://www.wongnai.com/restaurants/324496cS
324383,324383mi,09VwpBTRQ5oTXKsn3NSvsdBQsNPPPG,อุทยานแห่งชาติห้วยน้ำดัง,อุทยานแห่งชาติห้วยน้ำดัง,,19.303967428333678,98.59885028083204,,ภูเขา|อุทยานและธรรมชาติ,ภูเขา,1,https://img.wongnai.com/p/_-x_/2018/10/29/1264ff866e3e4a9bbba717ee1015bccd.jpg,https://www.wongnai.com/restaurants/324383mi
1415625,1415625nw,09Vxbm5PZ0gwngeB2fFZATao1C87kQ,บ้านสองนคร,บ้านสองนคร,Bansongnakron,18.625604099999954,98.8768774000001,50120,อาหารไทย,อาหารไทย,1,https://img.wongnai.com/p/_-x_/2022/04/24/6adfff3501774684bd473c9af56649c7.jpg,https://www.wongnai.com/restaurants/1415625nw
2708590,2708590ib,09VyBnseKPMjJMIRxOjMuOmNfECKYn,T Story แม่กำปอง แม่กำปอง,T Story แม่กำปอง,,18.86755387831,99.308475446796,,คาเฟ่,คาเฟ่,1,https://img.wongnai.com/p/_-x_/2024/05/30/c4e1c6df36044e20b1eb48fece868c3d.jpg,https://www.wongnai.com/restaurants/2708590ib
349985,349985bq,09VwpBTRbcrdIvV73d74zfA2l05tvy,Pongyang Jungle Coaster Zipline Camp&Resort, โป่งแยงจังเกิ้ลโคสเตอร์และซิปไลน์ ,Pongyang Jungle Coaster Zipline Camp&Resort,18.9166373,98.821483,50180,กิจกรรมผจญภัย,กิจกรรมผจญภัย,0,https://img.wongnai.com/p/_-x_/2018/09/21/d15a28483e104ff8ad55c7477cc16ea0.jpg,https://www.wongnai.com/restaurants/349985bq
11320,11320ez,09VwpBTRGhSM6rCo6POXakYUgqdkww,โครงการหลวงดอยอินทนนท์ (Royal Project Inthanon),,,18.543818872788034,98.51785231779104,,อาหารไทย,อาหารไทย,1,https://img.wongnai.com/p/_-x_/2016/11/24/5a3a707983164ee4b941ba0a33048967.jpg,https://www.wongnai.com/restaurants/11320ez
324581,324581Vj,09VwpBTRPh7kz32O0tb5VnVjDgI3uG,ศูนย์วิจัยเกษตรหลวงเชียงใหม่ (ขุนวาง),ศูนย์พัฒนาโครงการหลวงขุนวาง,,18.6279326,98.50739499999997,,อุทยานและธรรมชาติ,อุทยานและธรรมชาติ,1,https://img.wongnai.com/p/_-x_/2018/09/20/d5c5399f75f4434098ac418ce4bccd10.jpg,https://www.wongnai.com/restaurants/324581Vj
1482701,1482701FE,09Vxd5ZB6TYkFK2dXFhakGjdGjLHCc,เสือป่าคอฟฟี่  สันป่าตอง,เสือป่าคอฟฟี่,,18.595995553635,98.888775799423,50120,ร้านกาแฟ/ชา|คาเฟ่|ของหวาน,ร้านกาแฟ/ชา,1,https://img.wongnai.com/p/_-x_/2022/04/19/05d76a66c1e0445ebd220220dda8ebb2.jpg,https://www.wongnai.com/restaurants/1482701FE
3015483,3015483xt,09VyM6mjwwZpIjaI70BnHa5l9WLL3Z,NGON Vietnamese Restaurant - งอน เวียดนาม The Kad Farang Maerim,,,18.902187,98.949744,,อาหารเวียดนาม,อาหารเวียดนาม,1,https://img.wongnai.com/p/_-x_/2025/04/09/8fe6876cac47491d95a9e8f85d89ec57.jpg,https://www.wongnai.com/restaurants/3015483xt
265580,265580uZ,09VwpBTRPxYVxCWIGr2cyMvTXoyRoo,The Ironwood,The Ironwood,The lronwood,18.910797,98.911386,,อาหารจานเดียว|ร้านกาแฟ/ชา|เบเกอรี/เค้ก,อาหารจานเดียว,1,https://img.wongnai.com/p/_-x_/2020/11/17/15295a69f0c54e209fedeccb4ea87ab0.jpg,https://www.wongnai.com/restaurants/265580uZ
3439063,3439063rl,09Vya3MGAPjm75yp25O2RIwCqWQF2t,สุกี้เรือนไทย สาขาตลาดสันกำแพง,,,18.741836146864948,99.12359850481153,-,ชาบู/สุกี้ยากี้/หม้อไฟ,ชาบู/สุกี้ยากี้/หม้อไฟ,1,https://img.wongnai.com/p/_-x_/2025/10/09/f125351f43d24426a76bcadc8dbf770d.jpg,https://www.wongnai.com/restaurants/3439063rl
3618707,3618707Tu,09VyfSdhdPgwBa9y0wP0HzL3SCmnzw,a Place on earth - ป่าไผ่,,,18.897939309445643,99.03220469597066,50210,คาเฟ่,คาเฟ่,1,https://img.wongnai.com/p/_-x_/2026/01/29/6707b74b34614adbbe1a200bd86a56be.jpg,https://www.wongnai.com/restaurants/3618707Tu
3605610,3605610XT,09VyeuDQepoV9bp7pAdpJdGt43Y1Yz,Roaster Star Coffee,,,18.73857414113103,98.93311405554414,50230,ร้านกาแฟ/ชา,ร้านกาแฟ/ชา,1,https://img.wongnai.com/p/_-x_/2026/01/04/a19a5edd457e4855948e89d0d5f6e638.jpg,https://www.wongnai.com/restaurants/3605610XT
324885,324885iF,09VwpBTRTRMqjNED9qXsbPr5lKEyL0,น้ำตกวชิรธาร,น้ำตกวชิรธาร,,18.54205643,98.59886239,50160,น้ำตก,น้ำตก,0,https://img.wongnai.com/p/_-x_/2018/04/26/729d47e9df924437991a162743bc8a19.jpg,https://www.wongnai.com/restaurants/324885iF
2985753,2985753dr,09VyKv1p0Zl3RVsfaRhZHej1iOcuaX,Atmosphere resort & cafe chiang dao,,,19.400233,98.962023,,คาเฟ่,คาเฟ่,1,https://img.wongnai.com/p/_-x_/2025/02/27/686d90f095fb4fbd83b2a5cbf8d55e67.jpg,https://www.wongnai.com/restaurants/2985753dr
1992276,1992276oQ,09VxobDclsuKujru9KhZaKCBEa2hno,เวฬา ละมุน,เวฬา ละมุน,Vela  La moon,18.94902196679776,98.94805065000627,10520,อาหารกล่อง/ข้าวกล่อง เดลิเวอรี|เครื่องดื่ม/น้ำผลไม้,อาหารกล่อง/ข้าวกล่อง เดลิเวอรี,1,https://img.wongnai.com/p/_-x_/2026/05/03/9041bc5fd5914c3bb5225ee666d4f52a.jpg,https://www.wongnai.com/restaurants/1992276oQ
326308,326308Mh,09VwpBTRRYbpOC8fuMNTSYieFYjyUj,เชียงใหม่ไนท์ซาฟารี,เชียงใหม่ไนท์ซาฟารี,Chiang Mai Night Safari,18.74259081,98.91716721,50230,สวนสัตว์,สวนสัตว์,0,https://img.wongnai.com/p/_-x_/2018/06/28/fca06b3ab90c47f5b6e2dc9d13c01c19.jpg,https://www.wongnai.com/restaurants/326308Mh
1752443,1752443Lt,09Vxiru3PlKOgrJhGABkqdyQko0spU,ตะปบเนื้อ สันกำแพง,ตะปบเนื้อ,TapopNuea,18.764575907435763,99.07982836651051,50130,ก๋วยเตี๋ยว|อาหารจานเดียว,ก๋วยเตี๋ยว,1,https://img.wongnai.com/p/_-x_/2022/07/12/ee1e768b4b184c5888a193d9e69dceb1.jpg,https://www.wongnai.com/restaurants/1752443Lt
1905153,1905153cI,09VxmFEGacLikq1Tqt2wwAdRVuZTpw,Sixth Sep Cafe and Farm,,,18.668700046208773,98.9329052456141,50230,คาเฟ่|ร้านกาแฟ/ชา|เบเกอรี/เค้ก,คาเฟ่,1,https://img.wongnai.com/p/_-x_/2022/09/21/89a89d693b32414187f1690f2a5e0024.jpg,https://www.wongnai.com/restaurants/1905153cI
2428553,2428553kA,09Vy0NDMvVZplAyKVglxxILoucwxN1,ครัวคุณแม่หมูกระทะ  เชียงใหม่(แยกหลุยส์),,,18.781808971892055,99.06970342627561,,ปิ้งย่าง|หมูกระทะ|อาหารไทย,ปิ้งย่าง,1,https://img.wongnai.com/p/_-x_/2023/09/05/b0139f35fda24cc1ac14837cd5d80918.jpg,https://www.wongnai.com/restaurants/2428553kA
712409,712409Ac,09VxJd9t8GbDJY72WwXgiMmUm8yB9i,ครัวข้าวเส้น,,,19.349561,99.198829,,อาหารไทย,อาหารไทย,1,https://img.wongnai.com/p/_-x_/2020/12/29/43bb95e463bd42a5a8c80fd51aabb279.jpg,https://www.wongnai.com/restaurants/712409Ac
1914627,1914627zd,09VxmQZkE6wCwxa9lYwtqZRFLHy5dP,Glamping หม่าล่า & อาหารจานเดียว สันกำแพง,Glamping,,18.744627478450273,99.07669659390015,50130,กึ่งผับ/ร้านเหล้า/บาร์|อาหารจานเดียว|ชาบู/สุกี้ยากี้/หม้อไฟ,กึ่งผับ/ร้านเหล้า/บาร์,1,https://img.wongnai.com/p/_-x_/2024/11/04/c26fded9695648eeaa849756021b248e.jpg,https://www.wongnai.com/restaurants/1914627zd
205206,205206EP,09VwpBTRUgp3HmfEV8AA6bN4kKMNvo,ปางสูงเฮ้าส์,,,18.950265145280163,99.35082471694943,50220,ร้านกาแฟ/ชา|อาหารไทย|เบเกอรี/เค้ก,ร้านกาแฟ/ชา,1,https://img.wongnai.com/p/_-x_/2016/02/02/78a2576cc9ab494f8b0edc957171f176.jpg,https://www.wongnai.com/restaurants/205206EP
305654,305654Lu,09VwpBTRVOrPcF5Q70V54UeI3c0eF5,ครัวจิรา (ถนนโชตนา),ครัวจิรา (ถนนโชตนา),,18.844045834987,98.97229257971,,ก๋วยเตี๋ยว|อาหารตามสั่ง|เครื่องดื่ม/น้ำผลไม้,ก๋วยเตี๋ยว,1,https://img.wongnai.com/p/_-x_/2020/10/04/640a49551ba94705b6472f94806afe3f.jpg,https://www.wongnai.com/restaurants/305654Lu
2167489,2167489en,09Vxto3EI82g3sCQWINhM6ZHRxvBVm,ชงเอง - Chong Ayng × Slow Bar ชงเอง - Chong Ayng × Slow Bar,ชงเอง - Chong Ayng × Slow Bar,,19.4279317,98.9534633,,ร้านกาแฟ/ชา,ร้านกาแฟ/ชา,1,https://img.wongnai.com/p/_-x_/2025/10/18/177a95417ec0491bb0926105df03e88a.jpg,https://www.wongnai.com/restaurants/2167489en
2213448,2213448qa,09VxugCnEvP49xA8Sz6ovdDsdVIR4r,Kat Kat Katsu สาขากาดวันค่ำ,คัด คัด คัตซึ,Kat Kat katsu,18.700858320661123,98.93177596852183,50230,อาหารญี่ปุ่น|สตรีทฟู้ด/รถเข็น,อาหารญี่ปุ่น,1,https://img.wongnai.com/p/_-x_/2023/04/07/829430d6886b4ee1839d4f49b4e5fd3d.jpg,https://www.wongnai.com/restaurants/2213448qa
137826,137826kF,09VwpBTRHkAQRafA2sBRpPZtr8kPZJ,ต้าหยง บะหมี่เกี๊ยวยูนนาน บ้านอรุโณทัย,ต้าหยง บะหมี่เกี๊ยว ยูนนาน,Tayong Yunnan Noodle Restaurant,19.738228,98.964371,50170,อาหารจีน|ก๋วยเตี๋ยว,อาหารจีน,1,https://img.wongnai.com/p/_-x_/2020/06/06/630185afda3746a9a9164202cf6d6bcd.jpg,https://www.wongnai.com/restaurants/137826kF
1765862,1765862Ky,09VxjAKBIYOETSbztSHA2uHOClsQEc,My Family Homemade,,,18.80493088819239,99.04504334495621,51150,ของหวาน,ของหวาน,1,https://img.wongnai.com/p/_-x_/2022/08/24/c20ded55577b4e2981deebb4e16d4e92.jpg,https://www.wongnai.com/restaurants/1765862Ky
2807087,2807087eR,09VyF58sQv7U7e4mnOGsf21x0LX7O4,ก๊งกิ่วแล,,Kong Kiw Lae,18.6346457,98.8553701,50120,อาหารตามสั่ง|อาหารจานเดียว,อาหารตามสั่ง,1,https://img.wongnai.com/p/_-x_/2024/08/23/5d04a93242114987bf2539d75d4b6888.jpg,https://www.wongnai.com/restaurants/2807087eR
16925,16925Mp,09VwpBTRMAkIsTpIB8KTqVuiXhOCj9,บ้านสวนกาแฟ,บ้านสวนกาแฟ,BANSUAN COFFEE,18.75969020736584,98.91382779926062,,ร้านกาแฟ/ชา|อาหารตามสั่ง|เบเกอรี/เค้ก,ร้านกาแฟ/ชา,1,https://img.wongnai.com/p/_-x_/2016/10/17/91c32dbe8600451f860384865f9b3014.jpg,https://www.wongnai.com/restaurants/16925Mp
3015483,3015483xt,09VyM6mjwwZpIjaI70BnHa5l9WLL3Z,NGON Vietnamese Restaurant - งอน เวียดนาม The Kad Farang Maerim,,,18.902187,98.949744,,อาหารเวียดนาม,อาหารเวียดนาม,1,https://img.wongnai.com/p/_-x_/2025/04/09/8fe6876cac47491d95a9e8f85d89ec57.jpg,https://www.wongnai.com/restaurants/3015483xt
161006,161006dv,09VwpBTRTbdAPaQ9Dekknd6ApD7kkS,กาแฟสดผู้พันต๋อง,,,18.8433429,98.972394,50000,ร้านกาแฟ/ชา|เครื่องดื่ม/น้ำผลไม้,ร้านกาแฟ/ชา,1,https://img.wongnai.com/p/_-x_/2020/02/11/590409cf84de417f9a3b53861da0574f.jpg,https://www.wongnai.com/restaurants/161006dv
2265892,2265892CU,09Vxw82gHwZloWlAFIWPMboBjs8pIA,K.A. Coffee&Tea,,,18.741926951624002,99.10743853077292,50130,ร้านกาแฟ/ชา,ร้านกาแฟ/ชา,1,https://img.wongnai.com/p/_-x_/2023/04/25/6c05350cf7344d5ab3b04890364ccec2.jpg,https://www.wongnai.com/restaurants/2265892CU
3618639,3618639Nw,09VyfSVOOyfxZN1S2pHSZDE57EHNgf,เตี๋ยวเรือโกบอนด์ ปั้มพีที,,,18.841769938428513,99.04258774593472,-,ก๋วยเตี๋ยว,ก๋วยเตี๋ยว,1,https://img.wongnai.com/p/_-x_/2026/01/24/5c16947e0f8041a5948f8b5da01ad25e.jpg,https://www.wongnai.com/restaurants/3618639Nw
2046657,2046657vg,09VxqARffgi1mSzDyMpzSMtd5IT4YO,อาวน์ชา สาขา เชียงใหม่ กาดฝรั่ง วิลเลจ,อาวน์ชา,Owl Cha,18.701587409601,98.931995054899,50230,ร้านกาแฟ/ชา,ร้านกาแฟ/ชา,1,https://img.wongnai.com/p/_-x_/2022/12/14/28a955a974d74ec2a3df31e1c326689e.jpg,https://www.wongnai.com/restaurants/2046657vg
3517266,3517266nW,09VybxVLdjok9V9iTx35H5Su7w7aGA,ฮันน่าคาเฟ่ -,ฮันน่าคาเฟ่,Hannah Cafe,18.629310806179,98.904507793486,50120,คาเฟ่,คาเฟ่,1,https://img.wongnai.com/p/_-x_/2025/11/04/58583a4d5b2e44d3bd12d9a208966e93.jpg,https://www.wongnai.com/restaurants/3517266nW
472401,472401WA,09Vx2F9QRX0IYMzmXeQIsgDenOxUD4,เหยิม Café&bistro,เหยิม Cafe’&bistro,,19.145412,99.003866,,ร้านกาแฟ/ชา|คาเฟ่,ร้านกาแฟ/ชา,1,https://img.wongnai.com/p/_-x_/2020/09/15/d09513a2f4ac4295a02800eb9682b3d8.jpg,https://www.wongnai.com/restaurants/472401WA
2993493,2993493lf,09VyLEKbqjSo0uSuBbx4jQzVwijK8A,My Wine My Somtum,,,18.8442073,99.0287177,,ร้านไวน์|สเต๊ก|อาหารอิตาเลียน,ร้านไวน์,1,https://img.wongnai.com/p/_-x_/2025/02/24/39e4dc3aee0248e7847a0d763f783b48.jpg,https://www.wongnai.com/restaurants/2993493lf
1989817,1989817aQ,09VxoWfAdZ9G0H7D2knGiWpm27HYRC,เชียงดาวเมาท์เทนวิว เชียงดาว,เชียงดาวเมาท์เทนวิว,Chiangdao Mountian View,19.3669039,98.964327,,คาเฟ่,คาเฟ่,1,https://img.wongnai.com/p/_-x_/2022/12/22/7dfd724e40bf48c29cf78980475950df.jpg,https://www.wongnai.com/restaurants/1989817aQ
2024379,2024379aw,09VxpO6fVxvrOiR7XPAQrWxLJHZ2hK,12FEB Homey Cafe Hang Dong,,,18.73163573567864,98.91739620641783,50100,ร้านกาแฟ/ชา,ร้านกาแฟ/ชา,1,https://img.wongnai.com/p/_-x_/2023/01/04/102171c016104a56802ee13f2f67980e.jpg,https://www.wongnai.com/restaurants/2024379aw
161334,161334Cz,09VwpBTRRvHlNtOe0DmuH0bwq6krjt,Coffee Ngeggee -,Coffee Ngeggee,Coffee Ngeggee,18.420253306438,98.677012547851,,ร้านกาแฟ/ชา|คาเฟ่|ของหวาน,ร้านกาแฟ/ชา,1,https://img.wongnai.com/p/_-x_/2019/02/15/e897b3ed60eb4e09944da60d221815af.jpg,https://www.wongnai.com/restaurants/161334Cz
153862,153862dk,09VwpBTRU5W7y0WhglWbXDCBrvyuKV,ต้อมเตี๋ยวเรือยกซด สาขาหน้า ม.พายัพ หน้า ม.พายัพ,ต้อมเตี๋ยวเรือยกซด,,18.7939358,99.0256633,50000,ก๋วยเตี๋ยว|อาหารไทย,ก๋วยเตี๋ยว,1,https://img.wongnai.com/p/_-x_/2020/05/10/575eb0a435844474b3e9fd576856989c.jpg,https://www.wongnai.com/restaurants/153862dk
365360,365360zV,09VwpBTRXf6rZgmILoqAkTq5RDcYuQ,ห้องอาหาร คุข้าว โรงแรม Raya Heritage,,,18.8488569,98.98525029999996,,อาหารฟิวชั่น,อาหารฟิวชั่น,1,https://img.wongnai.com/p/_-x_/2018/11/07/232e3c5aa0e84be0be859abba421e67a.jpg,https://www.wongnai.com/restaurants/365360zV
3067802,3067802IX,09VyOe6TtSqz0GgzyzRgVFJOKBWZzg,AUDIVA workshop cafe AUDIVA workshop cafe,AUDIVA workshop cafe,,18.700968846776,98.93174579367,50230,ร้านกาแฟ/ชา,ร้านกาแฟ/ชา,1,https://img.wongnai.com/p/_-x_/2026/04/14/b6daecdcdf4f4ab3a2afeefa55b017d8.jpg,https://www.wongnai.com/restaurants/3067802IX
1211789,1211789rt,09VxWXeFKD7eXviZi6W6gxamPDuE4G,ซัม กอ รี chicken เวียงฝาง,ซัม กอ รี chicken,Sam Geo Ri Chicken,19.920807290649,99.20990427956,-,อาหารเกาหลี,อาหารเกาหลี,1,https://img.wongnai.com/p/_-x_/2025/07/21/a58b49f0e66740e1b9711c0eb4ff84ca.jpg,https://www.wongnai.com/restaurants/1211789rt
1980814,1980814UT,09VxoFuU7LT9e6hJ5QWgl3PgweAhnj,สวนส้มจินจู JINJU the orange farm,,,18.9513122,98.80362369999999,,ไร่/ฟาร์ม/สวนเกษตร,ไร่/ฟาร์ม/สวนเกษตร,0,https://img.wongnai.com/p/_-x_/2023/02/26/402c82d390cc41c5ae0efb3f1299cf5b.jpg,https://www.wongnai.com/restaurants/1980814UT
1287422,1287422JL,09VxYFVT75PbVzdjLHVItGs99nj01V,Velar เวล่าร์,,,19.374635,98.963403,,คาเฟ่,คาเฟ่,1,https://img.wongnai.com/p/_-x_/2021/12/05/c08c51de56844a0cb0bb4b14dbb2d396.jpg,https://www.wongnai.com/restaurants/1287422JL
3466290,3466290td,09Vyao5MtODGFCCi4RngeyE0gGAf7b,สุขุม (Sukhum)-แม่ริม,,,18.922187499999993,98.94106249999992,.,ร้านกาแฟ/ชา,ร้านกาแฟ/ชา,1,https://img.wongnai.com/p/_-x_/2025/10/14/ed2b3613af6e4fbb8a36747febee56c7.jpg,https://www.wongnai.com/restaurants/3466290td
381806,381806TP,09VwpBTRcJG6L8u7RxBkiAwczYdUYs,Prairie,,,18.791122634843344,98.83983459391789,,อื่นๆ,อื่นๆ,0,https://img.wongnai.com/p/_-x_/2021/01/16/397f0e9f361c4d039f53e6a3ec5e7a49.jpg,https://www.wongnai.com/restaurants/381806TP
271937,271937Ff,09VwpBTRRFk1l7YUrNmGmE80zSY5Pd,กินปู ดูนา ออนใต้สันกำแพง,มิสเตอร์แครปสันกำแพง,Mr.Crab,18.7194712,99.2037407,,อาหารทะเล|อาหารไทย,อาหารทะเล,1,https://img.wongnai.com/p/_-x_/2019/03/23/583e7f10062a4b55872473b7322effdb.jpg,https://www.wongnai.com/restaurants/271937Ff
2435023,2435023gO,09Vy0dZLIs3j1Y0dAQWhWzzSNKdcmp,บ้านธงชัย :Baan Thongjaya,,,18.731388,98.920453,,คาเฟ่|อาหารไทย|เบเกอรี/เค้ก,คาเฟ่,1,https://img.wongnai.com/p/_-x_/2024/04/17/91ccd1fd0d544ed18f90028ff4c06e01.jpg,https://www.wongnai.com/restaurants/2435023gO
3374321,3374321zv,09VyYD8NEtTvJpSZfUjMClbTduD0xr,Five Star แม็คโคร แม่ริม,ห้าดาว,Five Star,18.8986608,98.9512751,,ปิ้งย่าง|สตรีทฟู้ด/รถเข็น,ปิ้งย่าง,1,https://img.wongnai.com/p/_-x_/2025/11/11/b89be6d52dd54f2a95cea980d6e92dc0.jpg,https://www.wongnai.com/restaurants/3374321zv
2428553,2428553kA,09Vy0NDMvVZplAyKVglxxILoucwxN1,ครัวคุณแม่หมูกระทะ  เชียงใหม่(แยกหลุยส์),,,18.781808971892055,99.06970342627561,,ปิ้งย่าง|หมูกระทะ|อาหารไทย,ปิ้งย่าง,1,https://img.wongnai.com/p/_-x_/2023/09/05/b0139f35fda24cc1ac14837cd5d80918.jpg,https://www.wongnai.com/restaurants/2428553kA
2489573,2489573ZD,09Vy2W5oI9OYMEwDpSj8oMRFCRYqum,ขวัญใจข้าวต้ม แม่โจ้,ขวัญใจข้าวต้ม,,18.889875811675,99.023978579789,,อาหารไทย|ร้านข้าวต้ม|อาหารตามสั่ง,อาหารไทย,1,https://img.wongnai.com/p/_-x_/2023/09/20/0f70453f90c94620bd9530c22ec1f133.jpg,https://www.wongnai.com/restaurants/2489573ZD
2289814,2289814Dg,09Vxwmh1p1NoNIOQIxxWYTUO1aip4H,SERVESOOK แม่โจ้,เสิร์ฟสุข,Servesook,18.905114598793105,99.0160504666549,50290,อาหารอเมริกัน,อาหารอเมริกัน,1,https://img.wongnai.com/p/_-x_/2023/05/08/51e17c0742c1428782646e141f04f145.jpg,https://www.wongnai.com/restaurants/2289814Dg
375175,375175ya,09VwpBTRWlQXW16e7QreOMsrY8lYoT,สำนักสงฆ์ถ้ำผาปล่อง,,,19.403229761652618,98.92069693654776,,วัด,วัด,0,https://img.wongnai.com/p/_-x_/2018/12/31/e19116e733e24041b7e396362ebf95e8.jpg,https://www.wongnai.com/restaurants/375175ya
1413375,1413375oQ,09VxbifiQdvk1QghfopaLSeJFNEx3y,Atlantis Valley,,,18.878926802019595,99.34360854327679,,คาเฟ่|อาหารตามสั่ง|เบเกอรี/เค้ก,คาเฟ่,1,https://img.wongnai.com/p/_-x_/2023/08/09/1592ef10e8684e44b18d1fd6886d24cc.jpg,https://www.wongnai.com/restaurants/1413375oQ
315837,315837El,09VwpBTRRB63tk76GbQgsX98y9REut,จีรังเฮลธ์วิลเลจ,จีรัง เฮลธ์ วิลเลจ,Jirung Health Village,18.92266566,98.93487963,50180,โรงแรม/รีสอร์ท,โรงแรม/รีสอร์ท,0,https://img.wongnai.com/p/_-x_/2025/12/15/ad04467b3dcd45faa8459000f6b9c820.jpg,https://www.wongnai.com/restaurants/315837El
633102,633102hu,09VxF1fjHVYPEEELVgYQDD9ROyW8A5,Café De Pines Chiangmai สวนสน,สวนสนคาเฟ่,,19.1494771,98.9469951,,ร้านกาแฟ/ชา|คาเฟ่|เบเกอรี/เค้ก,ร้านกาแฟ/ชา,1,https://img.wongnai.com/p/_-x_/2020/10/11/b8435151133d412d91743b529683c074.jpg,https://www.wongnai.com/restaurants/633102hu
348555,348555bW,09VwpBTRbsG4MxB9l8rZAuW7yMKha8,บ่อน้ำร้อนโป่งอาง,,Pong Arng Hot Spring,19.596773,98.94430080000006,50170,น้ำพุร้อน,น้ำพุร้อน,0,https://img.wongnai.com/p/_-x_/2018/12/30/e5a2169bff9f473ca0f1089e9345d5ce.jpg,https://www.wongnai.com/restaurants/348555bW
324249,324249OF,09VwpBTRVfrgZlz7Ugn31aLedIQbHE,สถานีเกษตรหลวงอ่างขาง,สถานีเกษตรหลวงอ่างขาง,,19.90222514,99.03967207,50320,อุทยานและธรรมชาติ,อุทยานและธรรมชาติ,1,https://img.wongnai.com/p/_-x_/2018/04/27/efbed147c25d47c9be1cf6cd7cadbc3e.jpg,https://www.wongnai.com/restaurants/324249OF
3459192,3459192dH,09VyaY9bYFpH8p7GjfmGGi8IECXoxS,เนื้อหอม@แม่โจ้,,,18.883810151535922,99.03387450765612,50210,ก๋วยเตี๋ยว,ก๋วยเตี๋ยว,1,https://img.wongnai.com/p/_-x_/2026/03/20/9d42d6709a92450384d0c6b35eaeba0f.jpg,https://www.wongnai.com/restaurants/3459192dH
634448,634448BL,09VxF7YYnRnPItW88ZOPuIvTljWBFX,The Chef's Kitchen,เดอะเชฟคิทเช่น,The Chef's Kitchen,19.345617,98.9603048,,อาหารไทย|อาหารนานาชาติ|อาหารตามสั่ง,อาหารไทย,1,https://img.wongnai.com/p/_-x_/2020/10/15/d4323f336910402589bc9a2bf8a425b5.jpg,https://www.wongnai.com/restaurants/634448BL
153862,153862dk,09VwpBTRU5W7y0WhglWbXDCBrvyuKV,ต้อมเตี๋ยวเรือยกซด สาขาหน้า ม.พายัพ หน้า ม.พายัพ,ต้อมเตี๋ยวเรือยกซด,,18.7939358,99.0256633,50000,ก๋วยเตี๋ยว|อาหารไทย,ก๋วยเตี๋ยว,1,https://img.wongnai.com/p/_-x_/2020/05/10/575eb0a435844474b3e9fd576856989c.jpg,https://www.wongnai.com/restaurants/153862dk
1418806,1418806Rd,09Vxbr83lnp1NvfrOiNlNdnJI8OJbm,กินเส้น กินข้าว - พันเต้า,,,18.724860871845777,98.91874546185136,50230,อาหารจานเดียว|อาหารตามสั่ง,อาหารจานเดียว,1,https://img.wongnai.com/p/_-x_/2024/03/03/ed1aa7cedb644c36a366e0d69ee3a59a.jpg,https://www.wongnai.com/restaurants/1418806Rd
324233,324233Eb,09VwpBTRVH5G0PfrOKNJu14ZNkAvP7,ดอยอ่างขาง,ดอยอ่างขาง,,19.901050568796965,99.0400560734887,,ไร่/ฟาร์ม/สวนเกษตร,ไร่/ฟาร์ม/สวนเกษตร,0,https://img.wongnai.com/p/_-x_/2018/04/24/6bf2e963919d429b9bfac733d3f99bff.jpg,https://www.wongnai.com/restaurants/324233Eb
324893,324893bK,09VwpBTROkDJdZqwKlx2XDzVfbEfjr,วัดพระธาตุศรีจอมทองวรวิหาร,วัดพระธาตุศรีจอมทองวรวิหาร,,18.421115562299608,98.67915045644872,,วัด,วัด,0,https://img.wongnai.com/p/_-x_/2018/10/17/3d72967c4f3b4d228e5cf37e62bee0b6.jpg,https://www.wongnai.com/restaurants/324893bK
693572,693572yC,09VxIdC6jSYkaih5lWNw8v4BT08Vjv,แซ่บในหลืบ at โต้งน้อย by Jacky,แซ่บในหลืบ at โต่งน้อย by Jacky,,19.141964,98.915789,,อาหารไทย|อาหารอีสาน/ร้านส้มตำ,อาหารไทย,1,https://img.wongnai.com/p/_-x_/2020/12/10/6b2b9ea9646148078df5b362745ab8ed.jpg,https://www.wongnai.com/restaurants/693572yC
2512862,2512862CU,09Vy3SjkzudFdRyxfL8VLThcplkCc6,Sandy Dough,,Sandy Dough,18.819051225500836,99.0483115799725,50210,ของหวาน|อาหารจานเดียว|ร้านกาแฟ/ชา,ของหวาน,1,https://img.wongnai.com/p/_-x_/2023/10/01/20c54eab995b4557b1163147f247db90.jpg,https://www.wongnai.com/restaurants/2512862CU
1857140,1857140MU,09VxlBx8fIfgHYtAtxkNFGGz86nB6P,ก๋วยเตี๋ยวเรือ.ร (คุณนก) ปตท.แม่คือ ดอยสะเก็ด,,,18.79732256476984,99.10721624270082,50220,อาหารและสินค้าเพื่อสุขภาพ,อาหารและสินค้าเพื่อสุขภาพ,1,https://img.wongnai.com/p/_-x_/2023/04/28/a6966a0ff64645529f8017b113e46720.jpg,https://www.wongnai.com/restaurants/1857140MU
1788404,1788404pN,09VxjauOl52DLXu61HA7qUecGZQArz,Polaris Sunrise Cafe,Polaris Sunrise Cafe,,18.630451534498,98.892448078841,50120,คาเฟ่,คาเฟ่,1,https://img.wongnai.com/p/_-x_/2022/11/23/7938e254aa6649148fa6db8d155fd6c6.jpg,https://www.wongnai.com/restaurants/1788404pN
226682,226682FL,09VwpBTRTOci6wMnltudxN2I9F9odA,Hua Lin,หวาหลิน,Hua Lin,18.773356841948907,99.06340236441804,,อาหารจีน,อาหารจีน,1,https://img.wongnai.com/p/_-x_/2019/12/08/9d8637ee9a504ea2bdbebb1a4e878823.jpg,https://www.wongnai.com/restaurants/226682FL
2299025,2299025XG,09VxwzvTnsnXEvR9fQ1BTM9dh4kooE,C’Ya Doiwhan,ซีญ่าดอยหวาน,CYa Doiwhan,18.728006511593946,99.1623798140681,50130,ซูชิ|คาเฟ่|อาหารฟิวชั่น,ซูชิ,1,https://img.wongnai.com/p/_-x_/2023/05/12/f7430ffd231747a1af6f26eafd1f80b8.jpg,https://www.wongnai.com/restaurants/2299025XG
1935689,1935689RW,09Vxn10BQ9R3QuDh6zgN1QVesb1tui,Ginza Sushi Bar  สาขารวมโชค,,,18.826686566434113,99.01192573830485,50210,ซูชิ|กึ่งผับ/ร้านเหล้า/บาร์|อาหารญี่ปุ่น,ซูชิ,1,https://img.wongnai.com/p/_-x_/2023/02/08/94bd90579c504720839049e67df71a68.jpg,https://www.wongnai.com/restaurants/1935689RW
2428553,2428553kA,09Vy0NDMvVZplAyKVglxxILoucwxN1,ครัวคุณแม่หมูกระทะ  เชียงใหม่(แยกหลุยส์),,,18.781808971892055,99.06970342627561,,ปิ้งย่าง|หมูกระทะ|อาหารไทย,ปิ้งย่าง,1,https://img.wongnai.com/p/_-x_/2023/09/05/b0139f35fda24cc1ac14837cd5d80918.jpg,https://www.wongnai.com/restaurants/2428553kA
1838549,1838549Ln,09VxkmtrzbufmpxzBIyWQ938IHnUNF,ข้าวมันไก่ ลืมโลก สาขาดอยสะเก็ด ดอยสะเก็ด,ข้าวมันไก่ ลืมโลก สาขาดอยสะเก็ด,,18.866312389097494,99.11320662125945,51000,อาหารไทย,อาหารไทย,1,https://img.wongnai.com/p/_-x_/2022/08/19/9e5d30fcd98e49f493abf9fed9788bc8.jpg,https://www.wongnai.com/restaurants/1838549Ln
330524,330524pZ,09VwpBTRYlk8u6YDO4YaZ610jIxAET,บ้านป่าบงเปียง,,,18.532946,98.447244,50270,ไร่/ฟาร์ม/สวนเกษตร|ชุมชน,ไร่/ฟาร์ม/สวนเกษตร,0,https://img.wongnai.com/p/_-x_/2018/04/27/358e33662d334bc7bf37d164f366e6a4.jpg,https://www.wongnai.com/restaurants/330524pZ
1656236,1656236Qw,09Vxgh1S14TszZ6H0nE9eMn5xDjbEM,ม่อนกุเวร เชียงใหม่,,,18.844416,99.275041,,วัด|สถานที่สำคัญ,วัด,0,https://img.wongnai.com/p/_-x_/2022/06/05/188db54c01a147ea976cdfe2c897420d.jpg,https://www.wongnai.com/restaurants/1656236Qw
3629637,3629637dK,09VyfmdiRPmtyVVs4oYOKbs3fSiA6r,ขนมจีนภูเก็ต @Linen Fashion House,,,18.739243451657405,99.13022162036788,50130,อาหารใต้,อาหารใต้,1,https://img.wongnai.com/p/_-x_/2026/02/15/99a3315fc48b42d087d4f8e82a41e54d.jpg,https://www.wongnai.com/restaurants/3629637dK
441073,441073KC,09VwxzLakLsJnLI3RXLwP2DHJRatjI,Mi | Zü Restaurant At Onsen @ Moncham,Mee | Zü | Nam @ Onsen Moncham,Mee | Zü | Nam @ Onsen Moncham,18.9253592,98.8227683,,ปิ้งย่าง|ชาบู/สุกี้ยากี้/หม้อไฟ|อาหารญี่ปุ่น,ปิ้งย่าง,1,https://img.wongnai.com/p/_-x_/2021/03/19/c5532b8f5fcc4f5f8ed0d23a44bc9163.jpg,https://www.wongnai.com/restaurants/441073KC
180015,180015bk,09VwpBTRUBPGNYAAwOOcKMLHS7Wlfy,GUSTO SITE,กัสโต้ไซต์,GUSTO SITE,18.744240909067095,99.07708282209012,,อาหารนานาชาติ|อาหารตามสั่ง|เบเกอรี/เค้ก,อาหารนานาชาติ,1,https://img.wongnai.com/p/_-x_/2016/08/17/ce1ecef0cb7645aaa5fc35724f5f356c.jpg,https://www.wongnai.com/restaurants/180015bk
2469404,2469404Mo,09Vy1jsBwOO1xSdPwJvzzaNFiXF7h4,Minimal Coffee สาขาสันกำแพง,Minimal Coffee,,18.752358226435,99.104881418725,,คาเฟ่,คาเฟ่,1,https://img.wongnai.com/p/_-x_/2023/08/24/b2883b117cf1418fbae289b54b688fb1.jpg,https://www.wongnai.com/restaurants/2469404Mo
3806539,3806539BU,09VylOCGynV3zcUMh2ot5TTgOGSePG,ขวัญระมิงค์,,,18.842554,98.981934,,อาหารไทย|ร้านกาแฟ/ชา|ของหวาน,อาหารไทย,1,https://img.wongnai.com/p/_-x_/2026/05/23/382d763895f24f37a3b34aade8846fad.jpg,https://www.wongnai.com/restaurants/3806539BU
97352,97352gV,09VwpBTRM0OdXhNGmk4eIamaUcE090,ร้านขาหมูเชียงดาว (เจ้าเก่า),ร้านขาหมูเชียงดาว (เจ้าเก่า),KHA MU CHIANG DAO RESTAURANT (CHAO KAO),19.368672,98.965169,,อาหารจานเดียว,อาหารจานเดียว,1,https://img.wongnai.com/p/_-x_/2021/12/07/e378ffcab8f045c58608dee7111b4e5a.jpg,https://www.wongnai.com/restaurants/97352gV
324890,324890uC,09VwpBTRU5SxGI2KHzdmURj5lq674y,วัดต้นเกว๋น,วัดต้นเกว๋น,,18.72286887,98.92532753,50230,วัด,วัด,0,https://img.wongnai.com/p/_-x_/2018/03/28/e4e76797d98741f886192ab6bb3ced43.jpg,https://www.wongnai.com/restaurants/324890uC
3015483,3015483xt,09VyM6mjwwZpIjaI70BnHa5l9WLL3Z,NGON Vietnamese Restaurant - งอน เวียดนาม The Kad Farang Maerim,,,18.902187,98.949744,,อาหารเวียดนาม,อาหารเวียดนาม,1,https://img.wongnai.com/p/_-x_/2025/04/09/8fe6876cac47491d95a9e8f85d89ec57.jpg,https://www.wongnai.com/restaurants/3015483xt
585847,585847Fl,09VxAyGcsrEj47LWzw3qKy5HdjuPnY,Mori Natural Farm,,,18.86676,98.831323,,คาเฟ่,คาเฟ่,1,https://img.wongnai.com/p/_-x_/2021/03/06/1e29dd23df4b4b30af31ae2e9095fffb.jpg,https://www.wongnai.com/restaurants/585847Fl
24998,24998kp,09VwpBTRHsmPPv8fjPhA1FNk5rg6p6,บ้านม่อนม่วน,บ้านม่อนม่วน,Baan Mon Muan,18.92340629794953,98.82125527116386,,อาหารไทย|อาหารตามสั่ง|อาหารเช้า,อาหารไทย,1,https://img.wongnai.com/p/_-x_/2017/09/13/43b08e9090be4be384d90b4436b1ba21.jpg,https://www.wongnai.com/restaurants/24998kp
3568310,3568310kw,09VydGsFoUbp4tUA3sDA9w86zLNx8z,ห้างหุ้นส่วนจำกัด โอนิฟู้ด TAX ID : 0503569002603,ห้างหุ้นส่วนจำกัด โอนิฟู้ด,ONI FOOD Part.Ltd.,18.892241254653,99.012880067211,50200,อาหารญี่ปุ่น|ฟาสต์ฟู้ด/จานด่วน,อาหารญี่ปุ่น,1,https://img.wongnai.com/p/_-x_/2025/11/25/11d78f511f6041c6ba7dab2946c0e01d.jpg,https://www.wongnai.com/restaurants/3568310kw
2768738,2768738BJ,09VyDx90X8AuWpW48w2lwqSevAjCzF,โรตี ลุงดิน (อิสลาม),,Uncle Din Roti,18.885476556004576,99.01415666565299,50290,สตรีทฟู้ด/รถเข็น,สตรีทฟู้ด/รถเข็น,0,https://img.wongnai.com/p/_-x_/2024/05/19/0b5218d0efdd40448a1959972bb51784.jpg,https://www.wongnai.com/restaurants/2768738BJ
3060304,3060304iH,09VyOCnoZm8LZrw72R4ATZYnmSu5Sx,ภควา,,,19.3831088,98.9499278,,อาหารไทย|ร้านกาแฟ/ชา|เบเกอรี/เค้ก,อาหารไทย,1,https://img.wongnai.com/p/_-x_/2025/12/24/2e9311379c534558a44e95c1b48fc765.jpg,https://www.wongnai.com/restaurants/3060304iH
1463254,1463254KR,09VxciQybWsFS0cX7jqJHwnkC81vHd,So Into by Takarkad Cafe,,,18.821156000000002,99.01637599999997,50210,ร้านกาแฟ/ชา,ร้านกาแฟ/ชา,1,https://img.wongnai.com/p/_-x_/2023/02/08/964b7dfd70104e0b9efbe4d4418698dc.jpg,https://www.wongnai.com/restaurants/1463254KR
2600790,2600790Zz,09Vy7jggXOdAG4FXbaUCMEd3mLrvq3,ร้านข้าวสุขใจ@บ้านแหวน,,,18.699322517915835,98.96459046813168,50230,อาหารตามสั่ง|ชาบู/สุกี้ยากี้/หม้อไฟ|หมูกระทะ,อาหารตามสั่ง,1,https://img.wongnai.com/p/_-x_/2024/01/19/b0d28670623542a4a767bc596f506674.jpg,https://www.wongnai.com/restaurants/2600790Zz
340929,340929Aj,09VwpBTRYC4QSVxK3FGmxj8AIFruCU,ห้วยตึงเฒ่า (คิงคองยักษ์),,,18.867357056972352,98.94035679600063,,จุดชมวิว,จุดชมวิว,0,https://img.wongnai.com/p/_-x_/2018/07/18/d88b88cebf364030b874833a0db1e5ab.jpg,https://www.wongnai.com/restaurants/340929Aj
881471,881471uP,09VxPCsX9CcefF2pMTz0o4huzTjAsR,Araksa Tea Garden,,,19.190724,98.854581,,ร้านกาแฟ/ชา|อาหารไทย,ร้านกาแฟ/ชา,1,https://img.wongnai.com/p/_-x_/2021/04/30/07b89debfc9f4ddf92c9963f32641d67.jpg,https://www.wongnai.com/restaurants/881471uP
2566642,2566642QV,09Vy5ne2Ls723kG2UKmY9fqKDpZvXa,ชื่น-ฤไท คาเฟ่,,,18.59149646146281,98.89032632817653,,คาเฟ่|อาหารไทย,คาเฟ่,1,https://img.wongnai.com/p/_-x_/2026/03/07/0758ef059294414cbd7a93644f55de47.jpg,https://www.wongnai.com/restaurants/2566642QV
3015483,3015483xt,09VyM6mjwwZpIjaI70BnHa5l9WLL3Z,NGON Vietnamese Restaurant - งอน เวียดนาม The Kad Farang Maerim,,,18.902187,98.949744,,อาหารเวียดนาม,อาหารเวียดนาม,1,https://img.wongnai.com/p/_-x_/2025/04/09/8fe6876cac47491d95a9e8f85d89ec57.jpg,https://www.wongnai.com/restaurants/3015483xt
1979461,1979461WT,09VxoCuyvftZ5j7edzzrscnnyPfWC9,ตาหวานคาเฟ่ Tawaan Cafe,ตาหวานคาเฟ่,Tawaan Cafe,18.871564103350583,99.0772591510264,50210,อาหารตามสั่ง,อาหารตามสั่ง,1,https://img.wongnai.com/p/_-x_/2023/01/17/bc861fc123d54b26bdb1b55491dab6a0.jpg,https://www.wongnai.com/restaurants/1979461WT
366345,366345zI,09VwpBTRYSbPGLx8A9gSUacVKg1uz2,Jerns Burger Chiangdao,เจิญส์ เบอร์เก้อร์,Jerns Burger,19.353821176279546,98.96373230963945,,อาหารอเมริกัน|เบอร์เกอร์|พิซซ่า,อาหารอเมริกัน,1,https://img.wongnai.com/p/_-x_/2018/11/11/5e7b8dfc8eaf48d19cf75fc0f0d36c4e.jpg,https://www.wongnai.com/restaurants/366345zI
2137051,2137051IX,09VxtATGgZ9Iv5tYONgd6H4tm7Cnqa,Enfa shop by แจ่มฟ้า หางดง,,,18.69510915830992,98.92603838816285,50230,แม่และเด็ก,แม่และเด็ก,0,https://img.wongnai.com/p/_-x_/2023/11/05/dd5fd72f62354514836a3eb4b9031416.jpg,https://www.wongnai.com/restaurants/2137051IX
3581767,3581767GB,09VydpKoWoc7LhSOmVPjzTfzXba2Db,Minimal Coffee สาขา Exclusive หางดง,Minimal Coffee,Minimal coffee,18.705342594452,98.93285471946,50230,คาเฟ่,คาเฟ่,1,https://img.wongnai.com/p/_-x_/2025/12/25/b15913ede94b4fceb81adbfa68007790.jpg,https://www.wongnai.com/restaurants/3581767GB
2310533,2310533GE,09VxxJ75eXouE0zBuKuTk6mv97vuCB,TBA ตบะ คอฟฟี่กาแฟ,,,18.74375192232487,99.11973042413592,50130,คาเฟ่,คาเฟ่,1,https://img.wongnai.com/p/_-x_/2023/05/19/89d00c0dbcf948e5ae730f1f38bad195.jpg,https://www.wongnai.com/restaurants/2310533GE
2554611,2554611Ks,09Vy5IDmBqpwnqTdAXmwzuYEdyv1Cs,Enfa shop by น.นม เชียงใหม่ แม่โจ้,,,18.88544546922405,99.01372517116451,50290,แม่และเด็ก,แม่และเด็ก,0,https://img.wongnai.com/p/_-x_/2023/12/07/704b2010498d496a8ba554f975d1fd27.jpg,https://www.wongnai.com/restaurants/2554611Ks
2554609,2554609qS,09Vy5IDmJCQUYRytYjPpeJ9OdTZS6Y,Enfa shop by น.นม เชียงใหม่ บ่อสร้าง,,,18.766279277233618,99.07772682883548,50130,แม่และเด็ก,แม่และเด็ก,0,https://img.wongnai.com/p/_-x_/2023/12/07/704b2010498d496a8ba554f975d1fd27.jpg,https://www.wongnai.com/restaurants/2554609qS
3140027,3140027JD,09VyR4cOJfxdo6SUmrF7NGNczHRXho,ร้านเช็คอิน @อ่างเก็บน้ำห้วยมะนาว,,,18.642156,98.782198,,อาหารไทย,อาหารไทย,1,https://img.wongnai.com/p/_-x_/2025/12/30/7f5593c1e07b40af8aec6b5463dd6ad5.jpg,https://www.wongnai.com/restaurants/3140027JD
1469917,1469917oO,09VxcoZZFCMwOsQYuqgqUS51t0ehqC,10ตัน บิ๊กซี หางดง2,10ตัน,TEN TAN,18.667807417848,98.91423381865,50120,ร้านกาแฟ/ชา,ร้านกาแฟ/ชา,1,https://img.wongnai.com/p/_-x_/2024/08/30/cff6f48e0ebd498b865c540b48f28cab.jpg,https://www.wongnai.com/restaurants/1469917oO
1953124,1953124jd,09VxnQhV2SMptCAQjEPQkRjoXuQ2X4,กำจรคาเฟ่,กำจรพานิช,Komjohncafe,18.72298521937236,98.92492425661182,50230,คาเฟ่,คาเฟ่,1,https://img.wongnai.com/p/_-x_/2025/04/03/c02f3f90ec6b465aa343c4901fcf65f1.jpg,https://www.wongnai.com/restaurants/1953124jd
2428553,2428553kA,09Vy0NDMvVZplAyKVglxxILoucwxN1,ครัวคุณแม่หมูกระทะ  เชียงใหม่(แยกหลุยส์),,,18.781808971892055,99.06970342627561,,ปิ้งย่าง|หมูกระทะ|อาหารไทย,ปิ้งย่าง,1,https://img.wongnai.com/p/_-x_/2023/09/05/b0139f35fda24cc1ac14837cd5d80918.jpg,https://www.wongnai.com/restaurants/2428553kA
1364466,1364466TI,09Vxair7dEqHvT0WrJyt9wLjVQ9yYB,ครัวคุณหลิม,,,18.834447534937862,99.0351496450603,50210,อาหารตามสั่ง,อาหารตามสั่ง,1,https://img.wongnai.com/p/_-x_/2024/07/12/3b71d36ee86743a6b8932666e41dbd87.jpg,https://www.wongnai.com/restaurants/1364466TI
194063,194063Dy,09VwpBTRUPiDg7oxD1vkSBak5A3Ubt,น้องเจิน,,,19.116699596221952,99.01298567913318,,อาหารตามสั่ง|อาหารไทย|ร้านริมน้ำ,อาหารตามสั่ง,1,https://img.wongnai.com/p/_-x_/2017/12/29/32eb5b2291114299bc627b0cc25f9c86.jpg,https://www.wongnai.com/restaurants/194063Dy
436716,436716Qs,09VwxL8gE2KrT2P2fS72HTa7Yj13v9,กะเพราดลบันดาล  ซอย 23 หลิ่งมื่น ดลบันดาลแม่โจ้ ปากซอย 23 หลิ่งมื่น,ลับๆล่อๆ by ดลบันดาล,Secret,18.885408358687847,99.02533243501892,50290,อาหารจานเดียว|อาหารไทย,อาหารจานเดียว,1,https://img.wongnai.com/p/_-x_/2023/03/20/a79fae43cbe94c4a971318d49f231422.jpg,https://www.wongnai.com/restaurants/436716Qs
2458084,2458084Iz,09Vy1NGpMyO0AhB48yapu5wpzIXRvP,ก๋วยเตี๋ยว หอมเนื้อเชียงใหม่ อาหาร สาขา ดอยสะเก็ด,ก๋วยเตี๋ยว หอมเนื้อเชียงใหม่,Homnue chiangmai,18.810809213031,99.056743942201,,อาหารไทย|คาเฟ่,อาหารไทย,1,https://img.wongnai.com/p/_-x_/2023/09/28/67cebcec6d854129b7ec0aba0f2b87c4.jpg,https://www.wongnai.com/restaurants/2458084Iz
894935,894935kl,09VxPVZWRnBXPh37w2TpkKfwxktNsu,Chayanis studio and cafe,Chayanis studio and cafe,,18.91078289139,98.939099907875,50180,คาเฟ่,คาเฟ่,1,https://img.wongnai.com/p/_-x_/2021/05/07/7b2f75948e704432b8f2b51574af11c8.jpg,https://www.wongnai.com/restaurants/894935kl
1995041,1995041aO,09Vxoer6ydrzpaoFAIN2SOYAhjeWgt,ส้มตำแซ่บดีอีสาน,,,18.8420333,99.0237427,50210,อาหารอีสาน/ร้านส้มตำ,อาหารอีสาน/ร้านส้มตำ,1,https://img.wongnai.com/p/_-x_/2022/11/10/ba4c14703ce3401399d57f5569b30cc7.jpg,https://www.wongnai.com/restaurants/1995041aO
302341,302341jp,09VwpBTRVcfmPkeQI9m6EfboyjYHdm,แม่กำปอง ป้ายแดง -,แม่กำปอง ป้ายแดง,,18.865502581322,99.350498132408,,อาหารอีสาน/ร้านส้มตำ,อาหารอีสาน/ร้านส้มตำ,1,https://img.wongnai.com/p/_-x_/2020/12/10/31b505f0876542faa41b141d6f9006cd.jpg,https://www.wongnai.com/restaurants/302341jp
97968,97968yR,09VwpBTRMxuJROmqOEmG0bJus3eT6f,ข้าวซอยฟ้าฮ่าม(เชฟยุ่น) ราชพฤกษ์,ข้าวซอยฟ้าฮ่าม(เชฟยุ่น),KHAO SOI FA HAM RESTAURANT(chef yoon),18.736139022760117,98.93561504781246,,อาหารเหนือ,อาหารเหนือ,1,https://img.wongnai.com/p/_-x_/2013/12/02/a2e28c315a2645a7ba2ea89a7ab93488.jpg,https://www.wongnai.com/restaurants/97968yR
2472465,2472465jY,09Vy1s0l0zCy5shd3rAsMgpDxPA0Qg,Thingamajiggy,,,18.944673,98.927595,,คาเฟ่|ร้านกาแฟ/ชา,คาเฟ่,1,https://img.wongnai.com/p/_-x_/2023/08/27/0e46b25cd3f143a0a265ee9314c914fa.jpg,https://www.wongnai.com/restaurants/2472465jY
2146290,2146290UA,09VxtLSLt0CfOAtO48Kj9RtodUZAbN,ผัดไทยในบ้าน,,Large Basil & Creamy Egg Rice,18.6345867806515,98.86313370717777,50120,อาหารจานเดียว,อาหารจานเดียว,1,https://img.wongnai.com/p/_-x_/2025/11/07/4478da2fd9cd4d82939b080354b0c8bc.jpg,https://www.wongnai.com/restaurants/2146290UA
153862,153862dk,09VwpBTRU5W7y0WhglWbXDCBrvyuKV,ต้อมเตี๋ยวเรือยกซด สาขาหน้า ม.พายัพ หน้า ม.พายัพ,ต้อมเตี๋ยวเรือยกซด,,18.7939358,99.0256633,50000,ก๋วยเตี๋ยว|อาหารไทย,ก๋วยเตี๋ยว,1,https://img.wongnai.com/p/_-x_/2020/05/10/575eb0a435844474b3e9fd576856989c.jpg,https://www.wongnai.com/restaurants/153862dk
640291,640291Xi,09VxFZFR2BXzkgVI5x10yFDO5PdW5o,ลาบยโส&แจ่วฮ้อนยโส,,Tam Yam Yoso and Wichianburi Grilled Chicken (Original Recipe) Branch 165,18.700810002977168,98.9303073706981,50230,อาหารอีสาน/ร้านส้มตำ|ชาบู/สุกี้ยากี้/หม้อไฟ,อาหารอีสาน/ร้านส้มตำ,1,https://img.wongnai.com/p/_-x_/2020/10/01/2b51d50b561c42b6a472dd0d450140e1.jpg,https://www.wongnai.com/restaurants/640291Xi
2311945,2311945gJ,09VxxKFBE5Abs4bvWzRuVmqHcWsfXv,ราชพฤกษ์หมูกระทะ,,,18.9083666447726,98.94787064762696,50180,เนื้อสด,เนื้อสด,0,https://img.wongnai.com/p/_-x_/2023/05/20/5ddeaea0b4af4f9c8613f693d01aa777.jpg,https://www.wongnai.com/restaurants/2311945gJ
222467,222467hZ,09VwpBTRPubSRGwYhCDui2lFWfmwWI,ไร่ชาลุงเดช,ไร่ชาลุงเดช,,19.20601052676124,98.79504272883605,,ร้านกาแฟ/ชา|อาหารตามสั่ง,ร้านกาแฟ/ชา,1,https://img.wongnai.com/p/_-x_/2018/02/23/4529c22415ea4145b7917bc14839f804.jpg,https://www.wongnai.com/restaurants/222467hZ
2170669,2170669Lp,09VxttWODchiU9Zn4HpkkLD3cDJAND,ป้อหลวง คาเฟ่ porluang cafe,,,18.744748853990274,99.11271845921874,50130,คาเฟ่,คาเฟ่,1,https://img.wongnai.com/p/_-x_/2023/03/05/2242d3cb17c745c685563b314f51f60b.jpg,https://www.wongnai.com/restaurants/2170669Lp
325948,325948Dn,09VwpBTRTslhRQGSSxmgNKEyUNWj3l,วัดท่าตอน (พระอารามหลวง),วัดท่าตอน (พระอารามหลวง),,20.060198812175635,99.36033215037662,,วัด,วัด,0,https://img.wongnai.com/p/_-x_/2018/04/02/1c4de9738bee4db49ee3884fc1045c0f.jpg,https://www.wongnai.com/restaurants/325948Dn
1692747,1692747ZD,09VxhYZgybDX3Lgj9j6UrlJzAkAqx5,Slowride Coffee Camp Hangdong,Slowride Coffee Camp,,18.693859138975,98.925820793957,50230,คาเฟ่,คาเฟ่,1,https://img.wongnai.com/p/_-x_/2026/02/04/4de748a299f1451dba3a419310b9feb6.jpg,https://www.wongnai.com/restaurants/1692747ZD
1766317,1766317vk,09VxjBovRw2rv4CaWk6HuLHqUuCmNU,สันใต้คาเฟ่ Santai Cafe สันกำแพง,,,18.74451073290849,99.11567224189639,50130,ร้านกาแฟ/ชา|ก๋วยเตี๋ยว|เบเกอรี/เค้ก,ร้านกาแฟ/ชา,1,https://img.wongnai.com/p/_-x_/2022/07/14/a5aac11336634bdf98eda18e20760ce3.jpg,https://www.wongnai.com/restaurants/1766317vk
2760178,2760178IW,09VyDhmIQEkl7IdvZIniN5wkA4jF75,โซลาวบ้านเจ๊ สาขาต้นเปา สันกำแพง,,,18.761351,99.060184,,อาหารอีสาน/ร้านส้มตำ|ร้านกาแฟ/ชา|เบเกอรี/เค้ก,อาหารอีสาน/ร้านส้มตำ,1,https://img.wongnai.com/p/_-x_/2026/01/03/1658dbafa8cb44bbaf8a4ed9dfca7b61.jpg,https://www.wongnai.com/restaurants/2760178IW
1633718,1633718eQ,09VxgJMION3NR7GbHlL27zLG3YVrhB,GOOD STAND CAFE  OPEN HOUSE,,,18.724132461768082,98.92974687740207,50230,คาเฟ่|ร้านกาแฟ/ชา|เบเกอรี/เค้ก,คาเฟ่,1,https://img.wongnai.com/p/_-x_/2022/05/11/7a2345bf658741f8a754a229ee81f78c.jpg,https://www.wongnai.com/restaurants/1633718eQ
3017862,3017862FU,09VyMELBq0YqelQ47hwJ3U8d9dM91T,Kawan Home Coffee,กาวัน กาแฟ,,18.9193975,98.9411442,,ร้านกาแฟ/ชา|เบเกอรี/เค้ก,ร้านกาแฟ/ชา,1,https://img.wongnai.com/p/_-x_/2024/11/16/82112aac0d324233bb56d45b68904fe0.jpg,https://www.wongnai.com/restaurants/3017862FU
3015483,3015483xt,09VyM6mjwwZpIjaI70BnHa5l9WLL3Z,NGON Vietnamese Restaurant - งอน เวียดนาม The Kad Farang Maerim,,,18.902187,98.949744,,อาหารเวียดนาม,อาหารเวียดนาม,1,https://img.wongnai.com/p/_-x_/2025/04/09/8fe6876cac47491d95a9e8f85d89ec57.jpg,https://www.wongnai.com/restaurants/3015483xt
3286973,3286973cH,09VyVhn37ONW3TNQw7JIrt9P1Fqyut,MOOH House Hangdong,,,18.727865545055064,98.94733325760204,50230,เบเกอรี/เค้ก,เบเกอรี/เค้ก,1,https://img.wongnai.com/p/_-x_/2025/09/19/c4402548c4f84bb995d9c0395eb77299.jpg,https://www.wongnai.com/restaurants/3286973cH
1692218,1692218Ry,09VxhYOpcGwRB0Topv3X66Axbw7FSP,Sansai steakhouse (สันทรายสเต็กเฮาส์),Sansai steakhouse (สันทรายสเต็กเฮาส์),,18.828663886124428,99.03846452012658,50210,อื่นๆ,อื่นๆ,0,https://img.wongnai.com/p/_-x_/2022/08/23/45d4539249374fa4aa2549d1aa07236a.jpg,https://www.wongnai.com/restaurants/1692218Ry
705291,705291qQ,09VxJGLTCeolBBDmsMzqlZch7M8K5e,Pronto Coffee,,Pronto Coffee,19.3785651,98.9439237,,ร้านกาแฟ/ชา|คาเฟ่,ร้านกาแฟ/ชา,1,https://img.wongnai.com/p/_-x_/2021/04/28/48978b518e674517b578a90171fa7ea9.jpg,https://www.wongnai.com/restaurants/705291qQ
3031732,3031732Jx,09VyMmRzC70iANSrxm4thcZeeDbfLG,Mae wang mountain view -,Mae wang mountain view,,18.6100373,98.8216891,,คาเฟ่,คาเฟ่,1,https://img.wongnai.com/p/_-x_/2025/01/08/3dfb7e16b7194dcf8a459b7a56c02a92.jpg,https://www.wongnai.com/restaurants/3031732Jx
2051813,2051813tS,09VxqLjuL9RnWONUyTrokXcrXABdZb,Folklosophy  เชียงใหม่,Folklosophy ,,18.960701690105306,98.99069622159004,,คาเฟ่,คาเฟ่,1,https://img.wongnai.com/p/_-x_/2026/02/05/3d044a1aa1a34fa68c86b4159125bc79.jpg,https://www.wongnai.com/restaurants/2051813tS
96526,96526Zo,09VwpBTRKuS0CerkSobU2XcCt9AxiC,สวนอาหารบัวแม่สาออร์คิด,สวนอาหารบัวแม่สาออร์คิด,BUA MAE SA ORCHID RESTAURANT,18.91497,98.90666,50180,อาหารไทย,อาหารไทย,1,https://img.wongnai.com/p/_-x_/2013/05/12/dcafb70c8ceb4c1f8d2ac17226479dbd.jpg,https://www.wongnai.com/restaurants/96526Zo
352120,352120wM,09VwpBTRW33PIFEwsBI9CEHi5iX7yW,อ่างเก็บน้ำห้วยมะนาว,,,18.6388889,98.77805560000002,50360,เขื่อน/อ่างเก็บน้ำ,เขื่อน/อ่างเก็บน้ำ,0,https://img.wongnai.com/p/_-x_/2018/10/21/f73e2316a23e4b5f8e532dae15798450.jpg,https://www.wongnai.com/restaurants/352120wM
2137052,2137052xe,09VxtATGiQBGtWRZM2u05leDNHQxFj,Enfa shop by แจ่มฟ้า J Space,,,18.841553213597912,99.02333484962583,50210,แม่และเด็ก,แม่และเด็ก,0,https://img.wongnai.com/p/_-x_/2023/11/05/b82328db11a04179ad1954714803d740.jpg,https://www.wongnai.com/restaurants/2137052xe
363658,363658ox,09VwpBTRVoBBeAnz33i5nw5WcFeAsv,บ้านแม่แมะ,,,19.318542973933873,98.89069311293224,,ชุมชน,ชุมชน,0,https://img.wongnai.com/p/_-x_/2018/10/30/02f749ca0e474d7b97f08623bf2f16b2.jpg,https://www.wongnai.com/restaurants/363658ox
391025,391025VA,09Vwq20CFmpJjn5YzUqvBTJVrF940W,ร้านส้มตำป้าทา,,Som Tum Pa Tha,18.885618999462398,99.02037972584367,50210,อาหารอีสาน/ร้านส้มตำ|อาหารญี่ปุ่น,อาหารอีสาน/ร้านส้มตำ,1,https://img.wongnai.com/p/_-x_/2025/05/20/bbbe31ef6927450081ba45e06108037f.jpg,https://www.wongnai.com/restaurants/391025VA
153862,153862dk,09VwpBTRU5W7y0WhglWbXDCBrvyuKV,ต้อมเตี๋ยวเรือยกซด สาขาหน้า ม.พายัพ หน้า ม.พายัพ,ต้อมเตี๋ยวเรือยกซด,,18.7939358,99.0256633,50000,ก๋วยเตี๋ยว|อาหารไทย,ก๋วยเตี๋ยว,1,https://img.wongnai.com/p/_-x_/2020/05/10/575eb0a435844474b3e9fd576856989c.jpg,https://www.wongnai.com/restaurants/153862dk
895864,895864TB,09VxPW9smANmJ3Nqk9MJGc1Bj2zleK,สราญภิรมย์คาเฟ่ จอมทอง,สราญภิรมย์คาเฟ่,Saranphirom Cafe,18.433917450289357,98.66949113085866,50160,อาหารอิตาเลียน,อาหารอิตาเลียน,1,https://img.wongnai.com/p/_-x_/2022/12/15/92946cf80805457ab80201b0e32fd314.jpg,https://www.wongnai.com/restaurants/895864TB
284740,284740ly,09VwpBTRRLdejXqcLODWYfqYurlXWC,อันจะกินวิลล่า,อันจะกินวิลล่า,Anjakin Villa,18.727997,98.914516,50230,อาหารไทย|อาหารฝรั่งเศส|อาหารอิตาเลียน,อาหารไทย,1,https://img.wongnai.com/p/_-x_/2019/02/25/e22de1be01e94665a1ddd7d8eb180cc8.jpg,https://www.wongnai.com/restaurants/284740ly
3773307,3773307sX,09VykNTtjZmadu4MmxmOA1fJzajimK,Ruby Sauce รูบี้ซอส คาเฟ่,,,18.916382,98.90922,,อาหารญี่ปุ่น|ร้านกาแฟ/ชา|เบเกอรี/เค้ก,อาหารญี่ปุ่น,1,https://img.wongnai.com/p/_-x_/2026/05/02/74b480927fca471ead1e495fe3f1bb83.jpg,https://www.wongnai.com/restaurants/3773307sX
119409,119409jh,09VwpBTRNAMUr8EdTLOTg9jBv2HLRW,อุทยานแห่งชาติดอยผ้าห่มปก,,,19.96620616697672,99.15501576455688,50110,อุทยานและธรรมชาติ,อุทยานและธรรมชาติ,1,https://img.wongnai.com/p/_-x_/2018/06/11/50c3fd112bd64b68ab79e8512594733d.jpg,https://www.wongnai.com/restaurants/119409jh
2662077,2662077dP,09VyA694hchRRHkM2y0OPrwd9ySCZ9,Giant Trees Alley - อุโมงค์ต้นไม้ เชียงดาว,อุโมงค์ต้นไม้ เชียงดาว,Giant Trees Alley,19.3839853,98.9392826,,จุดชมวิว,จุดชมวิว,0,https://img.wongnai.com/p/_-x_/2025/12/29/a4df07035791405cb16cae4811a051c4.jpg,https://www.wongnai.com/restaurants/2662077dP
165663,165663iJ,09VwpBTRUl4fLx5rOzXGbnXFqw5BgL,ลาบต้นข่อย,,,18.832963897524934,99.05710835276125,,อาหารเหนือ|อาหารไทย,อาหารเหนือ,1,https://img.wongnai.com/p/_-x_/2020/11/19/0d7fcd56572d485c82323d64d8c0c70d.jpg,https://www.wongnai.com/restaurants/165663iJ
2243404,2243404sb,09VxvPAaX6ouakQZ6vGJfQuCYL40IB,ลาบน้องกล้วยสะเมิง (หน้า รพ.นครพิงค์),,,18.849580663475585,98.97022107616067,50180,อาหารเหนือ,อาหารเหนือ,1,https://img.wongnai.com/p/_-x_/2023/04/07/9ed902cab0144034a3fd5093531d5050.jpg,https://www.wongnai.com/restaurants/2243404sb
2102844,2102844Lw,09VxsFh6pfTb9nUOkeKKsDqUzQXLie,ขนมจีนน้ำเงี้ยว ส.สุธิเกียรติ แยกต้นเกว๋น หนองควาย 2,ขนมจีนน้ำเงี้ยว ส.สุธิเกียรติ แยกต้นเกว๋น,,18.724649881823,98.933151438832,50230,อาหารเหนือ|ชาบู/สุกี้ยากี้/หม้อไฟ|เครื่องดื่ม/น้ำผลไม้,อาหารเหนือ,1,https://img.wongnai.com/p/_-x_/2023/01/31/22dc88b56fce431d95b613da069c9c81.jpg,https://www.wongnai.com/restaurants/2102844Lw
3778636,3778636Sd,09VykbnmhL54EdxY8D8HVwF3L3pzEi,ร้านตำเมิน,,,18.621417,98.877747,,อาหารอีสาน/ร้านส้มตำ,อาหารอีสาน/ร้านส้มตำ,1,https://img.wongnai.com/p/_-x_/2026/05/05/519ce2a9d67c48c59419fee95c22c410.jpg,https://www.wongnai.com/restaurants/3778636Sd
2431919,2431919aA,09Vy0Uz9GeGKzux5BP0QvDR90hvOXa,tara valley -,,,19.015187255779,99.300280809402,50220,อาหารไทย,อาหารไทย,1,https://img.wongnai.com/p/_-x_/2025/07/25/4e3e9687498741ba9a0168d04f52d08d.jpg,https://www.wongnai.com/restaurants/2431919aA
2428553,2428553kA,09Vy0NDMvVZplAyKVglxxILoucwxN1,ครัวคุณแม่หมูกระทะ  เชียงใหม่(แยกหลุยส์),,,18.781808971892055,99.06970342627561,,ปิ้งย่าง|หมูกระทะ|อาหารไทย,ปิ้งย่าง,1,https://img.wongnai.com/p/_-x_/2023/09/05/b0139f35fda24cc1ac14837cd5d80918.jpg,https://www.wongnai.com/restaurants/2428553kA
3373003,3373003Kg,09VyYAiOrjqxnApKIvCnnAvy6jNikX,วินเนอร์ อินเตอร์ พลาส       ปตท. มาบข่า ระยอง,วินเนอร์ อินเตอร์ พลาส      ,,19.3404674,98.9600677,,อื่นๆ,อื่นๆ,0,https://img.wongnai.com/p/_-x_/2025/09/12/23b33195169e46609ebead2f6ed71899.jpg,https://www.wongnai.com/restaurants/3373003Kg
2621103,2621103oB,09Vy8Yz53SRpdEzfnNRsBOXX0Wa1mg,หอมไข่เจียว (บ้านป่าตาล),,Fragrant Omelette (Ban Pa Tan),18.724976779270392,98.95620888099074,50230,อาหารไทย,อาหารไทย,1,https://img.wongnai.com/p/_-x_/2024/03/13/1516fc76754642159218cf64a6b6adeb.jpg,https://www.wongnai.com/restaurants/2621103oB
269483,269483AR,09VwpBTRSSU30j5AyKZ7JBtlpdw3bu,พรเพ็ญขาหมูเสวย สาขา 2,,,19.34356695362848,98.96056418280341,,อาหารเหนือ|อาหารไทย|เครื่องดื่ม/น้ำผลไม้,อาหารเหนือ,1,https://img.wongnai.com/p/_-x_/2017/03/13/53a36d95e25748608f259da04e4ae3f2.jpg,https://www.wongnai.com/restaurants/269483AR
3750915,3750915FR,09VyjYlBBAcCGL9WDJIR12LkeVjMYy,ก๋วยเตี๋ยวรสจันทร,,,18.822024,99.042991,,ก๋วยเตี๋ยว,ก๋วยเตี๋ยว,1,https://img.wongnai.com/p/_-x_/2026/05/21/cf3c8dbeb4e741e097ded39bd311512e.jpg,https://www.wongnai.com/restaurants/3750915FR
1564165,1564165Rq,09Vxem9KC02iy8hx6EaEEIka0EsOpo,นลินบ้าบิ่นมะพร้าวอ่อน,,Nalynn Homebaked,18.746482672888625,99.11998054012656,50130,เบเกอรี/เค้ก,เบเกอรี/เค้ก,1,https://img.wongnai.com/p/_-x_/2022/11/04/bb74da2828d043a4b63845d35438e2ce.jpg,https://www.wongnai.com/restaurants/1564165Rq
354977,354977ou,09VwpBTRX5BRK4KDLfvKXbMwdhjGvV,กิ่วฝิ่น,กิ่วฝิ่น,Kew Fin,18.8543611,99.36662520000004,,จุดชมวิว,จุดชมวิว,0,https://img.wongnai.com/p/_-x_/2023/01/23/310969216e15460896f2f24ef1b7482b.jpg,https://www.wongnai.com/restaurants/354977ou
370852,370852Em,09VwpBTRcq2LrIhBGv4gPHLei4nHns,วัดถ้ำเชียงดาว,,,19.393972703646792,98.92859201878309,,วัด,วัด,0,https://img.wongnai.com/p/_-x_/2019/01/22/7dc3020ff84e401695fe5c8b81a1d55c.jpg,https://www.wongnai.com/restaurants/370852Em
1914334,1914334Xf,09VxmQOtuib9Y6qbmfhOLWwxfFcMoz,กาแฟสร้างสรรค์ (Hang Dong),,Sangsan coffee,18.68248114798252,98.91871025785804,50230,เครื่องดื่ม/น้ำผลไม้,เครื่องดื่ม/น้ำผลไม้,1,https://img.wongnai.com/p/_-x_/2022/09/22/f4e93c3a349642c8a2d9c17e69aaddd0.jpg,https://www.wongnai.com/restaurants/1914334Xf
1741020,1741020TX,09VxiYJTbPb392h0qFAtwOsVvf2o2O,AIBO SLOW BAR,ไอโบ สโลว์ บาร์,AIBO SLOW BAR,18.73644239915831,99.12753799930215,50130,ร้านกาแฟ/ชา,ร้านกาแฟ/ชา,1,https://img.wongnai.com/p/_-x_/2022/07/01/2ca49f07def34bd89b75b59d389a1d5f.jpg,https://www.wongnai.com/restaurants/1741020TX
1933960,1933960mQ,09VxmyDcJaFWMrToHAea5WUZ7Ub7fI,ก๋วยเตี๋ยวหม้อดิน by farm food,,,18.6643474038958,98.91091946935552,,ก๋วยเตี๋ยว,ก๋วยเตี๋ยว,1,https://img.wongnai.com/p/_-x_/2023/07/19/59139fd7064a4af8895b3a924392ed95.jpg,https://www.wongnai.com/restaurants/1933960mQ
2428553,2428553kA,09Vy0NDMvVZplAyKVglxxILoucwxN1,ครัวคุณแม่หมูกระทะ  เชียงใหม่(แยกหลุยส์),,,18.781808971892055,99.06970342627561,,ปิ้งย่าง|หมูกระทะ|อาหารไทย,ปิ้งย่าง,1,https://img.wongnai.com/p/_-x_/2023/09/05/b0139f35fda24cc1ac14837cd5d80918.jpg,https://www.wongnai.com/restaurants/2428553kA
1839481,1839481Fn,09VxknR4MO9agtWBuWBL5YYT4fRnG5,8 ชั่วโมง ก๋วยเตี๋ยวเรือ,,,18.777675057561495,99.05616307631135,50130,ก๋วยเตี๋ยว,ก๋วยเตี๋ยว,1,https://img.wongnai.com/p/_-x_/2022/08/24/c00ae5eb304a47559fa2be0934675518.jpg,https://www.wongnai.com/restaurants/1839481Fn
2695290,2695290QT,09VyBGtKC1qe1V3YHGac0ZsWKzX83P,Arb Pa Home & Cafe อาบป่า โฮม แอนด์ คาเฟ่,Arb Pa Home & Cafe,,18.862854,99.301158,,คาเฟ่,คาเฟ่,1,https://img.wongnai.com/p/_-x_/2024/03/21/67e3e2abfc43495fb54a728213e9601e.jpg,https://www.wongnai.com/restaurants/2695290QT
348550,348550AE,09VwpBTRdQlMvcBn5zBGjui8A8hFUV,น้ำตกศรีสังวาลย์,,Sri Sangwan Waterfall,19.6291136,98.95631379999998,50170,น้ำตก,น้ำตก,0,https://img.wongnai.com/p/_-x_/2018/12/30/62cc1ae7a32c46c8a2b85247a6cb5dc7.jpg,https://www.wongnai.com/restaurants/348550AE
324231,324231pM,09VwpBTROYJjB2NXdqVud1fOZcx6oy,น้ำพุร้อนโป่งเดือด,น้ำพุร้อนโป่งเดือด,,19.24287982,98.68312487,50150,น้ำพุร้อน,น้ำพุร้อน,0,https://img.wongnai.com/p/_-x_/2018/03/28/49c8dde1c0664a6c99aaf48cc43632f4.jpg,https://www.wongnai.com/restaurants/324231pM
207230,207230Ia,09VwpBTRUbd9qmyvipKpfpO20qNgOd,Pang-Hai Coffee Shop (ปางไฮคอฟฟี่ช็อป),ปางไฮคอฟฟี่ช็อป,Pang-Hai Coffee Shop,18.922304,99.329533,50220,ร้านกาแฟ/ชา|อาหารตามสั่ง,ร้านกาแฟ/ชา,1,https://img.wongnai.com/p/_-x_/2018/06/17/6af8fcc45f2f440c8205bec657ad2db2.jpg,https://www.wongnai.com/restaurants/207230Ia
2052343,2052343eR,09VxqNu0BYMuhKPiBh1ImgIqQDufhs,Wiang na cafe สันกำแพง,เวียงนาคาเฟ่,Wiang na cafe,18.742384786722823,99.10865189507604,50130,คาเฟ่|อาหารญี่ปุ่น,คาเฟ่,1,https://img.wongnai.com/p/_-x_/2022/12/18/2cd4171ec7e545359183cb7c2c7c745f.jpg,https://www.wongnai.com/restaurants/2052343eR
2458872,2458872pE,09Vy1P8LE5FBYUUkZc7E7hgnqyq2UZ,Bai cha แม่โจ้เชียงใหม่,,Bai cha maejo chaingmai,18.88612084461942,99.04610289077047,50210,ร้านกาแฟ/ชา|ชานมไข่มุก,ร้านกาแฟ/ชา,1,https://img.wongnai.com/p/_-x_/2024/12/02/af39837910504679bc838b03d6e5ccd1.jpg,https://www.wongnai.com/restaurants/2458872pE
2426755,2426755sH,09Vy0KC4BiXFJxdkTcbLDci1bgO5sJ,Five Star โลตัสโกเฟรช สันทรายหลวง,ห้าดาว,Five Star,18.84396514665604,99.04355411883785,50210,ปิ้งย่าง|สตรีทฟู้ด/รถเข็น,ปิ้งย่าง,1,https://img.wongnai.com/p/_-x_/deleted/2023/02/16/e8c7bffe55c843a88b8d39bffab523f8.jpg,https://www.wongnai.com/restaurants/2426755sH
2245878,2245878aL,09VxvUaeP4lrDp01aZI7BpQGHJueCn,RIS COFFEE CNX,,,18.764322808774264,99.08133177581173,-,ร้านกาแฟ/ชา|เครื่องดื่ม/น้ำผลไม้,ร้านกาแฟ/ชา,1,https://img.wongnai.com/p/_-x_/2023/04/26/27a6ef5e91934bfa83e82e25af1150b1.jpg,https://www.wongnai.com/restaurants/2245878aL
1215897,1215897Qu,09VxWeuQuRB6Vt2Rw07jQEb97HvkWN,ร้านป้าอ้วนโภชนา,ร้านป้าอ้วนโภชนา,,19.10337769414372,98.8384909182787,,อาหารเหนือ|ก๋วยเตี๋ยว|อาหารตามสั่ง,อาหารเหนือ,1,https://img.wongnai.com/p/_-x_/2021/10/11/234af2b58eb545738eadc3090d299f41.jpg,https://www.wongnai.com/restaurants/1215897Qu
3015483,3015483xt,09VyM6mjwwZpIjaI70BnHa5l9WLL3Z,NGON Vietnamese Restaurant - งอน เวียดนาม The Kad Farang Maerim,,,18.902187,98.949744,,อาหารเวียดนาม,อาหารเวียดนาม,1,https://img.wongnai.com/p/_-x_/2025/04/09/8fe6876cac47491d95a9e8f85d89ec57.jpg,https://www.wongnai.com/restaurants/3015483xt
138434,138434Ut,09VwpBTRK4NOOPoQVHuqhxkzDAsZYK,Horizon Village & Resort,ฮอไรซันวิลเลจแอนด์รีสอร์ท,Horizon Village & Resort,18.857018043936435,99.09917110052493,,บุฟเฟ่ต์โรงแรม|อาหารนานาชาติ|บุฟเฟ่ต์,บุฟเฟ่ต์โรงแรม,1,https://img.wongnai.com/p/_-x_/2018/06/26/76c7af6eec29478f92fa7eddd7b8c786.jpg,https://www.wongnai.com/restaurants/138434Ut
188035,188035gt,09VwpBTROmIb7bcaTxVeM7KetBRtcr,ทีวณา เรสเทอรองตส์,,Teewana restaurant @ Teewana Resort,18.72455277913845,98.9591328240931,50230,อาหารคลีน/สลัด,อาหารคลีน/สลัด,1,https://img.wongnai.com/p/_-x_/2015/03/26/89855a026a654af6b6172b50e79cdfbb.jpg,https://www.wongnai.com/restaurants/188035gt
2928350,2928350QF,09VyIrmcZj6IZviuYUyJd4Yh3ZyyDt,Midori ดอนแก้ว แม่ริม เชียงใหม่,Midori,Midori,18.88303130253,98.958527882649,50180,ชานมไข่มุก|ร้านกาแฟ/ชา|เครื่องดื่ม/น้ำผลไม้,ชานมไข่มุก,1,https://img.wongnai.com/p/_-x_/2024/09/04/1988c413e3ec4d2493acbd3184538596.jpg,https://www.wongnai.com/restaurants/2928350QF
324814,324814uj,09VwpBTRPWRbCAmcw38kBXLTEKQ6dO,ศูนย์อุตสาหกรรมทำร่ม,ศูนย์อุตสาหกรรมทำร่ม,,18.76413723,99.08253965,50130,ศูนย์วัฒนธรรม,ศูนย์วัฒนธรรม,0,https://img.wongnai.com/p/_-x_/2018/03/28/57cbe9ae1aa543998b38b7671eb5bbb2.jpg,https://www.wongnai.com/restaurants/324814uj
353327,353327FV,09VwpBTRa5phKFIT5o7CKNfV5dJbih,วัดพระธาตุศรีเมืองปง,,,18.7515904,98.8806489,50230,วัด,วัด,0,https://img.wongnai.com/p/_-x_/2025/04/13/79ee75a80d7a4ea8a6c45f287fc76487.jpg,https://www.wongnai.com/restaurants/353327FV
2417411,2417411py,09Vy02m6f5qIHzIsWpJ0EqBM3rEJod,TWELVE OZ ข้างปั้ม ปตท.ท่ารั้ว,,,18.79628151821111,99.0666320733726,50220,ร้านกาแฟ/ชา|เบเกอรี/เค้ก,ร้านกาแฟ/ชา,1,https://img.wongnai.com/p/_-x_/2023/08/01/28c10b9d1cb24a0ea4159eafc88fa0c0.jpg,https://www.wongnai.com/restaurants/2417411py
2415493,2415493PR,09VxzzpWLxcbyhkWDippwrN0yxgsbL,ร้านอาหารจานซาว(ก๋วยเตี๋ยวซาวบาทหลังเทศบาลสันโป่ง),,,18.94207398646824,98.94557459279895,50180,ก๋วยเตี๋ยว|อาหารจานเดียว|อาหารกล่อง/ข้าวกล่อง เดลิเวอรี,ก๋วยเตี๋ยว,1,https://img.wongnai.com/p/_-x_/2023/07/19/8f5f36875dfd46b1884bf37ad6f3755c.jpg,https://www.wongnai.com/restaurants/2415493PR
324826,324826kS,09VwpBTRTK2NjWyxXlyXxTLTGASxdc,ดอยหลวงเชียงดาว,ดอยหลวงเชียงดาว,,19.39986045,98.87618904,50170,ภูเขา|จุดชมวิว,ภูเขา,0,https://img.wongnai.com/p/_-x_/2018/07/14/d3bfc923463a4592aed485a08eb7a685.jpg,https://www.wongnai.com/restaurants/324826kS
191961,191961Oo,09VwpBTRR6tEuGgHGAE8IlLGjiJgLF,ลูกชิ้นทิพย์ โลตัสตลาด บ่อสร้าง,,,18.764385998528724,99.07914300000002,50130,สตรีทฟู้ด/รถเข็น,สตรีทฟู้ด/รถเข็น,0,https://img.wongnai.com/p/_-x_/2015/06/17/eda59045b04048e8ba667890d35f1c03.jpg,https://www.wongnai.com/restaurants/191961Oo
2820905,2820905eE,09VyFRwUQlez1qckBvY4PQzdDENIOG,หจก.ก๋วยเตี๋ยวลูกทุ่งรุ่งโรจน์-บุญศรีลำปาง สำนักงานใหญ่จังหวัดเชียงใหม่,หจก.ก๋วยเตี๋ยวลูกทุ่งรุ่งโรจน์-บุญศรีลำปาง,,18.724162,98.928786,,ก๋วยเตี๋ยว,ก๋วยเตี๋ยว,1,https://img.wongnai.com/p/_-x_/2024/06/20/8038fa42ce054a559945a404cd8adf74.jpg,https://www.wongnai.com/restaurants/2820905eE
153862,153862dk,09VwpBTRU5W7y0WhglWbXDCBrvyuKV,ต้อมเตี๋ยวเรือยกซด สาขาหน้า ม.พายัพ หน้า ม.พายัพ,ต้อมเตี๋ยวเรือยกซด,,18.7939358,99.0256633,50000,ก๋วยเตี๋ยว|อาหารไทย,ก๋วยเตี๋ยว,1,https://img.wongnai.com/p/_-x_/2020/05/10/575eb0a435844474b3e9fd576856989c.jpg,https://www.wongnai.com/restaurants/153862dk
3802377,3802377hn,09VylI3PFfzrN3JFenNlMV4oCu5cB0,tam coffee,,,18.806426,99.02827,,ร้านกาแฟ/ชา,ร้านกาแฟ/ชา,1,https://img.wongnai.com/p/_-x_/2026/05/20/4a6a8ea323814e92ad224759dc697e56.jpg,https://www.wongnai.com/restaurants/3802377hn
2237662,2237662Gm,09VxvGL9vzLBd2rM2BzlM4pSEhHI9O,รูรุปังชา,รูรุปังชา,Rurupangcha,18.845305499999984,98.97303790000005,50180,ร้านกาแฟ/ชา,ร้านกาแฟ/ชา,1,https://img.wongnai.com/p/_-x_/2025/07/11/5c52cfd3dbc443f9b63ea18bdc05cc9e.jpg,https://www.wongnai.com/restaurants/2237662Gm
342740,342740zv,09VwpBTRcpSz5imhm4iY3e1nswVo1H,Grandmorocc cafe & restaurant,,The Grand Morocc ,18.919420250010347,98.93995167687535,50180,โรงแรม/รีสอร์ท,โรงแรม/รีสอร์ท,0,https://img.wongnai.com/p/_-x_/2026/02/21/3a8f2ebb158244d9a0ead1f653c7a7ca.jpg,https://www.wongnai.com/restaurants/342740zv
3035780,3035780TT,09VyN03Xv5TogUiaxMhX4cyUOZgb6i,Blink Me Bunny Cafe' & Bistro -,Blink Me Bunny Cafe' & Bistro,,18.858035977587985,98.97576225810607,50180,คาเฟ่,คาเฟ่,1,https://img.wongnai.com/p/_-x_/2024/12/12/891d8b15afdc4b68bd983a938976b657.jpg,https://www.wongnai.com/restaurants/3035780TT
685928,685928JZ,09VxI690t5KVq25ZmhiolorzmRtuDX,เฮือนทิพย์456,เฮือนทิพย์456,hueanthip456,18.88143027747141,99.14999278262258,50220,อาหารไทย|คาเฟ่|คาราโอเกะ,อาหารไทย,1,https://img.wongnai.com/p/_-x_/2022/06/21/11e2192e60e245e6a866428479aa1f36.jpg,https://www.wongnai.com/restaurants/685928JZ
1894830,1894830pp,09Vxm1G89nSxdMVROr3ukOeTVSbQjf,225บ้านกระเพราะ,,Fresh Coffee Bubble Tea MiNi Cofee',18.67759146419193,98.91282461347564,50230,อาหารจานเดียว,อาหารจานเดียว,1,https://img.wongnai.com/p/_-x_/2022/10/05/083329e4602e4285aba19dc41f28d591.jpg,https://www.wongnai.com/restaurants/1894830pp
744067,744067lJ,09VxKsLseFo7wgz3EtheoohPo4HmbV,Naturetalk Cafe,เนเจอร์ทอล์ก,Naturetalk,18.888131093285985,98.97820031270385,,คาเฟ่|อาหารไทย,คาเฟ่,1,https://img.wongnai.com/p/_-x_/2021/04/24/70960db7915d4a4d982a3c91f628b97e.jpg,https://www.wongnai.com/restaurants/744067lJ
2165523,2165523Ps,09VxtlIHieMhgFKmixCeq3ydmbPJDv,CleverCoffee,เคลฟเวอร์คอฟฟี่,,18.624019918753245,98.89232293414172,50120,ร้านกาแฟ/ชา|คาเฟ่|เบเกอรี/เค้ก,ร้านกาแฟ/ชา,1,https://img.wongnai.com/p/_-x_/2023/03/02/059d1c92d66b4a5f9222af89b1573696.jpg,https://www.wongnai.com/restaurants/2165523Ps
2014349,2014349ha,09Vxp7fLgNk7LoCIXf99A1ZH8DdGFt,On The Rock At NamPhrae -ออน เดอะ ร็อค,,,18.7114763,98.87702999999999,,ปิ้งย่าง|กึ่งผับ/ร้านเหล้า/บาร์|อาหารนานาชาติ,ปิ้งย่าง,1,https://img.wongnai.com/p/_-x_/2022/11/20/19ee0a12d9df40dbbae0b71300510d87.jpg,https://www.wongnai.com/restaurants/2014349ha
3326223,3326223lU,09VyWo2bk3lcbTb3hrTyA6wvZ1ntPE,บ้านสวนศรีแก้ว,บ้านสวนศรีแก้ว,,19.914843835593,99.200816977629,-,อาหารไทย,อาหารไทย,1,https://img.wongnai.com/p/_-x_/2020/07/19/f86afe5b89474f7c91cdcb4d28dff4ee.jpg,https://www.wongnai.com/restaurants/3326223lU
2428553,2428553kA,09Vy0NDMvVZplAyKVglxxILoucwxN1,ครัวคุณแม่หมูกระทะ  เชียงใหม่(แยกหลุยส์),,,18.781808971892055,99.06970342627561,,ปิ้งย่าง|หมูกระทะ|อาหารไทย,ปิ้งย่าง,1,https://img.wongnai.com/p/_-x_/2023/09/05/b0139f35fda24cc1ac14837cd5d80918.jpg,https://www.wongnai.com/restaurants/2428553kA
3057476,3057476ZZ,09VyNypkMKBz17XTH8ufkKf9XDXAWy,วินเนอร์ อินเตอร์ พลาส  ปตท.อ้อมน้อย(ขาออก) เพชรเกษม 93-95 จ.สมุทรสาคร,วินเนอร์ อินเตอร์ พลาส ,,18.8372693,99.0420652,50210,อื่นๆ,อื่นๆ,0,https://img.wongnai.com/p/_-x_/2026/04/03/640c064e86df4dc4a28a428f812f52e2.jpg,https://www.wongnai.com/restaurants/3057476ZZ
3057479,3057479Lw,09VyNyq3NcbADtnRBHqQ95zw0JgCSE,วินเนอร์ อินเตอร์ พลาส  ปตท.วังโตนด อ.นายายอาม จ.จันทบุรี,วินเนอร์ อินเตอร์ พลาส ,,18.9771446,98.9817176,,อื่นๆ,อื่นๆ,0,https://img.wongnai.com/p/_-x_/2026/04/03/43b0f0c27ee043dd8a3b5e483ecea995.jpg,https://www.wongnai.com/restaurants/3057479Lw
1878914,1878914ml,09Vxlh8hWV5ux4hqOMX5HPOQLiOuOY,ฮ้านถึงเจียงใหม่ แม่ริม,,,18.912076,98.923186,,อาหารเหนือ,อาหารเหนือ,1,https://img.wongnai.com/p/_-x_/2022/09/06/43bb572f84a04aec80bdfbbf5a4bd42e.jpg,https://www.wongnai.com/restaurants/1878914ml
2695632,2695632Rl,09VyBIUDLkpBX0BK5ewVDmrKwfjzWJ,Binary Cafe,,,18.68613492219916,98.95818297381494,50230,คาเฟ่,คาเฟ่,1,https://img.wongnai.com/p/_-x_/2026/01/31/0a16107d591b499aaa90da4dfe86b57c.jpg,https://www.wongnai.com/restaurants/2695632Rl
2798285,2798285bb,09VyEp3RIUGyTFb9ZaxU0umXxcJplo,Nehan coffee,,,18.680443,98.917975,50230,ร้านกาแฟ/ชา,ร้านกาแฟ/ชา,1,https://img.wongnai.com/p/_-x_/2024/06/17/dcec15879bd74c199343997373b3f881.jpg,https://www.wongnai.com/restaurants/2798285bb
185899,185899lI,09VwpBTRRxNEdVQ1esDRcRVSvvFKIi,โชคดีปักษใต้( ป้ากล้วยปักษ์ใต้),,,18.775707292985977,99.05955707654357,-,อาหารใต้,อาหารใต้,1,https://img.wongnai.com/p/_-x_/2015/01/24/6c31a23e44b842648cd9507f7b1f42cb.jpg,https://www.wongnai.com/restaurants/185899lI
457580,457580ju,09Vx0RrYIMcVGTvOXnDwBWgKPsTual,ณครา คาเฟ่,ณครา คาเฟ่,Nakara Cafe,19.3684996,98.98035649999997,,คาเฟ่,คาเฟ่,1,https://img.wongnai.com/p/_-x_/2019/12/10/98c7fba7058248948f29ca0287cb4c9e.jpg,https://www.wongnai.com/restaurants/457580ju
